# LAS format log file from PETREL
# Project units are specified as depth units
#==================================================================
~Version information
VERS.   2.0:
WRAP.   NO:
#==================================================================
~Well
STRT .m      189.89040000 :
STOP .m      3795.0648000 :
STEP .m     0.15240000 :
NULL .        -999.250000 :
COMP.           : COMPANY
WELL.  15_9-F-5   : WELL
FLD.            : FIELD
LOC.            : LOCATION
SRVC.           : SERVICE COMPANY
DATE.  2020-08-19 21:46:58   : Log Export Date {yyyy-MM-dd HH:mm:ss}
PROV.           : PROVINCE
UWI.   15_9-F-5   : UNIQUE WELL ID
API.            : API NUMBER
#==================================================================
~Curve
DEPT .m                   : DEPTH
RHOB .g/cm3               : RHOB
GR .gAPI                  : GR
RT .ohm.m                 : RT
NPHI .m3/m3               : NPHI
RM .ohm.m                 : RM
FACIES ._                 : FACIES
~Parameter
#==================================================================
~Ascii
# ...
 3318.9672000 2.2285230160 242.90490723 2.2984700203 0.4394167066 2.2745809555  -999.250000
 3319.1196000 2.2515978813 247.03370667 2.2085909843 0.4393306077 2.1567718983  -999.250000
 3319.2720000 2.2970221043 248.88499451 2.1005859375 0.4135369062 2.1116540432  -999.250000
 3319.4244000 2.3372449875 246.24879456 2.3154668808 0.4190815091 2.2577559948  -999.250000
 3319.5768000 2.3298521042 239.77560425 1.8173650503 0.4024828076 1.9561849833  -999.250000
 3319.7292000 2.3087499142 241.73689270 1.7004280090 0.4416908026 1.8612060547  -999.250000
 3319.8816000 2.3301000595 244.43209839 1.5815329552 0.4537214935 1.5887219906  -999.250000
 3320.0340000 2.3506228924 247.90460205 1.3405719995 0.4067884684 1.3592109680  -999.250000
 3320.1864000 2.4303340912 264.05068970 1.3222370148 0.3717403114 1.3512899876  -999.250000
 3320.3388000 2.4247720242 291.87280273 1.5221270323 0.4362975061 1.2170670033  -999.250000
 3320.4912000 2.4212379456 320.69860840 0.8756458163 0.5051383972 0.8792483211  -999.250000
 3320.6436000 2.3611459732 329.96520996 0.7678791881 0.4582372904 0.7342928052  -999.250000
 3320.7960000 2.3361029625 322.96908569 0.6547822952 0.6036331654 0.6409837008  -999.250000
 3320.9484000 2.3257970810 299.16009521 0.6423776150 0.5364915133 0.5855556130  -999.250000
 3321.1008000 2.3372631073 277.48318481 0.7506821752 0.4741889834 0.6920698881  -999.250000
 3321.2532000 2.3511140347 262.32620239 0.6822472811 0.4631862938 0.6586412787  -999.250000
 3321.4056000 2.3720700741 260.03509521 0.6498063803 0.4798322916 0.7346305847  -999.250000
 3321.5580000 2.3995339870 241.15029907 1.1124269962 0.3736259043 0.9459645152  -999.250000
 3321.7104000 2.4258229733 219.87030029 0.7878487110 0.3186372817 0.9847760201  -999.250000
 3321.8628000 2.4187479019 237.37980652 0.6937441826 0.3914533854 0.8829529881  -999.250000
 3322.0152000 2.3869891167 315.42248535 0.7664108276 0.4210794866 0.7651063800  -999.250000
 3322.1676000 2.3960371017 504.63150024 0.5030490160 0.3188413978 0.4866391122  -999.250000
 3322.3200000 2.4844379425 849.57281494 0.2424795032 0.3242615163 0.2753309906  -999.250000
 3322.4724000 2.6281690598 1345.6550293 0.1774851978 0.3593724072 0.2295220941  -999.250000
 3322.6248000 2.6702079773 1711.4219971 0.2362788022 0.3203311265 0.2680773139  -999.250000
 3322.7772000 2.5435390472 1597.3730469 0.2797530890 0.3694218099 0.2632791102  -999.250000
 3322.9296000 2.4044768810 1110.4909668 0.4948521852 0.4720978141 0.4480144978  -999.250000
 3323.0820000 2.3245599270 588.09527588 0.8444644809 0.4516706169 0.8848538995  -999.250000
 3323.2344000 2.2797420025 343.21978760 1.3064709902 0.4233064950 1.5893269777  -999.250000
 3323.3868000 2.2933099270 273.33489990 1.9547220469 0.4329230189 2.5817670822  -999.250000
 3323.5392000 2.3189079762 249.95269775 2.8533420563 0.4189026952 2.8346979618  -999.250000
 3323.6916000 2.3437459469 231.46049500 3.3927290440 0.4345259070 2.8833920956  -999.250000
 3323.8440000 2.3511190414 210.38679504 2.9937369823 0.4288793206 3.0545589924  -999.250000
 3323.9964000 2.3531460762 202.01840210 2.8128910065 0.4058935940 2.6855430603  -999.250000
 3324.1488000 2.3846290112 213.49270630 2.5073390007 0.3818051815 2.4332790375  -999.250000
 3324.3012000 2.4037508965 237.16979980 2.4780349731 0.3524687886 2.5427350998  -999.250000
 3324.4536000 2.4329719543 249.69430542 2.7363920212 0.3617669940 3.1427760124  -999.250000
 3324.6060000 2.4273359776 236.71569824 2.3102610111 0.3684669137 2.3969750404  -999.250000
 3324.7584000 2.4528870583 203.69729614 2.5197649002 0.2833989859 2.7591469288  -999.250000
 3324.9108000 2.4832720757 163.94729614 2.7182850838 0.2235994935 2.8971569538  -999.250000
 3325.0632000 2.5209000111 130.89379883 2.8201119900 0.2162886113 2.7147009373  -999.250000
 3325.2156000 2.5224590302 115.71769714 2.8087520599 0.2409905046 2.7830700874  -999.250000
 3325.3680000 2.5068399906 114.14720154 3.0869660378 0.2426157892 2.9174530506  -999.250000
 3325.5204000 2.5047039986 116.28009796 3.0509688854 0.2144981027 3.0393080711  -999.250000
 3325.6728000 2.5196290016 113.10220337 2.7917470932 0.2094459981 2.8329529762  -999.250000
 3325.8252000 2.5295579433 113.39700317 3.5447990894 0.2622593939 3.5521349907  -999.250000
 3325.9776000 2.5204188824 114.46029663 3.3783249855 0.2829866111 3.5472769737  -999.250000
 3326.1300000 2.5043210983 117.81770325 3.5469889641 0.2705760896 3.5493021011  -999.250000
 3326.2824000 2.4846160412 120.45670319 3.2046000957 0.3203102052 3.4344410896  -999.250000
 3326.4348000 2.4703049660 121.47160339 3.4502110481 0.2898582220 3.4971799850  -999.250000
 3326.5872000 2.4591128826 123.69709778 3.3782370090 0.3024840951 3.4173169136  -999.250000
 3326.7396000 2.4644920826 126.36000061 3.4165959358 0.3030042946 3.2994749546  -999.250000
 3326.8920000 2.4738008976 132.22799683 3.6461210251 0.2961986959 3.3913249969  -999.250000
 3327.0444000 2.4737119675 133.01879883 4.5493230820 0.3324885070 3.8059389591  -999.250000
 3327.1968000 2.4715209007 131.28050232 3.7554841042 0.3578788042 3.8567860126  -999.250000
 3327.3492000 2.4592709541 129.31230164 3.7407929897 0.3118129969 3.6040658951  -999.250000
 3327.5016000 2.4467248917 132.25280762 3.8584840298 0.3628118932 3.9461998940  -999.250000
 3327.6540000 2.4375579357 136.08529663 4.2018017769 0.3348891735 4.1397118568  -999.250000
 3327.8064000 2.4621839523 130.03919983 4.7395410538 0.2873258889 4.8640589714  -999.250000
 3327.9588000 2.5093450546 112.54519653 4.3729600906 0.2463656962 4.8990907669  -999.250000
 3328.1112000 2.5350179672 84.995033264 4.8529958725 0.1939039081 4.9934310913  -999.250000
 3328.2636000 2.5930080414 62.249439240 5.7336478233 0.1602109969 5.4699649811  -999.250000
 3328.4160000 2.6374020576 43.609939575 5.4923210144 0.1511792988 5.8286538124  -999.250000
 3328.5684000 2.7261021137 31.936349869 5.5424327850 0.1400614977 6.1848230362  -999.250000
 3328.7208000 2.7275550365 25.383560181 5.3948712349 0.1246757060 6.4070391655  -999.250000
 3328.8732000 2.7444989681 24.480209351 5.8036870956 0.1205599010 6.5793638229  -999.250000
 3329.0256000 2.7499680519 24.313800812 5.8753938675 0.1140860021 6.3197908401  -999.250000
 3329.1780000 2.7360980511 26.105199814 5.5101041794 0.1302424967 5.9690918922  -999.250000
 3329.3304000 2.7153670788 54.689521790 5.1023101807 0.1299054027 5.4805979729  -999.250000
 3329.4828000 2.6802430153 89.568267822 4.6571598053 0.1585420966 4.9001688957  -999.250000
 3329.6352000 2.6116280556 120.01069641 4.3609051704 0.2851333916 4.4112620354  -999.250000
 3329.7876000 2.5309379101 124.63629913 4.2050747871 0.2870590985 4.2487878799  -999.250000
 3329.9400000 2.4890480042 122.38079834 3.8179409504 0.2724593878 3.8643178940  -999.250000
 3330.0924000 2.4778430462 123.76550293 3.4061069489 0.2955293059 3.5694010258  -999.250000
 3330.2448000 2.4883379936 125.71690369 2.9994690418 0.2857145071 3.0682539940  -999.250000
 3330.3972000 2.4756839275 130.86289978 2.9310400486 0.3120685816 2.8635520935  -999.250000
 3330.5496000 2.4601709843 131.64120483 2.7690069675 0.3134497106 2.6890408993  -999.250000
 3330.7020000 2.4552650452 131.50970459 2.5284869671 0.3296664953 2.4863090515  -999.250000
 3330.8544000 2.4589779377 129.11270142 2.3176629543 0.2794522941 2.3788559437  -999.250000
 3331.0068000 2.4658770561 134.12409973 2.4279561043 0.3181647062 2.3414709568  -999.250000
 3331.1592000 2.4634010792 142.23370361 2.2963240147 0.3212184906 2.2059168816  -999.250000
 3331.3116000 2.4632499218 145.60580444 2.2041270733 0.3124342859 2.1363120079  -999.250000
 3331.4640000 2.4677410126 141.61380005 2.1924970150 0.2992709875 2.2334070206  -999.250000
 3331.6164000 2.4727149010 139.07899475 2.0637230873 0.3060718775 2.0385088921  -999.250000
 3331.7688000 2.4756050110 140.95660400 2.3309700489 0.3204548955 2.2417709827  -999.250000
 3331.9212000 2.4728720188 142.92419434 2.3781459332 0.2971630991 2.2867081165  -999.250000
 3332.0736000 2.4689569473 133.46339417 2.0428800583 0.3274441957 2.0687179565  -999.250000
