# LAS format log file from PETREL
# Project units are specified as depth units
#==================================================================
~Version information
VERS.   2.0:
WRAP.   NO:
#==================================================================
~Well
STRT .m      189.89040000 :
STOP .m      3795.0648000 :
STEP .m     0.15240000 :
NULL .        -999.250000 :
COMP.           : COMPANY
WELL.  15_9-F-5   : WELL
FLD.            : FIELD
LOC.            : LOCATION
SRVC.           : SERVICE COMPANY
DATE.  2020-08-19 21:46:58   : Log Export Date {yyyy-MM-dd HH:mm:ss}
PROV.           : PROVINCE
UWI.   15_9-F-5   : UNIQUE WELL ID
API.            : API NUMBER
#==================================================================
~Curve
DEPT .m                   : DEPTH
RHOB .g/cm3               : RHOB
GR .gAPI                  : GR
RT .ohm.m                 : RT
NPHI .m3/m3               : NPHI
RM .ohm.m                 : RM
FACIES ._                 : FACIES
~Parameter
#==================================================================
~Ascii
# ...
 3597.4020000 2.5581719875 38.404819489 15.362319946 0.0873668194 14.919030190  -999.250000
 3597.5544000 2.5955018997 38.144130707 15.479969978 0.0886574537 15.321749687  -999.250000
 3597.7068000 2.6354680061 38.304618835 15.789600372 0.0820941329 15.554100037  -999.250000
 3597.8592000 2.6689319611 38.207740784 16.115280151 0.0775536075 15.780130386  -999.250000
 3598.0116000 2.6660900116 35.659000397 16.632240295 0.0905720815 16.115819931  -999.250000
 3598.1640000 2.6386950016 34.744869232 17.576980591 0.0912068933 16.548429489  -999.250000
 3598.3164000 2.5851039886 34.290580750 17.964569092 0.1019041985 16.871519089  -999.250000
 3598.4688000 2.5458140373 38.523250580 17.748619080 0.1084755063 16.998130798  -999.250000
 3598.6212000 2.5148150921 37.211399078 18.028200150 0.1078865975 17.381019592  -999.250000
 3598.7736000 2.4908270836 36.612628937 18.513130188 0.1106916964 17.517530441  -999.250000
 3598.9260000 2.4491410255 35.195129395 18.811559677 0.1112664044 17.519470215  -999.250000
 3599.0784000 2.3918321133 35.241989136 18.846130371 0.1211979985 17.465709686  -999.250000
 3599.2308000 2.3212950230 35.785881042 19.496129990 0.1508875042 17.582740784  -999.250000
 3599.3832000 2.2752768993 34.931091309 21.203229904 0.1625560969 18.088909149  -999.250000
 3599.5356000 2.2502710819 36.171550751 21.328170776 0.1803424060 19.045940399  -999.250000
 3599.6880000 2.2429850101 35.564411163 22.523820877 0.1883770972 19.133369446  -999.250000
 3599.8404000 2.2430000305 34.441509247 23.780120850 0.2082625926 19.849470139  -999.250000
 3599.9928000 2.2441830635 33.616100311 24.734390259 0.1949214041 20.890810013  -999.250000
 3600.1452000 2.2511849403 32.732700348 24.640039444 0.1907125115 22.294729233  -999.250000
 3600.2976000 2.2631061077 32.030811310 26.366420746 0.2062813938 23.770200729  -999.250000
 3600.4500000 2.2787621021 31.148910522 27.992809296 0.1857126057 24.816320419  -999.250000
 3600.6024000 2.2917830944 31.345630646 29.761560440 0.1866227984 26.462629318  -999.250000
 3600.7548000 2.2963280678 30.702159882 30.025270462 0.1841581017 27.446699142  -999.250000
 3600.9072000 2.2904140949 30.226669312 30.589759827 0.1778790057 28.127830505  -999.250000
 3601.0596000 2.2928879261 31.621330261 31.913990021 0.1979058981 29.272630692  -999.250000
 3601.2120000 2.2946250439 32.413719177 33.919898987 0.1755470037 30.957950592  -999.250000
 3601.3644000 2.3037540913 34.277660370 36.994899750 0.1892767847 32.835201263  -999.250000
 3601.5168000 2.3041269779 34.269680023 37.642551422 0.1956637949 34.438251495  -999.250000
 3601.6692000 2.3140718937 33.447788239 41.299800873 0.2007642984 36.913421631  -999.250000
 3601.8216000 2.3318500519 32.300399780 44.931449890 0.1563127935 38.945270538  -999.250000
 3601.9740000 2.3554100990 31.337970734 47.588218689 0.1595806032 40.251369476  -999.250000
 3602.1264000 2.3672139645 29.844600677 46.315338135 0.1617559046 38.393440247  -999.250000
 3602.2788000 2.3649079800 27.242959976 46.550098419 0.1615608931 41.243061066  -999.250000
 3602.4312000 2.3420009613 26.212579727 50.198608398 0.1661605090 44.737918854  -999.250000
 3602.5836000 2.3173830509 25.766880035 67.477912903 0.1704425961 48.550819397  -999.250000
 3602.7360000 2.2928559780 24.001689911 68.147521973 0.1662814021 48.826229095  -999.250000
 3602.8884000 2.2791130543 20.155010223 62.890148163 0.1598208994 49.126998901  -999.250000
 3603.0408000 2.2652349472 17.381530762 68.643913269 0.1665436924 50.809501648  -999.250000
 3603.1932000 2.2553009987 16.549379349 67.329818726 0.1835728139 51.400180817  -999.250000
 3603.3456000 2.2422199249 16.506130219 69.265220642 0.1751157939 52.827980042  -999.250000
 3603.4980000 2.2375009060 16.193689346 69.018997192 0.1722224057 52.897579193  -999.250000
 3603.6504000 2.2337999344 15.344550133 62.383750916 0.1529956013 51.819320679  -999.250000
 3603.8028000 2.2314879894 14.930899620 55.700870514 0.1573103070 54.517120361  -999.250000
 3603.9552000 2.2253859043 14.135979652 56.553668976 0.1604155004 52.846290588  -999.250000
 3604.1076000 2.2238960266 14.002730370 53.819339752 0.1577799916 50.806678772  -999.250000
 3604.2600000 2.2313590050 14.503190041 66.392753601 0.1718005985 49.483341217  -999.250000
 3604.4124000 2.2383329868 15.343970299 62.168899536 0.1695780903 48.175029755  -999.250000
 3604.5648000 2.2448480129 17.120689392 62.388759613 0.1832049936 55.788200378  -999.250000
 3604.7172000 2.2481620312 16.072809219 57.807441711 0.1845438033 53.593441010  -999.250000
 3604.8696000 2.2624659538 16.566820145 56.619670868 0.1957665980 53.574131012  -999.250000
 3605.0220000 2.2603590488 15.120860100 67.262123108 0.1799165010 55.349990845  -999.250000
 3605.1744000 2.2511889935 14.581930161 69.319946289 0.1805464923 53.518470764  -999.250000
 3605.3268000 2.2299630642 14.553669930 69.296859741 0.1855291873 55.826869965  -999.250000
 3605.4792000 2.2132139206 16.062059402 65.531768799 0.1997545063 55.507469177  -999.250000
 3605.6316000 2.2041499615 17.347959518 66.612731934 0.1766360104 56.069561005  -999.250000
 3605.7840000 2.2061860561 17.662099838 67.299911499 0.1783795953 59.789470673  -999.250000
 3605.9364000 2.2134630680 17.588260651 77.907272339 0.1682333052 62.616920471  -999.250000
 3606.0888000 2.2201530933 17.221109390 77.298858643 0.1684448123 62.655979156  -999.250000
 3606.2412000 2.2238299847 17.665939331 76.151840210 0.1673637033 65.660842896  -999.250000
 3606.3936000 2.2249300480 17.147569656 77.785057068 0.1727425903 68.239036560  -999.250000
 3606.5460000 2.2201910019 17.269680023 74.328033447 0.1707753986 68.762123108  -999.250000
 3606.6984000 2.2162480354 17.493150711 81.531517029 0.1798586100 67.239227295  -999.250000
 3606.8508000 2.2174849510 17.944480896 79.794143677 0.1692288965 67.731193542  -999.250000
 3607.0032000 2.2189180851 17.915769577 84.141937256 0.1643738002 69.558616638  -999.250000
 3607.1556000 2.2135729790 16.779579163 80.608848572 0.1650654972 71.565933228  -999.250000
 3607.3080000 2.2100958824 16.905410767 82.459503174 0.1884147078 77.136413574  -999.250000
 3607.4604000 2.2069408894 17.271919250 86.888252258 0.1679528058 76.954002380  -999.250000
 3607.6128000 2.2071108818 16.643199921 84.825881958 0.1743535101 76.005500793  -999.250000
 3607.7652000 2.2031040192 13.758580208 89.639900208 0.1690188944 76.815399170  -999.250000
 3607.9176000 2.2018129826 12.867010117 84.705192566 0.1751104891 75.871887207  -999.250000
 3608.0700000 2.2038309574 12.406040192 93.899902344 0.1746595055 79.977020264  -999.250000
 3608.2224000 2.2037310600 13.615969658 91.084800720 0.1761121005 77.247062683  -999.250000
 3608.3748000 2.2039570808 11.977140427 95.003326416 0.1694667935 77.779083252  -999.250000
 3608.5272000 2.2018740177 12.367910385 95.156051636 0.1779198050 81.415992737  -999.250000
 3608.6796000 2.2043349743 12.874159813 94.576812744 0.1634561867 83.448020935  -999.250000
 3608.8320000 2.2116549015 15.542070389 95.156051636 0.1647858024 91.018341064  -999.250000
 3608.9844000 2.2169740200 16.712369919 96.018882751 0.1885613948 84.015441895  -999.250000
 3609.1368000 2.2157509327 17.419530869 101.88200378 0.2051395029 86.675308228  -999.250000
 3609.2892000 2.2111179829 16.756620407 96.627243042 0.1789562106 85.476921082  -999.250000
 3609.4416000 2.2074429989 16.371110916 98.635650635 0.1818049997 89.144012451  -999.250000
 3609.5940000 2.2029960155 16.320680618 102.28790283 0.1725984067 89.326202393  -999.250000
 3609.7464000 2.2008640766 16.845060349 105.98179626 0.1799280941 90.250602722  -999.250000
 3609.8988000 2.1989309788 16.670890808 104.18109894 0.1894305050 94.333282471  -999.250000
 3610.0512000 2.2060890198 15.916609764 104.70980072 0.1774393022 90.185928345  -999.250000
 3610.2036000 2.2028470039 15.684359550 99.905906677 0.1970919073 94.708976746  -999.250000
 3610.3560000 2.2042350769 15.169059753 101.23829651 0.1896785945 93.718566895  -999.250000
 3610.5084000 2.2050158978 14.670740128 106.51640320 0.1778924018 94.091819763  -999.250000
