# LAS format log file from PETREL
# Project units are specified as depth units
#==================================================================
~Version information
VERS.   2.0:
WRAP.   NO:
#==================================================================
~Well
STRT .m      189.89040000 :
STOP .m      3795.0648000 :
STEP .m     0.15240000 :
NULL .        -999.250000 :
COMP.           : COMPANY
WELL.  15_9-F-5   : WELL
FLD.            : FIELD
LOC.            : LOCATION
SRVC.           : SERVICE COMPANY
DATE.  2020-08-19 21:46:58   : Log Export Date {yyyy-MM-dd HH:mm:ss}
PROV.           : PROVINCE
UWI.   15_9-F-5   : UNIQUE WELL ID
API.            : API NUMBER
#==================================================================
~Curve
DEPT .m                   : DEPTH
RHOB .g/cm3               : RHOB
GR .gAPI                  : GR
RT .ohm.m                 : RT
NPHI .m3/m3               : NPHI
RM .ohm.m                 : RM
FACIES ._                 : FACIES
~Parameter
#==================================================================
~Ascii
# ...
 3544.3668000 2.2181880474 13.611989975 51.691631317 0.1786417067 45.228389740  -999.250000
 3544.5192000 2.2348198891 13.561440468 53.672401428 0.1789505035 40.360149384  -999.250000
 3544.6716000 2.2541399002 12.382940292 51.280460358 0.1546376944 35.937740326  -999.250000
 3544.8240000 2.2894949913 12.145489693 53.489860535 0.1507652998 32.445758820  -999.250000
 3544.9764000 2.2958269119 12.668689728 40.085411072 0.1780932099 33.380970001  -999.250000
 3545.1288000 2.2849919796 14.338800430 29.877809525 0.1680015922 27.024589539  -999.250000
 3545.2812000 2.2692329884 16.343189240 27.867689133 0.1628305018 23.056209564  -999.250000
 3545.4336000 2.2971909046 17.526870728 30.757179260 0.1669346094 22.863319397  -999.250000
 3545.5860000 2.3227310181 19.141180038 11.920829773 0.1720091999 22.176910400  -999.250000
 3545.7384000 2.3274428844 20.063800812 23.326150894 0.1566444933 41.981170654  -999.250000
 3545.8908000 2.3097391129 20.517000198 200.00000000 0.1653575003 200.00000000  -999.250000
 3546.0432000 2.3035569191 18.918369293 52.626079559 0.1728305966 200.00000000  -999.250000
 3546.1956000 2.3195590973 17.100879669 40.111610413 0.1760633141 66.670417786  -999.250000
 3546.3480000 2.3149549961 14.794939995 200.00000000 0.1915813088 200.00000000  -999.250000
 3546.5004000 2.3173189163 16.767019272 200.00000000 0.1670082062 200.00000000  -999.250000
 3546.6528000 2.2980990410 18.689680099 21.677650452 0.1896961927 17.814409256  -999.250000
 3546.8052000 2.2787530422 21.008960724 23.497339249 0.2085826993 20.597850800  -999.250000
 3546.9576000 2.2605409622 22.048830032 26.368780136 0.1866713911 22.761259079  -999.250000
 3547.1100000 2.2507610321 20.497760773 26.957500458 0.1912833005 25.271320343  -999.250000
 3547.2624000 2.2495439053 20.035869598 31.994960785 0.1836058944 27.668849945  -999.250000
 3547.4148000 2.2459619045 18.549179077 31.496519089 0.1858024001 26.751989365  -999.250000
 3547.5672000 2.2462160587 19.608070374 30.847009659 0.2020504922 27.083150864  -999.250000
 3547.7196000 2.2433919907 21.702859879 32.391029358 0.1798088104 29.553089142  -999.250000
 3547.8720000 2.2363741398 22.054679871 34.963649750 0.1812321097 32.320758820  -999.250000
 3548.0244000 2.2340190411 22.655420303 33.846050262 0.1923571974 31.440200806  -999.250000
 3548.1768000 2.2343430519 19.963590622 35.122959137 0.1843947917 33.179100037  -999.250000
 3548.3292000 2.2401618958 18.722530365 41.393699646 0.1737696081 38.419429779  -999.250000
 3548.4816000 2.2385840416 18.188629150 39.780429840 0.1722829044 37.129020691  -999.250000
 3548.6340000 2.2408740520 18.997669220 39.553638458 0.1631093025 36.803169250  -999.250000
 3548.7864000 2.2459330559 19.816900253 38.272548676 0.1637977958 36.259258270  -999.250000
 3548.9388000 2.2527120113 19.157850266 37.073989868 0.1621847898 36.251079559  -999.250000
 3549.0912000 2.2546839714 18.992700577 36.951889038 0.1641395986 35.463470459  -999.250000
 3549.2436000 2.2549109459 18.879129410 33.321559906 0.1704851985 32.431938171  -999.250000
 3549.3960000 2.2591159344 21.917100906 33.416210175 0.1754453033 30.972700119  -999.250000
 3549.5484000 2.2673659325 22.944679260 32.171741486 0.1727886051 30.440099716  -999.250000
 3549.7008000 2.2727859020 24.621290207 29.962390900 0.1779587865 29.816249847  -999.250000
 3549.8532000 2.2705819607 23.740919113 28.566009521 0.1741982996 28.029989243  -999.250000
 3550.0056000 2.2661390305 24.842109680 28.085290909 0.1693009883 27.653730392  -999.250000
 3550.1580000 2.2661430836 25.213930130 26.587900162 0.1771364957 26.587860107  -999.250000
 3550.3104000 2.2716820240 25.064319611 26.564599991 0.1824827939 27.011360168  -999.250000
 3550.4628000 2.2794411182 25.081020355 26.098659515 0.1667733043 25.570709229  -999.250000
 3550.6152000 2.2817680836 22.937400818 24.802909851 0.1609415114 24.693069458  -999.250000
 3550.7676000 2.2841470242 23.503870010 23.728660583 0.1533250064 25.089620590  -999.250000
 3550.9200000 2.2842049599 22.351949692 24.813289642 0.1535249949 23.896480560  -999.250000
 3551.0724000 2.2837250233 24.333389282 24.468389511 0.1643280983 23.106769562  -999.250000
 3551.2248000 2.2776451111 24.044099808 24.195369720 0.1729568988 22.632930756  -999.250000
 3551.3772000 2.2672929764 26.215240479 26.105459213 0.1735486090 23.223190308  -999.250000
 3551.5296000 2.2564580441 26.046129227 24.098829269 0.1791304052 22.796249390  -999.250000
 3551.6820000 2.2545080185 26.033409119 22.522520065 0.1741309911 22.130670547  -999.250000
 3551.8344000 2.2482340336 25.758739471 22.927330017 0.1739916056 22.771350861  -999.250000
 3551.9868000 2.2410600185 25.941120148 24.118940353 0.1836577058 22.819169998  -999.250000
 3552.1392000 2.2379209995 27.721689224 22.845100403 0.1807835996 21.903820038  -999.250000
 3552.2916000 2.2382800579 27.841470718 23.043729782 0.1903163940 21.926069260  -999.250000
 3552.4440000 2.2491300106 27.339080811 25.613100052 0.1849090010 22.079509735  -999.250000
 3552.5964000 2.2507278919 24.391439438 19.635360718 0.1813052893 19.058250427  -999.250000
 3552.7488000 2.2589640617 24.189140320 21.012010574 0.1871777028 19.084459305  -999.250000
 3552.9012000 2.2609210014 24.950460434 19.594009399 0.1867914051 18.758369446  -999.250000
 3553.0536000 2.2623770237 27.017080307 18.033929825 0.1861304045 18.160339355  -999.250000
 3553.2060000 2.2602019310 25.784479141 18.314109802 0.1941710114 18.233940125  -999.250000
 3553.3584000 2.2562460899 24.191400528 17.099020004 0.1907069981 17.131999969  -999.250000
 3553.5108000 2.2527260780 24.790639877 16.776369095 0.2047455013 16.733440399  -999.250000
 3553.6632000 2.2559690475 25.278699875 16.634920120 0.1969393939 16.216190338  -999.250000
 3553.8156000 2.2649290562 26.912649155 16.020769119 0.1953377873 15.728980064  -999.250000
 3553.9680000 2.2754139900 26.821039200 15.522749901 0.2003861964 15.855609894  -999.250000
 3554.1204000 2.2839798927 27.060579300 15.898659706 0.1933324933 15.037719727  -999.250000
 3554.2728000 2.2824349403 28.711280823 14.731530190 0.1978795081 14.378080368  -999.250000
 3554.4252000 2.2859330177 28.187280655 14.556220055 0.1977560967 14.052319527  -999.250000
 3554.5776000 2.2842350006 27.977430344 14.002940178 0.2030133009 13.977419853  -999.250000
 3554.7300000 2.2900109291 26.445030212 13.650699615 0.2059236020 13.555379868  -999.250000
 3554.8824000 2.2897660732 26.612459183 12.541330338 0.1830073893 12.366359711  -999.250000
 3555.0348000 2.2894299030 27.999460220 12.465589523 0.1907476932 12.190150261  -999.250000
 3555.1872000 2.2824430466 27.470350266 12.786840439 0.2075112015 12.442330360  -999.250000
 3555.3396000 2.2757949829 25.761470795 11.959110260 0.1907969117 11.506259918  -999.250000
 3555.4920000 2.2668809891 24.995109558 11.511489868 0.1800432950 11.042349815  -999.250000
 3555.6444000 2.2589430809 23.686519623 11.018150330 0.1953712106 10.796319962  -999.250000
 3555.7968000 2.2509939671 23.280239105 11.152600288 0.2027308047 10.766960144  -999.250000
 3555.9492000 2.2480111122 22.553020477 10.934060097 0.1773876995 10.740369797  -999.250000
 3556.1016000 2.2464671135 24.297609329 11.030500412 0.1908371896 10.735309601  -999.250000
 3556.2540000 2.2486341000 25.887840271 10.878700256 0.1944907010 10.440589905  -999.250000
 3556.4064000 2.2537999153 26.049980164 10.321100235 0.2014183104 10.127519608  -999.250000
 3556.5588000 2.2568469048 25.863069534 10.001810074 0.1776807010 9.9045743942  -999.250000
 3556.7112000 2.2519810200 26.370620728 10.103309631 0.2000119090 9.8727874756  -999.250000
 3556.8636000 2.2492170334 27.081409454 11.539730072 0.1902998984 9.5491256714  -999.250000
 3557.0160000 2.2502629757 27.197969437 10.111630440 0.1898579001 9.6861457825  -999.250000
 3557.1684000 2.2586629391 27.363700867 9.5726995468 0.1877107024 10.499839783  -999.250000
 3557.3208000 2.2704761028 28.686960220 9.8548994064 0.1931580901 9.9463701248  -999.250000
 3557.4732000 2.2901999950 30.795989990 9.8333339691 0.1895323992 9.6789674759  -999.250000
