# LAS format log file from PETREL
# Project units are specified as depth units
#==================================================================
~Version information
VERS.   2.0:
WRAP.   NO:
#==================================================================
~Well
STRT .m      -0.015270480 :
STOP .m      1245.8090095 :
STEP .m     0.04572000 :
NULL .        -999.250000 :
COMP.           : COMPANY
WELL.  15_9-19 A   : WELL
FLD.            : FIELD
LOC.            : LOCATION
SRVC.           : SERVICE COMPANY
DATE.  2020-08-19 21:46:58   : Log Export Date {yyyy-MM-dd HH:mm:ss}
PROV.           : PROVINCE
UWI.   15_9-19 A   : UNIQUE WELL ID
API.            : API NUMBER
#==================================================================
~Curve
DEPT .m                   : DEPTH
GR .gAPI                  : GR
NPHI .m3/m3               : NPHI
RHOB .g/cm3               : RHOB
RM .ohm.m                 : RM
RT .ohm.m                 : RT
FACIES ._                 : FACIES
~Parameter
#==================================================================
~Ascii
# ...
 672.20588952  -999.250000  -999.250000  -999.250000  -999.250000  -999.250000  -999.250000
 672.25160952  -999.250000  -999.250000  -999.250000  -999.250000  -999.250000  -999.250000
 672.29732952  -999.250000  -999.250000  -999.250000  -999.250000  -999.250000  -999.250000
 672.34304952  -999.250000  -999.250000  -999.250000  -999.250000  -999.250000  -999.250000
 672.38876952  -999.250000  -999.250000  -999.250000  -999.250000  -999.250000  -999.250000
 672.43448952  -999.250000  -999.250000  -999.250000  -999.250000  -999.250000  -999.250000
 672.48020952  -999.250000  -999.250000  -999.250000  -999.250000  -999.250000  -999.250000
 672.52592952  -999.250000  -999.250000  -999.250000  -999.250000  -999.250000  -999.250000
 672.57164952  -999.250000  -999.250000  -999.250000  -999.250000  -999.250000  -999.250000
 672.61736952 57.189998627 0.5199999809 2.3510000706 2.0000000000 2.0000000000  -999.250000
 672.66308952 63.159999847 0.5000000000 2.4054999352 1.6000000238 2.0000000000  -999.250000
 672.70880952 64.519996643 0.4399999976 2.4578998089 1.5000000000 2.0000000000  -999.250000
 672.75452952 63.009998322 0.4300000072 2.4218997955 1.5000000000 2.0000000000  -999.250000
 672.80024952 60.840000153 0.4499999881 2.3138000965 1.3999999762 2.0000000000  -999.250000
 672.84596952 58.779998779 0.4599999785 2.1848998070 1.3999999762 1.8999999762  -999.250000
 672.89168952 61.130001068 0.4800000191 2.1394000053 1.3999999762 1.7999999523  -999.250000
 672.93740952 63.000000000 0.4800000191 2.1370000839 1.2999999523 1.7000000477  -999.250000
 672.98312952 64.650001526 0.4699999690 2.1394999027 1.2999999523 1.7000000477  -999.250000
 673.02884952 65.510002136 0.4900000095 2.1376998425 1.2999999523 1.6000000238  -999.250000
 673.07456952 64.080001831 0.5000000000 2.1377999783 1.2999999523 1.6000000238  -999.250000
 673.12028952 65.199996948 0.5199999809 2.1380000114 1.2999999523 1.6000000238  -999.250000
 673.16600952 62.250000000 0.5199999809 2.1346001625 1.2999999523 1.6000000238  -999.250000
 673.21172952 60.889999390 0.5300000310 2.1333000660 1.2999999523 1.6000000238  -999.250000
 673.25744952 61.099998474 0.4800000191 2.1335000992 1.2999999523 1.6000000238  -999.250000
 673.30316952 63.580001831 0.4399999976 2.1333000660 1.2999999523 1.7000000477  -999.250000
 673.34888952 65.410003662 0.4199999869 2.1319999695 1.2999999523 1.5000000000  -999.250000
 673.39460952 65.029998779 0.4199999869 2.1252999306 1.2999999523 1.5000000000  -999.250000
 673.44032952 65.239997864 0.4499999881 2.1183998585 1.2999999523 1.5000000000  -999.250000
 673.48604952 64.750000000 0.4399999976 2.1206998825 1.2999999523 1.5000000000  -999.250000
 673.53176952 61.930000305 0.4399999976 2.1245000362 1.2999999523 1.5000000000  -999.250000
 673.57748952 59.470001221 0.4800000191 2.1176998615 1.2999999523 1.5000000000  -999.250000
 673.62320952 57.970001221 0.5000000000 2.1073999405 1.2999999523 1.5000000000  -999.250000
 673.66892952 56.689998627 0.4699999690 2.1033000946 1.2999999523 1.5000000000  -999.250000
 673.71464952 57.790000916 0.4300000072 2.1098001003 1.2999999523 1.5000000000  -999.250000
 673.76036952 58.889999390 0.4199999869 2.1205000877 1.2999999523 1.5000000000  -999.250000
 673.80608952 56.930000305 0.4399999976 2.1293001175 1.2999999523 1.5000000000  -999.250000
 673.85180952 55.990001678 0.4599999785 2.1217999458 1.2999999523 1.3999999762  -999.250000
 673.89752952 59.610000610 0.4399999976 2.1228001118 1.2999999523 1.3999999762  -999.250000
 673.94324952 60.459999084 0.4000000060 2.1419999599 1.2999999523 1.3999999762  -999.250000
 673.98896952 60.069999695 0.3700000048 2.1518998146 1.2999999523 1.3999999762  -999.250000
 674.03468952  -999.250000  -999.250000  -999.250000  -999.250000  -999.250000  -999.250000
 674.08040952 57.259998322 0.3900000155 2.1547000408 1.2999999523 1.3999999762  -999.250000
 674.12612952 56.919998169 0.4399999976 2.1631000042 1.2999999523 1.3999999762  -999.250000
 674.17184952 56.680000305 0.4499999881 2.1651000977 1.2000000477 1.5000000000  -999.250000
 674.21756952 55.880001068 0.4300000072 2.1591999531 1.2999999523 1.5000000000  -999.250000
 674.26328952 57.400001526 0.4099999964 2.1635000706 1.2999999523 1.5000000000  -999.250000
 674.30900952 55.599998474 0.3799999952 2.1968998909 1.3999999762 1.5000000000  -999.250000
 674.35472952 50.490001678 0.4000000060 2.2393000126 1.3999999762 1.5000000000  -999.250000
 674.40044952 48.119998932 0.4900000095 2.2643001080 1.3999999762 1.5000000000  -999.250000
 674.44616952 44.419998169 0.5600000024 2.2632000446 1.3999999762 1.5000000000  -999.250000
 674.49188952 42.520000458 0.5300000310 2.2113001347 1.3999999762 1.5000000000  -999.250000
 674.53760952 47.599998474 0.4800000191 2.1706001759 1.7000000477 2.2000000477  -999.250000
 674.58332952 53.409999847 0.4800000191 2.1756000519 1.3999999762 1.3999999762  -999.250000
 674.62904952 53.580001831 0.4599999785 2.1742000580 1.3999999762 1.2999999523  -999.250000
 674.67476952 54.520000458 0.4499999881 2.1686999798 1.3999999762 1.3999999762  -999.250000
 674.72048952 53.279998779 0.4499999881 2.1668999195 1.2999999523 1.5000000000  -999.250000
 674.76620952 53.389999390 0.4499999881 2.1496999264 1.3999999762 1.5000000000  -999.250000
 674.81192952 55.819999695 0.4399999976 2.1246001720 1.3999999762 1.3999999762  -999.250000
 674.85764952 55.919998169 0.4499999881 2.1071999073 1.3999999762 1.2999999523  -999.250000
 674.90336952 55.909999847 0.4599999785 2.1151001453 1.3999999762 1.2999999523  -999.250000
 674.94908952 57.330001831 0.4499999881 2.1280000210 1.3999999762 1.2999999523  -999.250000
 674.99480952 59.439998627 0.4099999964 2.1240000725 1.3999999762 1.2999999523  -999.250000
 675.04052952 60.110000610 0.4199999869 2.1176002026 1.2999999523 1.3999999762  -999.250000
 675.08624952 61.750000000 0.4399999976 2.1111001968 1.2999999523 1.3999999762  -999.250000
 675.13196952 60.950000763 0.4199999869 2.0994999409 1.2999999523 1.3999999762  -999.250000
 675.17768952 58.060001373 0.4099999964 2.1057000160 1.2999999523 1.3999999762  -999.250000
 675.22340952 56.630001068 0.4399999976 2.1211998463 1.2999999523 1.3999999762  -999.250000
 675.26912952 57.909999847 0.4399999976 2.1224999428 1.2999999523 1.2999999523  -999.250000
 675.31484952 58.220001221 0.4300000072 2.1076002121 1.2999999523 1.2999999523  -999.250000
 675.36056952 58.389999390 0.4399999976 2.1033000946 1.3999999762 1.2999999523  -999.250000
 675.40628952 63.409999847 0.4599999785 2.1005001068 1.3999999762 1.2999999523  -999.250000
 675.45200952 66.690002441 0.4499999881 2.0913000107 1.3999999762 1.2999999523  -999.250000
 675.49772952 63.990001678 0.4199999869 2.0899999142 1.3999999762 1.2999999523  -999.250000
 675.54344952 63.240001678 0.4099999964 2.0926001072 1.3999999762 1.2999999523  -999.250000
 675.58916952 61.180000305 0.4399999976 2.0920000076 1.3999999762 1.2999999523  -999.250000
 675.63488952 59.930000305 0.4900000095 2.0951001644 1.3999999762 1.2999999523  -999.250000
 675.68060952 61.979999542 0.4900000095 2.1047999859 1.3999999762 1.2999999523  -999.250000
 675.72632952 61.419998169 0.4699999690 2.1235001087 1.3999999762 1.2999999523  -999.250000
 675.77204952 60.779998779 0.4300000072 2.1252000332 1.3999999762 1.2999999523  -999.250000
 675.81776952 61.689998627 0.4499999881 2.1083998680 1.3999999762 1.2999999523  -999.250000
 675.86348952 59.520000458 0.4699999690 2.1263999939 1.3999999762 1.2999999523  -999.250000
 675.90920952 62.069999695 0.5099999905 2.1876001358 1.3999999762 1.2999999523  -999.250000
 675.95492952 60.700000763 0.5300000310 2.2126998901 1.3999999762 1.2999999523  -999.250000
 676.00064952 56.150001526 0.4499999881 2.2068998814 1.3999999762 1.2999999523  -999.250000
 676.04636952 59.200000763 0.4499999881 2.1978998184 1.3999999762 1.2999999523  -999.250000
 676.09208952 57.930000305 0.4699999690 2.1953001022 1.3999999762 1.2999999523  -999.250000
 676.13780952 57.779998779 0.4599999785 2.1703999043 1.2999999523 1.2999999523  -999.250000
