# LAS format log file from PETREL
# Project units are specified as depth units
#==================================================================
~Version information
VERS.   2.0:
WRAP.   NO:
#==================================================================
~Well
STRT .m      175.86960000 :
STOP .m      5330.3424000 :
STEP .m     0.15240000 :
NULL .        -999.250000 :
COMP.           : COMPANY
WELL.  15_9-F-10   : WELL
FLD.            : FIELD
LOC.            : LOCATION
SRVC.           : SERVICE COMPANY
DATE.  2020-08-19 21:46:58   : Log Export Date {yyyy-MM-dd HH:mm:ss}
PROV.           : PROVINCE
UWI.   15_9-F-10   : UNIQUE WELL ID
API.            : API NUMBER
#==================================================================
~Curve
DEPT .m                   : DEPTH
RHOB .g/cm3               : RHOB
RT .ohm.m                 : RT
GR .gAPI                  : GR
NPHI .m3/m3               : NPHI
RM .ohm.m                 : RM
FACIES ._                 : FACIES
~Parameter
#==================================================================
~Ascii
# ...
 4564.5324000 2.6248664856 6.9414982796 11.743943214  -999.250000 6.9332518578  -999.250000
 4564.6848000 2.6261065006 6.9980726242 11.744726181  -999.250000 6.8912229538  -999.250000
 4564.8372000 2.6330833435 6.9674692154 10.571894646  -999.250000 6.9220933914  -999.250000
 4564.9896000 2.6346895695 7.0434312820 9.6318655014  -999.250000 6.9182777405  -999.250000
 4565.1420000 2.6214807034 7.0731282234 9.8646688461  -999.250000 6.9553532600  -999.250000
 4565.2944000 2.6036846638 7.0459246635 9.5506610870  -999.250000 6.9636526108  -999.250000
 4565.4468000 2.5988976955 7.0129837990 9.0038509369  -999.250000 6.9818706512  -999.250000
 4565.5992000 2.5953755379 7.0687508583 10.034062386  -999.250000 7.0039844513  -999.250000
 4565.7516000 2.6128776073 7.2041587830 11.611083984  -999.250000 7.0031609535  -999.250000
 4565.9040000 2.6220576763 7.1765112877 11.298486710  -999.250000 6.9521546364  -999.250000
 4566.0564000 2.6219515800 7.2038908005 9.4088678360  -999.250000 6.9792866707  -999.250000
 4566.2088000 2.6150338650 7.1097621918 6.5793433189  -999.250000 6.9869976044  -999.250000
 4566.3612000 2.6150639057 7.1152405739 5.6394371986  -999.250000 6.9892272949  -999.250000
 4566.5136000 2.6241910458 7.2126860619 5.4261741638  -999.250000 6.9980549812  -999.250000
 4566.6660000 2.6020064354 7.1546330452 6.4157471657  -999.250000 6.9984884262  -999.250000
 4566.8184000 2.5664849281 7.1480355263 7.6682505608  -999.250000 6.9699320793  -999.250000
 4566.9708000 2.5567767620 7.1049103737 8.9697475433  -999.250000 6.9903421402  -999.250000
 4567.1232000 2.5820276737 7.0448255539 10.008312225  -999.250000 6.9762821198  -999.250000
 4567.2756000 2.5937874317 7.1406469345 11.105574608  -999.250000 6.9400734901  -999.250000
 4567.4280000 2.5812180042 7.1144294739 11.427202225  -999.250000 6.9514975548  -999.250000
 4567.5804000 2.5866918564 7.1028566360 10.025666237  -999.250000 6.9560532570  -999.250000
 4567.7328000 2.6038279533 7.1022772789 8.3025045395  -999.250000 6.9502706528  -999.250000
 4567.8852000 2.6071717739 7.1143102646 6.8666958809  -999.250000 6.9543838501  -999.250000
 4568.0376000 2.5934996605 7.1403899193 7.1540484428  -999.250000 6.9639329910  -999.250000
 4568.1900000 2.5745105743 7.0812196732 8.0931720734  -999.250000 6.9318666458  -999.250000
 4568.3424000 2.5672435760 7.0310878754 8.7449426651  -999.250000 6.9225544930  -999.250000
 4568.4948000 2.5699927807 6.9982581139 9.5767488480  -999.250000 6.9233050346  -999.250000
 4568.6472000 2.5837605000 7.0168132782 9.7567844391  -999.250000 6.9116058350  -999.250000
 4568.7996000 2.6056993008 6.9692759514 9.6009168625  -999.250000 6.9317054749  -999.250000
 4568.9520000 2.6120865345 6.9487700462 9.2650136948  -999.250000 6.9277667999  -999.250000
 4569.1044000 2.6373686790 6.9716653824 9.0598678589  -999.250000 6.9087271690  -999.250000
 4569.2568000 2.6542434692 6.9228549004 9.1906251907  -999.250000 6.8934645653  -999.250000
 4569.4092000 2.6591353416 6.9183006287 8.9166889191  -999.250000 6.9022140503  -999.250000
 4569.5616000 2.6621327400 6.9177365303 8.5119934082  -999.250000 6.8236775398  -999.250000
 4569.7140000 2.6551895142 6.8989810944 8.0672683716  -999.250000 6.8311429024  -999.250000
 4569.8664000 2.6501464844 6.8964810371 8.0272359848  -999.250000 6.8635506630  -999.250000
 4570.0188000 2.6415197849 6.8630113602 9.1836557388  -999.250000 6.8111023903  -999.250000
 4570.1712000 2.6415002346 6.8866930008 10.380106926  -999.250000 6.7990140915  -999.250000
 4570.3236000 2.6397178173 6.7942290306 10.536718369  -999.250000 6.8185009956  -999.250000
 4570.4760000 2.6271731853 6.8342604637 9.4968805313  -999.250000 6.7806115150  -999.250000
 4570.6284000 2.6146566868 6.8491320610 9.0034208298  -999.250000 6.7626566887  -999.250000
 4570.7808000 2.6128361225 6.7944025993 9.5497999191  -999.250000 6.7607092857  -999.250000
 4570.9332000 2.6177611351 6.7875452042 9.7433052063  -999.250000 6.7728552818  -999.250000
 4571.0856000 2.6223554611 6.8101773262 9.3904333115  -999.250000 6.7370662689  -999.250000
 4571.2380000 2.6257321835 6.8015069962 8.3748064041  -999.250000 6.7375984192  -999.250000
 4571.3904000 2.6215038300 6.7542858124 7.7120513916  -999.250000 6.7491073608  -999.250000
 4571.5428000 2.6172482967 6.7384948730 6.7607288361  -999.250000 6.7364401817  -999.250000
 4571.6952000 2.6088559628 6.7756285667 6.4721612930  -999.250000 6.7045073509  -999.250000
 4571.8476000 2.6082329750 6.7502136230 6.3012566566  -999.250000 6.7062520981  -999.250000
 4572.0000000 2.6204228401 6.7766871452 6.4189200401  -999.250000 6.7168440819  -999.250000
 4572.1524000 2.6321573257 6.8072614670 6.5365829468  -999.250000 6.7438826561  -999.250000
 4572.3048000 2.6389086246 6.7657327652 6.5365829468  -999.250000 6.7325496674  -999.250000
 4572.4572000 2.6275949478 6.8093409538 7.4486713409  -999.250000 6.7392473221  -999.250000
 4572.6096000 2.6137151718 6.8415479660 8.3607587814  -999.250000 6.7222037315  -999.250000
 4572.7620000 2.6139154434 6.7953701019 8.5316638947  -999.250000 6.7188210487  -999.250000
 4572.9144000 2.6179223061 6.8149952888 7.7904806137  -999.250000 6.7305793762  -999.250000
 4573.0668000 2.6218848228 6.7968120575 6.7255883217  -999.250000 6.7246298790  -999.250000
 4573.2192000 2.6174511909 6.7944426537 6.4018793106  -999.250000 6.7323098183  -999.250000
 4573.3716000 2.6071119308 6.7574777603 6.4012918472  -999.250000 6.7202882767  -999.250000
 4573.5240000 2.6096866131 6.8054161072 6.7244133949  -999.250000 6.7922782898  -999.250000
 4573.6764000 2.6161746979 6.8234143257 7.7672905922  -999.250000 6.7589082718  -999.250000
 4573.8288000 2.6224660873 6.8359928131 8.4870471954  -999.250000 6.7576208115  -999.250000
 4573.9812000 2.6193058491 6.8585972786 10.153532028  -999.250000 6.8257703781  -999.250000
 4574.1336000 2.6041829586 6.9869256020 11.100260735  -999.250000 6.7661561966  -999.250000
 4574.2860000 2.6196656227 6.9232902527 10.537743568  -999.250000 6.8403744698  -999.250000
 4574.4384000 2.6515419483 6.8937520981 9.0284967422  -999.250000 6.8119673729  -999.250000
 4574.5908000 2.6633186340 6.8852863312 7.2441849709  -999.250000 6.8394422531  -999.250000
 4574.7432000 2.6455309391 7.0404238701 6.9691205025  -999.250000 6.8700275421  -999.250000
 4574.8956000 2.6145441532 7.0559992790 6.1664614677  -999.250000 6.8556890488  -999.250000
 4575.0480000 2.6161296368 7.0133543015 5.6388669014  -999.250000 6.8132228851  -999.250000
 4575.2004000 2.6170380116 7.0043821335 5.1112723351  -999.250000 6.8722515106  -999.250000
 4575.3528000 2.6000602245 6.9931664467 5.1112723351  -999.250000 6.8314704895  -999.250000
 4575.5052000 2.5840306282 6.9928984642 8.5422983170  -999.250000 6.8405017853  -999.250000
 4575.6576000 2.5833787918 6.9860949516 11.973325729  -999.250000 6.8772768974  -999.250000
 4575.8100000 2.6068844795 7.1628093719 15.282402039  -999.250000 6.9693598747  -999.250000
 4575.9624000 2.6266939640 7.1838250160 15.160451889  -999.250000 6.9599542618  -999.250000
 4576.1148000 2.6196093559 7.1274065971 13.407339096  -999.250000 6.9832439423  -999.250000
 4576.2672000 2.6241142750 7.2414455414 11.776178360  -999.250000 6.8983240128  -999.250000
 4576.4196000 2.6340901852 7.0869650841 10.549473763  -999.250000 6.8404698372  -999.250000
 4576.5720000 2.6385712624 7.1223206520 10.953927994  -999.250000 6.8869123459  -999.250000
 4576.7244000 2.6331536770 7.1121850014 11.358383179  -999.250000 6.9304709435  -999.250000
 4576.8768000 2.6068410873 7.2335700989 10.861927032  -999.250000 6.9514441490  -999.250000
 4577.0292000 2.5850009918 7.2324509621 10.365470886  -999.250000 6.9498186111  -999.250000
 4577.1816000 2.5746500492 7.2193517685 10.207957268  -999.250000 6.9803352356  -999.250000
 4577.3340000 2.5864498615 7.2643651962 10.546898842  -999.250000 7.0399203300  -999.250000
 4577.4864000 2.5962259769 7.2800955772 11.534387589  -999.250000 6.9789190292  -999.250000
 4577.6388000 2.5946905613 7.2600173950 12.182936668  -999.250000 7.0715723038  -999.250000
