# LAS format log file from PETREL
# Project units are specified as depth units
#==================================================================
~Version information
VERS.   2.0:
WRAP.   NO:
#==================================================================
~Well
STRT .m      -0.015270480 :
STOP .m      1245.8090095 :
STEP .m     0.04572000 :
NULL .        -999.250000 :
COMP.           : COMPANY
WELL.  15_9-19 A   : WELL
FLD.            : FIELD
LOC.            : LOCATION
SRVC.           : SERVICE COMPANY
DATE.  2020-08-19 21:46:58   : Log Export Date {yyyy-MM-dd HH:mm:ss}
PROV.           : PROVINCE
UWI.   15_9-19 A   : UNIQUE WELL ID
API.            : API NUMBER
#==================================================================
~Curve
DEPT .m                   : DEPTH
GR .gAPI                  : GR
NPHI .m3/m3               : NPHI
RHOB .g/cm3               : RHOB
RM .ohm.m                 : RM
RT .ohm.m                 : RT
FACIES ._                 : FACIES
~Parameter
#==================================================================
~Ascii
# ...
 863.13260952 44.409999847 0.5099999905 2.1988999844 0.5000000000 0.5000000000  -999.250000
 863.17832952 44.860000610 0.5199999809 2.2183001041 0.5000000000 0.5000000000  -999.250000
 863.22404952 44.580001831 0.4900000095 2.2267000675 0.5000000000 0.5000000000  -999.250000
 863.26976952 47.229999542 0.5000000000 2.1843998432 0.5000000000 0.5000000000  -999.250000
 863.31548952 48.439998627 0.5000000000 2.1848998070 0.5000000000 0.5000000000  -999.250000
 863.36120952 46.189998627 0.4800000191 2.2056000233 0.5000000000 0.5000000000  -999.250000
 863.40692952 44.500000000 0.4599999785 2.2173998356 0.5000000000 0.5000000000  -999.250000
 863.45264952 46.599998474 0.4599999785 2.2276000977 0.5000000000 0.5000000000  -999.250000
 863.49836952 49.279998779 0.4599999785 2.2173998356 0.5000000000 0.5000000000  -999.250000
 863.54408952 46.680000305 0.4699999690 2.2167999744 0.5000000000 0.5000000000  -999.250000
 863.58980952 45.389999390 0.5000000000 2.2149999142 0.5000000000 0.5000000000  -999.250000
 863.63552952 46.299999237 0.5600000024 2.2296001911 0.5000000000 0.5000000000  -999.250000
 863.68124952 44.650001526 0.5600000024 2.2367999554 0.4000000060 0.4000000060  -999.250000
 863.72696952 45.340000153 0.5400000215 2.2178997993 0.3000000119 0.4000000060  -999.250000
 863.77268952 46.580001831 0.5300000310 2.1875000000 0.4000000060 0.4000000060  -999.250000
 863.81840952 45.659999847 0.5400000215 2.1571002007 0.4000000060 0.4000000060  -999.250000
 863.86412952 47.240001678 0.5400000215 2.1376998425 0.5000000000 0.5000000000  -999.250000
 863.90984952 48.770000458 0.5300000310 2.1705000401 0.6000000238 0.6000000238  -999.250000
 863.95556952 47.709999084 0.5099999905 2.1906001568 0.6999999881 0.6999999881  -999.250000
 864.00128952 41.840000153 0.5199999809 2.1981000900 0.8000000119 0.8999999762  -999.250000
 864.04700952 40.880001068 0.5500000119 2.2101998329 0.8999999762 0.5000000000  -999.250000
 864.09272952 48.389999390 0.5199999809 2.3459999561 0.4000000060 0.5000000000  -999.250000
 864.13844952 51.830001831 0.5000000000 2.5346999168 0.4000000060 0.5000000000  -999.250000
 864.18416952 52.729999542 0.5000000000 2.5591001511 0.5000000000 0.5000000000  -999.250000
 864.22988952 53.909999847 0.5699999928 2.4960000515 0.5000000000 0.6000000238  -999.250000
 864.27560952 51.080001831 0.6299999952 2.4336001873 0.5000000000 0.6999999881  -999.250000
 864.32132952 52.340000153 0.5400000215 2.3127999306 0.5000000000 0.3000000119  -999.250000
 864.36704952 53.259998322 0.4900000095 2.2373998165 0.2000000030 0.2000000030  -999.250000
 864.41276952 48.500000000 0.5600000024 2.2166001797 0.2000000030 0.2000000030  -999.250000
 864.45848952 42.430000305 0.5400000215 2.2208998203 0.3000000119 0.3000000119  -999.250000
 864.50420952 39.669998169 0.4900000095 2.2073998451 0.5000000000 0.5000000000  -999.250000
 864.54992952 46.400001526 0.5000000000 2.1775000095 0.8000000119 0.6999999881  -999.250000
 864.59564952 49.930000305 0.5400000215 2.1614999771 0.8000000119 0.8000000119  -999.250000
 864.64136952 47.540000916 0.5400000215 2.1807000637 0.6999999881 0.6999999881  -999.250000
 864.68708952 48.650001526 0.5500000119 2.2081000805 0.6000000238 0.6000000238  -999.250000
 864.73280952 46.319999695 0.5300000310 2.2183001041 0.5000000000 0.5000000000  -999.250000
 864.77852952 45.689998627 0.5199999809 2.2293999195 0.5000000000 0.5000000000  -999.250000
 864.82424952 48.500000000 0.5400000215 2.3188998699 0.5000000000 0.5000000000  -999.250000
 864.86996952 48.090000153 0.5900000334 2.3977999687 0.4000000060 0.5000000000  -999.250000
 864.91568952 47.240001678 0.6000000238 2.3801999092 0.4000000060 0.4000000060  -999.250000
 864.96140952 49.389999390 0.5400000215 2.3308999538 0.5000000000 0.5000000000  -999.250000
 865.00712952 50.389999390 0.4699999690 2.2497999668 0.5000000000 0.5000000000  -999.250000
 865.05284952 47.450000763 0.4900000095 2.2103998661 0.5000000000 0.5000000000  -999.250000
 865.09856952 44.299999237 0.5099999905 2.2393999100 0.5000000000 0.5000000000  -999.250000
 865.14428952 46.299999237 0.5300000310 2.3076999187 0.5000000000 0.5000000000  -999.250000
 865.19000952 48.099998474 0.5600000024 2.3796999454 0.5000000000 0.5000000000  -999.250000
 865.23572952 48.189998627 0.5300000310 2.2976999283 0.5000000000 0.5000000000  -999.250000
 865.28144952 46.250000000 0.4900000095 2.2243001461 0.5000000000 0.5000000000  -999.250000
 865.32716952 43.700000763 0.4800000191 2.2304999828 0.5000000000 0.5000000000  -999.250000
 865.37288952 44.740001678 0.4599999785 2.2283999920 0.4000000060 0.5000000000  -999.250000
 865.41860952 46.150001526 0.4800000191 2.2228999138 0.4000000060 0.5000000000  -999.250000
 865.46432952 45.979999542 0.4800000191 2.1908998489 0.4000000060 0.5000000000  -999.250000
 865.51004952 46.590000153 11.630000114 2.1116001606 0.5000000000 0.5000000000  -999.250000
 865.55576952 48.689998627 42.400001526 2.0846998692 0.5000000000 0.5000000000  -999.250000
 865.60148952 46.180000305 34.439998627 2.1028997898 0.5000000000 0.5000000000  -999.250000
 865.64720952  -999.250000  -999.250000  -999.250000  -999.250000  -999.250000  -999.250000
 865.69292952 43.959999084 6.4199995995 2.1241002083 0.5000000000 0.5000000000  -999.250000
 865.73864952 45.000000000 0.3900000155 2.1418998241 0.5000000000 0.5000000000  -999.250000
 865.78436952 47.590000153 0.5000000000 2.1418998241 0.5000000000 0.5000000000  -999.250000
 865.83008952 48.830001831 0.5199999809 2.1503999233 0.5000000000 0.5000000000  -999.250000
 865.87580952 48.520000458 0.5199999809 2.1518001556 0.5000000000 0.5000000000  -999.250000
 865.92152952 46.759998322 0.5099999905 2.1486001015 0.5000000000 0.5000000000  -999.250000
 865.96724952 46.189998627 0.5000000000 2.1633000374 0.5000000000 0.5000000000  -999.250000
 866.01296952 46.729999542 0.4900000095 2.1516001225 0.5000000000 0.5000000000  -999.250000
 866.05868952 42.479999542 0.4599999785 2.1308999062 0.5000000000 0.5000000000  -999.250000
 866.10440952 38.799999237 0.4699999690 2.1347000599 0.5000000000 0.5000000000  -999.250000
 866.15012952 41.150001526 0.4699999690 2.1126999855 0.5000000000 0.5000000000  -999.250000
 866.19584952 41.130001068 0.4800000191 2.0618000031 0.5000000000 0.5000000000  -999.250000
 866.24156952 42.029998779 0.5000000000 2.0593998432 0.5000000000 0.5000000000  -999.250000
 866.28728952 45.189998627 0.5099999905 2.0966999531 0.5000000000 0.5000000000  -999.250000
 866.33300952 46.720001221 0.5300000310 2.1066999435 0.5000000000 0.5000000000  -999.250000
 866.37872952 43.840000153 0.5300000310 2.0886001587 0.5000000000 0.5000000000  -999.250000
 866.42444952 44.029998779 0.5300000310 2.0848999023 0.5000000000 0.5000000000  -999.250000
 866.47016952 44.979999542 0.5099999905 2.0843000412 0.5000000000 0.5000000000  -999.250000
 866.51588952 41.560001373 0.5099999905 2.0053999424 0.5000000000 0.5000000000  -999.250000
 866.56160952 38.849998474 0.4499999881 1.9414999485 0.5000000000 0.5000000000  -999.250000
 866.60732952 38.299999237 0.3900000155 2.0159001350 0.5000000000 0.5000000000  -999.250000
 866.65304952 32.360000610 0.3400000036 2.1946001053 0.5000000000 0.5000000000  -999.250000
 866.69876952 24.889999390 0.3299999833 2.3923997879 0.5000000000 0.5000000000  -999.250000
 866.74448952 24.170000076 0.3700000048 2.4888999462 0.5000000000 0.5000000000  -999.250000
 866.79020952 30.559999466 0.3900000155 2.4047999382 0.5000000000 0.5000000000  -999.250000
 866.83592952 37.419998169 0.3900000155 2.2090001106 0.5000000000 0.5000000000  -999.250000
 866.88164952 34.459999084 0.3100000024 2.1763000488 0.5000000000 0.5000000000  -999.250000
 866.92736952 26.579999924 0.2800000012 2.3417999744 0.5000000000 0.5000000000  -999.250000
 866.97308952 21.670000076 0.3000000119 2.4658000469 0.5000000000 0.5000000000  -999.250000
 867.01880952 23.850000381 0.3299999833 2.4114999771 0.5000000000 0.5000000000  -999.250000
 867.06452952 27.879999161 0.4300000072 2.0032999516 0.5000000000 0.5000000000  -999.250000
