# LAS format log file from PETREL
# Project units are specified as depth units
#==================================================================
~Version information
VERS.   2.0:
WRAP.   NO:
#==================================================================
~Well
STRT .m      175.86960000 :
STOP .m      5330.3424000 :
STEP .m     0.15240000 :
NULL .        -999.250000 :
COMP.           : COMPANY
WELL.  15_9-F-10   : WELL
FLD.            : FIELD
LOC.            : LOCATION
SRVC.           : SERVICE COMPANY
DATE.  2020-08-19 21:46:58   : Log Export Date {yyyy-MM-dd HH:mm:ss}
PROV.           : PROVINCE
UWI.   15_9-F-10   : UNIQUE WELL ID
API.            : API NUMBER
#==================================================================
~Curve
DEPT .m                   : DEPTH
RHOB .g/cm3               : RHOB
RT .ohm.m                 : RT
GR .gAPI                  : GR
NPHI .m3/m3               : NPHI
RM .ohm.m                 : RM
FACIES ._                 : FACIES
~Parameter
#==================================================================
~Ascii
# ...
 3437.5344000  -999.250000  -999.250000  -999.250000  -999.250000  -999.250000  -999.250000
 3437.6868000  -999.250000  -999.250000  -999.250000  -999.250000  -999.250000  -999.250000
 3437.8392000 2.1873497963  -999.250000 7.3043465614 0.2290338874  -999.250000  -999.250000
 3437.9916000 2.1431422234  -999.250000 7.4319477081 0.2278740406  -999.250000  -999.250000
 3438.1440000 2.1739716530  -999.250000 7.2656493187 0.2162166536  -999.250000  -999.250000
 3438.2964000 2.1368811131  -999.250000 7.6463027000 0.2211446911  -999.250000  -999.250000
 3438.4488000 2.1492204666  -999.250000 8.0219154358 0.2302882075  -999.250000  -999.250000
 3438.6012000 2.1684432030  -999.250000 8.8798456192 0.2456652820  -999.250000  -999.250000
 3438.7536000 2.1333115101  -999.250000 9.7783546448 0.2707524002  -999.250000  -999.250000
 3438.9060000 2.1201295853  -999.250000 10.865764618 0.2740239799  -999.250000  -999.250000
 3439.0584000 2.1215171814  -999.250000 12.003195763 0.2788285613  -999.250000  -999.250000
 3439.2108000 2.1319046021  -999.250000 12.651000977 0.2921527326  -999.250000  -999.250000
 3439.3632000 2.2042558193  -999.250000 12.431990623 0.2748148143  -999.250000  -999.250000
 3439.5156000 2.2063241005  -999.250000 11.003257751 0.2570341825  -999.250000  -999.250000
 3439.6680000 2.1977422237  -999.250000 9.1208429337 0.2897672653  -999.250000  -999.250000
 3439.8204000 2.2257897854  -999.250000 7.5173678398 0.3611570895  -999.250000  -999.250000
 3439.9728000 2.3627021313  -999.250000 6.9137382507 0.3212735355  -999.250000  -999.250000
 3440.1252000 3.0567426682  -999.250000 7.1426711082 0.1982198358  -999.250000  -999.250000
 3440.2776000 2.5656983852  -999.250000 7.9796080589 0.2378783226  -999.250000  -999.250000
 3440.4300000 2.6277759075  -999.250000 8.6319847107 0.2414508909  -999.250000  -999.250000
 3440.5824000 2.2806558609  -999.250000 8.8141164780 0.2422979325  -999.250000  -999.250000
 3440.7348000 2.2926414013  -999.250000 8.9604482651 0.1959417313  -999.250000  -999.250000
 3440.8872000 2.1818997860  -999.250000 8.8103246689 0.1940080076  -999.250000  -999.250000
 3441.0396000 2.1778597832  -999.250000 8.9785394669 0.1827456653  -999.250000  -999.250000
 3441.1920000 2.1711828709  -999.250000 8.9582881927 0.2002796829  -999.250000  -999.250000
 3441.3444000 2.1583693027  -999.250000 8.5277128220 0.2067919075  -999.250000  -999.250000
 3441.4968000 2.1146783829 5.2927422523 8.8024568558 0.1927287281 5.5824561119  -999.250000
 3441.6492000 2.0515201092 5.5097193718 9.0009670258 0.2022878528 5.4939918518  -999.250000
 3441.8016000 1.9967758656 5.3489346504 10.092326164 0.2213730365 5.9202051163  -999.250000
 3441.9540000 1.9674917459 5.6184682846 10.856359482 0.2197226286 5.9619140625  -999.250000
 3442.1064000 1.9611539841 5.2002282143 11.182064056 0.2168378830 5.8669638634  -999.250000
 3442.2588000 1.9594451189 5.3380284309 11.341569901 0.2154819071 5.5946340561  -999.250000
 3442.4112000 1.9572496414 5.2512435913 10.761980057 0.2244531512 5.4686431885  -999.250000
 3442.5636000 1.9537281990 4.9949965477 10.819822311 0.2223366499 5.0373988152  -999.250000
 3442.7160000 1.9613271952 4.9065165520 10.708792686 0.1905385107 4.7296786308  -999.250000
 3442.8684000 2.0366070271 4.7417044640 10.079160690 0.1277585030 4.5698490143  -999.250000
 3443.0208000 2.1760065556 4.7563934326 9.1929044724 0.1367177516 4.4282984734  -999.250000
 3443.1732000 2.3951208591 4.6940088272 8.7738275528 0.1440763026 4.3744592667  -999.250000
 3443.3256000 2.5002152920 4.2907361984 9.1665391922 0.1359253824 4.1957936287  -999.250000
 3443.4780000 2.5118100643 4.3518052101 8.9807586670 0.1273786575 4.0565347672  -999.250000
 3443.6304000 2.5238795280 4.2853913307 8.3446111679 0.1125117689 4.2703347206  -999.250000
 3443.7828000 2.4966018200 4.2451596260 7.8919663429 0.1044081002 4.2716512680  -999.250000
 3443.9352000 2.5220685005 4.0010662079 8.0678606033 0.0913607478 4.1324415207  -999.250000
 3444.0876000 2.5320062637 4.2308402061 8.5368928909 0.0850344002 4.2337069511  -999.250000
 3444.2400000 2.5922670364 4.3020195961 9.2581100464 0.0847793370 4.3763747215  -999.250000
 3444.3924000 2.5930387974 4.6593012810 10.263319969 0.0821113586 4.5513515472  -999.250000
 3444.5448000 2.5943922997 4.7058372498 10.550672531 0.0829262882 4.6482782364  -999.250000
 3444.6972000 2.5914852619 4.8538751602 11.151267052 0.0874520540 4.6983890533  -999.250000
 3444.8496000 2.5888447762 4.9404292107 10.403125763 0.0847918689 4.8852696419  -999.250000
 3445.0020000 2.5867280960 5.0507073402 8.9288949966 0.0821166486 4.9406671524  -999.250000
 3445.1544000 2.5875267982 5.3632864952 6.8029117584 0.0839381665 5.0051412582  -999.250000
 3445.3068000 2.5845956802 5.4313664436 6.2312855721 0.0870698169 4.9635901451  -999.250000
 3445.4592000 2.5838735104 5.3884105682 7.5768675804 0.0858953744 5.0231657028  -999.250000
 3445.6116000 2.5784780979 5.3678979874 8.9332771301 0.0874940529 4.9112229347  -999.250000
 3445.7640000 2.5763289928 5.3175721169 9.6302080154 0.0951377749 4.8703012466  -999.250000
 3445.9164000 2.5792706013 5.3526558876 9.5434551239 0.0886873975 4.8998055458  -999.250000
 3446.0688000 2.5866155624 5.5943212509 8.4741487503 0.0855147615 5.0666303635  -999.250000
 3446.2212000 2.5938494205 5.6933932304 8.4813928604 0.0830948204 5.3272495270  -999.250000
 3446.3736000 2.5961704254 5.8659949303 8.5559120178 0.0824161991 5.6182341576  -999.250000
 3446.5260000 2.5979816914 6.0903892517 10.040168762 0.0806282237 5.9336805344  -999.250000
 3446.6784000 2.6061317921 6.4162201881 9.5198860168 0.0774468482 6.1452364922  -999.250000
 3446.8308000 2.6106374264 6.5608353615 9.3166551590 0.0712659135 6.3125138283  -999.250000
 3446.9832000 2.6126716137 6.6546773911 8.8176908493 0.0696819350 6.6723437309  -999.250000
 3447.1356000 2.6102874279 6.8009591103 8.9088497162 0.0661449209 6.8765635490  -999.250000
 3447.2880000 2.6041569710 7.1296472549 8.7694358826 0.0694841966 7.0511393547  -999.250000
 3447.4404000 2.5997927189 6.9661760330 8.0817003250 0.0708392859 7.1825685501  -999.250000
 3447.5928000 2.5873069763 7.2139234543 7.6104130745 0.0765236840 7.0633749962  -999.250000
 3447.7452000 2.5848138332 7.0230031013 6.7650322914 0.0814589858 7.0333437920  -999.250000
 3447.8976000 2.5839464664 6.7310194969 6.5353302956 0.0801103786 6.8839693069  -999.250000
 3448.0500000 2.5896205902 6.8118562698 6.3484845161 0.0782970861 6.6625652313  -999.250000
 3448.2024000 2.5959241390 6.4056849480 6.7152800560 0.0781830326 6.6049284935  -999.250000
 3448.3548000 2.6098675728 6.5103979111 6.5889306068 0.0780432820 6.4969601631  -999.250000
 3448.5072000 2.6063563824 6.3858962059 7.3559312820 0.0785327852 6.4143266678  -999.250000
 3448.6596000 2.6039066315 6.2020711899 8.8204936981 0.0778421834 6.3412432671  -999.250000
 3448.8120000 2.5917458534 6.3841967583 9.8905200958 0.0759917945 6.3300280571  -999.250000
 3448.9644000 2.5982210636 6.0254898071 10.445643425 0.0762631223 6.1866617203  -999.250000
 3449.1168000 2.6025304794 6.3418159485 9.2330894470 0.0734327361 6.1920681000  -999.250000
 3449.2692000 2.6073725224 6.5293087959 8.8467683792 0.0696908087 6.2521314621  -999.250000
 3449.4216000 2.6080484390 6.2435116768 8.1040782928 0.0681586415 6.2296013832  -999.250000
 3449.5740000 2.6052298546 6.2977428436 7.5847201347 0.0668976307 6.2179379463  -999.250000
 3449.7264000 2.5990927219 6.3958268166 7.5524306297 0.0678211823 6.2856950760  -999.250000
 3449.8788000 2.5936164856 6.4769883156 7.0239391327 0.0706254169 6.3613295555  -999.250000
 3450.0312000 2.5902903080 6.5837135315 7.7250919342 0.0715602338 6.4294443130  -999.250000
 3450.1836000 2.5914680958 6.5145750046 7.9880952835 0.0747483745 6.5673103333  -999.250000
 3450.3360000 2.5986382961 6.7822270393 8.3787336349 0.0685732141 6.8006987572  -999.250000
 3450.4884000 2.6073923111 6.8933119774 8.1054611206 0.0659998879 6.8357148170  -999.250000
 3450.6408000 2.6151907444 7.0298480988 7.2941455841 0.0637270883 6.9188995361  -999.250000
