# LAS format log file from PETREL
# Project units are specified as depth units
#==================================================================
~Version information
VERS.   2.0:
WRAP.   NO:
#==================================================================
~Well
STRT .m      -0.015270480 :
STOP .m      1245.8090095 :
STEP .m     0.04572000 :
NULL .        -999.250000 :
COMP.           : COMPANY
WELL.  15_9-19 A   : WELL
FLD.            : FIELD
LOC.            : LOCATION
SRVC.           : SERVICE COMPANY
DATE.  2020-08-19 21:46:58   : Log Export Date {yyyy-MM-dd HH:mm:ss}
PROV.           : PROVINCE
UWI.   15_9-19 A   : UNIQUE WELL ID
API.            : API NUMBER
#==================================================================
~Curve
DEPT .m                   : DEPTH
GR .gAPI                  : GR
NPHI .m3/m3               : NPHI
RHOB .g/cm3               : RHOB
RM .ohm.m                 : RM
RT .ohm.m                 : RT
FACIES ._                 : FACIES
~Parameter
#==================================================================
~Ascii
# ...
 1050.0816895 12.340000153 0.0799999982 2.6001999378 4.8000001907 5.0000000000  -999.250000
 1050.1274095 13.520000458 0.0799999982 2.6166000366 4.9000000954 5.0000000000  -999.250000
 1050.1731295 12.300000191 0.0799999982 2.6126000881 4.9000000954 5.0999999046  -999.250000
 1050.2188495 11.050000191 0.0799999982 2.5834999084 5.0000000000 5.1999998093  -999.250000
 1050.2645695 10.119999886 11.210000038 2.5783998966 5.0000000000 5.1999998093  -999.250000
 1050.3102895 9.3699998856 29.299999237 2.6103999615 5.0999999046 5.3000001907  -999.250000
 1050.3560095 8.9600000381 11.180000305 2.6231000423 5.1999998093 5.3000001907  -999.250000
 1050.4017295 8.9499998093 0.0799999982 2.6188998222 5.4000000954 5.4000000954  -999.250000
 1050.4474495 8.8500003815 0.0700000003 2.6105000973 5.5999999046 5.5000000000  -999.250000
 1050.4931695 9.1999998093 0.0000000000 2.5928001404 5.8000001907 5.6999998093  -999.250000
 1050.5388895 9.6099996567 0.0099999998 2.6122000217 6.0999999046 5.8000001907  -999.250000
 1050.5846095 9.1000003815 0.0399999991 2.6443998814 6.3000001907 5.9000000954  -999.250000
 1050.6303295 10.369999886 0.0500000007 2.6481001377 6.5000000000 5.9000000954  -999.250000
 1050.6760495 11.449999809 0.0600000024 2.6277999878 6.5999999046 6.0000000000  -999.250000
 1050.7217695 11.920000076 0.0600000024 2.6138999462 6.6999998093 6.0000000000  -999.250000
 1050.7674895 12.699999809 0.0700000003 2.5975000858 6.5999999046 6.0000000000  -999.250000
 1050.8132095 12.149999619 0.0799999982 2.5950000286 6.4000000954 5.9000000954  -999.250000
 1050.8589295 11.810000420 0.0799999982 2.6017999649 6.1999998093 5.9000000954  -999.250000
 1050.9046495 12.569999695 0.0799999982 2.5988998413 5.9000000954 5.8000001907  -999.250000
 1050.9503695 12.600000381 0.0799999982 2.5959999561 5.6999998093 5.6999998093  -999.250000
 1050.9960895 12.229999542 0.0700000003 2.6008000374 5.5999999046 5.6999998093  -999.250000
 1051.0418095 11.750000000 0.0700000003 2.6103000641 5.5999999046 5.5999999046  -999.250000
 1051.0875295 11.409999847 0.0700000003 2.6191999912 5.5999999046 5.5999999046  -999.250000
 1051.1332495 11.489999771 0.0700000003 2.6123998165 5.5999999046 5.5000000000  -999.250000
 1051.1789695 11.270000458 0.0700000003 2.5936999321 5.6999998093 5.5999999046  -999.250000
 1051.2246895 11.720000267 0.0700000003 2.5750000477 5.6999998093 5.5999999046  -999.250000
 1051.2704095 12.520000458 0.0700000003 2.5811998844 5.8000001907 5.5999999046  -999.250000
 1051.3161295 13.140000343 0.0700000003 2.6010000706 5.8000001907 5.5999999046  -999.250000
 1051.3618495 12.289999962 0.0700000003 2.6121001244 5.8000001907 5.5999999046  -999.250000
 1051.4075695 11.789999962 0.0700000003 2.6193001270 5.6999998093 5.5000000000  -999.250000
 1051.4532895  -999.250000  -999.250000  -999.250000  -999.250000  -999.250000  -999.250000
 1051.4990095 12.850000381 0.0799999982 2.6233999729 5.5999999046 5.5000000000  -999.250000
 1051.5447295 13.810000420 0.0799999982 2.6229999065 5.5999999046 5.5000000000  -999.250000
 1051.5904495 14.460000038 0.0799999982 2.6189999580 5.5999999046 5.5000000000  -999.250000
 1051.6361695 15.180000305 0.0899999961 2.6252000332 5.5999999046 5.5000000000  -999.250000
 1051.6818895 15.199999809 0.0899999961 2.6251001358 5.5000000000 5.5000000000  -999.250000
 1051.7276095 14.880000114 0.0899999961 2.6241998672 5.5000000000 5.5000000000  -999.250000
 1051.7733295 14.229999542 0.0899999961 2.6222000122 5.4000000954 5.5000000000  -999.250000
 1051.8190495 13.569999695 0.0799999982 2.6191999912 5.4000000954 5.5000000000  -999.250000
 1051.8647695 11.920000076 0.0700000003 2.6118998528 5.4000000954 5.5000000000  -999.250000
 1051.9104895 10.800000191 0.0600000024 2.6078999043 5.5000000000 5.5000000000  -999.250000
 1051.9562095 10.619999886 0.0600000024 2.2726998329 5.6999998093 5.5999999046  -999.250000
 1052.0019295 11.140000343 0.0600000024 1.7043000460 5.8000001907 5.5999999046  -999.250000
 1052.0476495 11.779999733 0.0600000024 2.0130999088 6.0000000000 5.5999999046  -999.250000
 1052.0933695 11.869999886 0.0600000024 2.5033998489 6.0999999046 5.5999999046  -999.250000
 1052.1390895 12.960000038 0.0700000003 2.6085000038 6.1999998093 5.5999999046  -999.250000
 1052.1848095 13.890000343 0.0700000003 2.6182000637 6.1999998093 5.6999998093  -999.250000
 1052.2305295 13.710000038 0.0700000003 2.6268999577 6.1999998093 5.6999998093  -999.250000
 1052.2762495 13.710000038 0.0700000003 2.6152999401 6.0999999046 5.5999999046  -999.250000
 1052.3219695 14.079999924 0.0700000003 2.6018998623 6.0000000000 5.5999999046  -999.250000
 1052.3676895 14.699999809 0.0799999982 2.5956001282 5.9000000954 5.5000000000  -999.250000
 1052.4134095 14.909999847 0.0799999982 2.6011002064 5.6999998093 5.4000000954  -999.250000
 1052.4591295 15.189999580 0.0799999982 2.6081998348 5.5999999046 5.1999998093  -999.250000
 1052.5048495 15.680000305 0.0799999982 2.6103000641 5.4000000954 5.0999999046  -999.250000
 1052.5505695 14.300000191 0.0799999982 2.6157000065 5.1999998093 5.0000000000  -999.250000
 1052.5962895 12.659999847 0.0799999982 2.6156001091 5.0999999046 4.9000000954  -999.250000
 1052.6420095 12.229999542 0.0799999982 2.6034998894 4.9000000954 4.8000001907  -999.250000
 1052.6877295 11.250000000 0.0899999961 2.5831999779 4.8000001907 4.8000001907  -999.250000
 1052.7334495 10.170000076 0.1000000015 2.5546000004 4.5999999046 4.6999998093  -999.250000
 1052.7791695 10.260000229 0.1000000015 2.5250000954 4.4000000954 4.5999999046  -999.250000
 1052.8248895 11.460000038 0.1000000015 2.5298998356 4.1999998093 4.5000000000  -999.250000
 1052.8706095 12.350000381 0.1000000015 2.5468001366 4.0999999046 4.3000001907  -999.250000
 1052.9163295 13.130000114 0.1099999994 2.5408000946 4.0999999046 4.3000001907  -999.250000
 1052.9620495 14.079999924 0.1200000048 2.5356001854 4.0999999046 4.3000001907  -999.250000
 1053.0077695 11.779999733 0.1299999952 2.5253999233 4.0000000000 4.3000001907  -999.250000
 1053.0534895 10.670000076 0.1299999952 2.5231001377 3.9000000954 4.1999998093  -999.250000
 1053.0992095 13.310000420 0.1299999952 2.5376999378 3.5999999046 4.0999999046  -999.250000
 1053.1449295 13.199999809 0.1299999952 2.5580000877 3.4000000954 3.9000000954  -999.250000
 1053.1906495 12.810000420 0.1200000048 2.5510001183 3.2999999523 3.7999999523  -999.250000
 1053.2363695 13.119999886 0.1000000015 2.5594999790 3.4000000954 3.7999999523  -999.250000
 1053.2820895 12.760000229 0.1000000015 2.5608000755 3.5999999046 3.9000000954  -999.250000
 1053.3278095 12.670000076 0.0899999961 2.5796999931 3.7999999523 4.0000000000  -999.250000
 1053.3735295 13.020000458 0.0899999961 2.5856001377 4.0999999046 4.1999998093  -999.250000
 1053.4192495 13.060000420 0.0799999982 2.5880000591 4.4000000954 4.4000000954  -999.250000
 1053.4649695 13.789999962 0.0799999982 2.5898001194 4.5999999046 4.5000000000  -999.250000
 1053.5106895 14.850000381 0.0799999982 2.5913999081 4.6999998093 4.5999999046  -999.250000
 1053.5564095 15.010000229 0.0799999982 2.5980000496 4.5999999046 4.6999998093  -999.250000
 1053.6021295 14.170000076 0.0799999982 2.6113998890 4.5999999046 4.6999998093  -999.250000
 1053.6478495 13.859999657 0.0799999982 2.6140999794 4.8000001907 4.8000001907  -999.250000
 1053.6935695 14.199999809 0.0799999982 2.6093001366 5.0000000000 5.0000000000  -999.250000
 1053.7392895 13.939999580 0.0799999982 2.6021001339 5.3000001907 5.0999999046  -999.250000
 1053.7850095 14.189999580 0.0799999982 2.5918998718 5.4000000954 5.1999998093  -999.250000
 1053.8307295 13.689999580 0.0799999982 2.5798997879 5.4000000954 5.1999998093  -999.250000
 1053.8764495 13.399999619 0.0799999982 2.5891001225 5.3000001907 5.0999999046  -999.250000
 1053.9221695 14.000000000 0.0899999961 2.6047999859 5.1999998093 5.0000000000  -999.250000
 1053.9678895 14.329999924 0.0899999961 2.6153998375 5.0999999046 5.0000000000  -999.250000
 1054.0136095 15.390000343 0.0899999961 2.6176002026 5.0000000000 5.0000000000  -999.250000
