# LAS format log file from PETREL
# Project units are specified as depth units
#==================================================================
~Version information
VERS.   2.0:
WRAP.   NO:
#==================================================================
~Well
STRT .m      175.86960000 :
STOP .m      5330.3424000 :
STEP .m     0.15240000 :
NULL .        -999.250000 :
COMP.           : COMPANY
WELL.  15_9-F-10   : WELL
FLD.            : FIELD
LOC.            : LOCATION
SRVC.           : SERVICE COMPANY
DATE.  2020-08-19 21:46:58   : Log Export Date {yyyy-MM-dd HH:mm:ss}
PROV.           : PROVINCE
UWI.   15_9-F-10   : UNIQUE WELL ID
API.            : API NUMBER
#==================================================================
~Curve
DEPT .m                   : DEPTH
RHOB .g/cm3               : RHOB
RT .ohm.m                 : RT
GR .gAPI                  : GR
NPHI .m3/m3               : NPHI
RM .ohm.m                 : RM
FACIES ._                 : FACIES
~Parameter
#==================================================================
~Ascii
# ...
 4180.0272000 2.5287654400 4.9693694115 10.551045418  -999.250000 4.9889845848  -999.250000
 4180.1796000 2.5288100243 5.0655026436 9.2793626785  -999.250000 5.1910796165  -999.250000
 4180.3320000 2.5317187309 5.2007493973 7.8325524330  -999.250000 5.2561793327  -999.250000
 4180.4844000 2.5344495773 5.1521220207 8.4878768921  -999.250000 5.2268905640  -999.250000
 4180.6368000 2.5558328629 5.1791501045 8.6295270920  -999.250000 5.2893667221  -999.250000
 4180.7892000 2.5669770241 5.2864346504 8.6556348801  -999.250000 5.3422040939  -999.250000
 4180.9416000 2.5702383518 5.2629394531 8.7835664749  -999.250000 5.3108315468  -999.250000
 4181.0940000 2.5571515560 5.1531744003 9.4251718521  -999.250000 5.3656368256  -999.250000
 4181.2464000 2.5535035133 5.1097226143 9.3990631104  -999.250000 5.3400945663  -999.250000
 4181.3988000 2.5548779964 5.0400180817 9.4060821533  -999.250000 5.3410210609  -999.250000
 4181.5512000 2.5652215481 4.9591856003 7.8395719528  -999.250000 5.2805919647  -999.250000
 4181.7036000 2.5702528954 4.9675393105 6.2730612755  -999.250000 5.2666096687  -999.250000
 4181.8560000 2.5830702782 4.9421510696 7.4625725746  -999.250000 5.2665767670  -999.250000
 4182.0084000 2.5906734467 4.8626537323 10.225613594  -999.250000 5.1154046059  -999.250000
 4182.1608000 2.5920705795 4.8023433685 10.225220680  -999.250000 5.0828285217  -999.250000
 4182.3132000 2.6041843891 4.7524905205 7.4617886543  -999.250000 5.0749626160  -999.250000
 4182.4656000 2.6186630726 4.9662537575 7.2204017639  -999.250000 4.8276243210  -999.250000
 4182.6180000 2.6249535084 5.0183272362 9.7424478531  -999.250000 4.8943028450  -999.250000
 4182.7704000 2.6159203053 4.7414484024 10.812072754  -999.250000 4.8898415565  -999.250000
 4182.9228000 2.6016840935 4.6637868881 9.3596515656  -999.250000 4.6496515274  -999.250000
 4183.0752000 2.5966432095 4.7111454010 7.6212530136  -999.250000 4.5292024612  -999.250000
 4183.2276000 2.6033411026 4.0913710594 7.3352746964  -999.250000 4.3563222885  -999.250000
 4183.3800000 2.6170139313 4.4920639992 6.4824705124  -999.250000 4.7632379532  -999.250000
 4183.5324000 2.6185576916 4.5263233185 8.0470237732  -999.250000 4.7106227875  -999.250000
 4183.6848000 2.6158106327 4.1064019203 9.6115770340  -999.250000 4.1469225883  -999.250000
 4183.8372000 2.5928676128 4.3519678116 11.743933678  -999.250000 4.0623378754  -999.250000
 4183.9896000 2.5787856579 4.3153777122 11.744912148  -999.250000 4.0631794930  -999.250000
 4184.1420000 2.5274085999 4.5730376244 11.762389183  -999.250000 4.0862026215  -999.250000
 4184.2944000 2.5049836636 4.7558689117 11.778887749  -999.250000 3.9008743763  -999.250000
 4184.4468000 2.4843411446 4.6662755013 13.189727783  -999.250000 3.9090762138  -999.250000
 4184.5992000 2.4810976982 4.6434078217 14.584065437  -999.250000 3.8394851685  -999.250000
 4184.7516000 2.4686384201 3.3928017616 12.844836235  -999.250000 2.9400866032  -999.250000
 4184.9040000 2.4558711052 3.2474789619 9.7112674713  -999.250000 2.8281250000  -999.250000
 4185.0564000 2.4584345818 3.2483918667 6.8431458473  -999.250000 2.8206586838  -999.250000
 4185.2088000 2.4568860531 2.8358592987 7.6023163795  -999.250000 2.6033377647  -999.250000
 4185.3612000 2.4571733475 2.8713514805 8.8552112579  -999.250000 2.6117937565  -999.250000
 4185.5136000 2.4489908218 2.7994799614 9.3188314438  -999.250000 2.6033401489  -999.250000
 4185.6660000 2.4461114407 2.7177090645 9.2887248993  -999.250000 2.5078277588  -999.250000
 4185.8184000 2.4394626617 2.7314858437 10.247509956  -999.250000 2.5317554474  -999.250000
 4185.9708000 2.4461114407 2.7114405632 11.730124474  -999.250000 2.5302524567  -999.250000
 4186.1232000 2.4570431709 2.6661632061 11.470894814  -999.250000 2.5442643166  -999.250000
 4186.2756000 2.4482681751 2.7735888958 9.7290496826  -999.250000 2.5801615715  -999.250000
 4186.4280000 2.4318308830 2.7701935768 9.0983314514  -999.250000 2.5797710419  -999.250000
 4186.5804000 2.4248194695 2.7244231701 10.209457397  -999.250000 2.5482966900  -999.250000
 4186.7328000 2.4565546513 2.7194619179 11.081745148  -999.250000 2.6139578819  -999.250000
 4186.8852000 2.4689457417 2.7624163628 10.842907906  -999.250000 2.6102359295  -999.250000
 4187.0376000 2.4662079811 2.8213438988 10.045750618  -999.250000 2.6669676304  -999.250000
 4187.1900000 2.4682679176 2.8963325024 8.6972160339  -999.250000 2.7340526581  -999.250000
 4187.3424000 2.4840402603 2.9045627117 6.5584692955  -999.250000 2.7300777435  -999.250000
 4187.4948000 2.4879045486 2.8639681339 7.6540088654  -999.250000 2.7528243065  -999.250000
 4187.6472000 2.4804902077 2.9903147221 9.5397615433  -999.250000 2.8059997559  -999.250000
 4187.7996000 2.4737076759 2.9760282040 11.355113029  -999.250000 2.8059256077  -999.250000
 4187.9520000 2.4746963978 2.9866209030 10.494501114  -999.250000 2.8131401539  -999.250000
 4188.1044000 2.4869124889 3.0140619278 7.8324513435  -999.250000 2.8571124077  -999.250000
 4188.2568000 2.4988625050 3.0102741718 6.0310144424  -999.250000 2.8681476116  -999.250000
 4188.4092000 2.5163629055 3.0276074409 4.7901716232  -999.250000 2.8926463127  -999.250000
 4188.5616000 2.5157618523 3.0612444878 5.3507661819  -999.250000 2.9209251404  -999.250000
 4188.7140000 2.5028560162 3.0883505344 6.2811651230  -999.250000 2.9188103676  -999.250000
 4188.8664000 2.4918839931 3.0381586552 6.6509699821  -999.250000 2.9265391827  -999.250000
 4189.0188000 2.4929811954 3.0691022873 7.0302820206  -999.250000 2.9511249065  -999.250000
 4189.1712000 2.4925751686 3.1344156265 7.1981077194  -999.250000 2.9567887783  -999.250000
 4189.3236000 2.4881124496 3.0753853321 7.5242490768  -999.250000 2.9529235363  -999.250000
 4189.4760000 2.4788653851 3.1103112698 7.8375520706  -999.250000 2.9848287106  -999.250000
 4189.6284000 2.4747929573 3.1329154968 7.9925360680  -999.250000 2.9810791016  -999.250000
 4189.7808000 2.4895508289 3.1548073292 8.3242416382  -999.250000 3.0168750286  -999.250000
 4189.9332000 2.5123121738 3.1408500671 8.6592788696  -999.250000 3.0210416317  -999.250000
 4190.0856000 2.5231785774 3.1397728920 8.8152256012  -999.250000 3.0061557293  -999.250000
 4190.2380000 2.5081248283 3.1587221622 8.6361331940  -999.250000 3.0779922009  -999.250000
 4190.3904000 2.5016314983 3.2322621346 8.7710485458  -999.250000 3.0915126801  -999.250000
 4190.5428000 2.4914658070 3.2211441994 9.0850553513  -999.250000 3.0984938145  -999.250000
 4190.6952000 2.4873254299 3.1913142204 9.2377424240  -999.250000 3.0924732685  -999.250000
 4190.8476000 2.4697911739 3.2336199284 9.0764207840  -999.250000 3.1057941914  -999.250000
 4191.0000000 2.4580037594 3.1899108887 9.3897228241  -999.250000 3.0979251862  -999.250000
 4191.1524000 2.4496157169 3.2056639194 9.8643455505  -999.250000 3.1242010593  -999.250000
 4191.3048000 2.4530951977 3.2208859921 9.7123651505  -999.250000 3.1468837261  -999.250000
 4191.4572000 2.4634461403 3.2797784805 9.0857601166  -999.250000 3.1801798344  -999.250000
 4191.6096000 2.4878501892 3.1976697445 8.9373540878  -999.250000 3.1780402660  -999.250000
 4191.7620000 2.5021173954 3.2604656219 8.9373540878  -999.250000 3.1935217381  -999.250000
 4191.9144000 2.4878177643 3.2672104836 8.9373540878  -999.250000 3.1868476868  -999.250000
 4192.0668000 2.4932649136 3.2247724533 9.0803279877  -999.250000 3.1915833950  -999.250000
 4192.2192000 2.4916319847 3.2758517265 9.7014989853  -999.250000 3.2172489166  -999.250000
 4192.3716000 2.5044009686 3.2567737103 9.8542842865  -999.250000 3.2146909237  -999.250000
 4192.5240000 2.4903626442 3.2453989983 9.3859004974  -999.250000 3.2105288506  -999.250000
 4192.6764000 2.4977886677 3.2453706264 7.9809651375  -999.250000 3.2541372776  -999.250000
 4192.8288000 2.5053691864 3.3075692654 7.0444145203  -999.250000 3.2876126766  -999.250000
 4192.9812000 2.5230262280 3.2352709770 6.5053234100  -999.250000 3.2981398106  -999.250000
 4193.1336000 2.5223789215 3.3015980721 6.9027829170  -999.250000 3.2955679893  -999.250000
