# LAS format log file from PETREL
# Project units are specified as depth units
#==================================================================
~Version information
VERS.   2.0:
WRAP.   NO:
#==================================================================
~Well
STRT .m      -0.015270480 :
STOP .m      1245.8090095 :
STEP .m     0.04572000 :
NULL .        -999.250000 :
COMP.           : COMPANY
WELL.  15_9-19 A   : WELL
FLD.            : FIELD
LOC.            : LOCATION
SRVC.           : SERVICE COMPANY
DATE.  2020-08-19 21:46:58   : Log Export Date {yyyy-MM-dd HH:mm:ss}
PROV.           : PROVINCE
UWI.   15_9-19 A   : UNIQUE WELL ID
API.            : API NUMBER
#==================================================================
~Curve
DEPT .m                   : DEPTH
GR .gAPI                  : GR
NPHI .m3/m3               : NPHI
RHOB .g/cm3               : RHOB
RM .ohm.m                 : RM
RT .ohm.m                 : RT
FACIES ._                 : FACIES
~Parameter
#==================================================================
~Ascii
# ...
 1241.0084095 70.260002136 0.1899999976 2.4796001911 1.3999999762 1.3999999762  -999.250000
 1241.0541295 73.620002747 0.2000000030 2.4778997898 1.3999999762 1.3999999762  -999.250000
 1241.0998495 77.860000610 0.2000000030 2.4213998318 1.2999999523 1.3999999762  -999.250000
 1241.1455695 79.480003357 0.2000000030 2.4073998928 1.2999999523 1.2999999523  -999.250000
 1241.1912895 72.410003662 0.1899999976 2.4318997860 1.2000000477 1.2999999523  -999.250000
 1241.2370095 62.869998932 0.2000000030 2.4509999752 1.2000000477 1.2000000477  -999.250000
 1241.2827295 56.650001526 0.1899999976 2.4632999897 1.1000000238 1.1000000238  -999.250000
 1241.3284495 52.750000000 0.2099999934 2.4312000275 1.0000000000 1.1000000238  -999.250000
 1241.3741695 50.349998474 0.1899999976 2.3691000938 1.0000000000 1.0000000000  -999.250000
 1241.4198895 48.540000916 0.1799999923 2.3652000427 1.0000000000 1.0000000000  -999.250000
 1241.4656095 45.799999237 0.1799999923 2.3891000748 1.0000000000 1.0000000000  -999.250000
 1241.5113295 43.250000000 0.1899999976 2.3886001110 1.0000000000 1.0000000000  -999.250000
 1241.5570495 42.819999695 0.2000000030 2.4053997993 1.0000000000 1.0000000000  -999.250000
 1241.6027695 43.569999695 0.2099999934 2.4148001671 1.0000000000 1.0000000000  -999.250000
 1241.6484895 45.799999237 0.2000000030 2.4879000187 1.1000000238 1.1000000238  -999.250000
 1241.6942095 50.319999695 0.1899999976 2.5168998241 1.2000000477 1.2000000477  -999.250000
 1241.7399295 53.069999695 0.2000000030 2.1541998386 1.2000000477 1.2000000477  -999.250000
 1241.7856495 52.209999084 0.2000000030 2.4068999290 1.2000000477 1.2000000477  -999.250000
 1241.8313695 51.729999542 0.1700000018 2.2072999477 1.2999999523 1.2999999523  -999.250000
 1241.8770895 50.470001221 0.1799999923 2.4156000614 1.2000000477 1.2999999523  -999.250000
 1241.9228095 51.439998627 0.1899999976 2.4021000862 1.2000000477 1.2000000477  -999.250000
 1241.9685295 52.639999390 0.1899999976 2.3847000599 1.2000000477 1.2000000477  -999.250000
 1242.0142495 54.270000458 0.1899999976 2.3875000477 1.2000000477 1.2000000477  -999.250000
 1242.0599695 58.220001221 0.1799999923 2.4078998566 1.2000000477 1.2000000477  -999.250000
 1242.1056895 60.930000305 0.1899999976 2.4045000076 1.2000000477 1.2000000477  -999.250000
 1242.1514095 65.779998779 0.1799999923 2.4321999550 1.2000000477 1.2000000477  -999.250000
 1242.1971295 68.669998169 0.2000000030 2.4772000313 1.2999999523 1.2999999523  -999.250000
 1242.2428495 68.059997559 0.1899999976 2.4653999805 1.2999999523 1.2999999523  -999.250000
 1242.2885695 65.930000305 0.1799999923 2.4948999882 1.2999999523 1.2999999523  -999.250000
 1242.3342895 64.720001221 0.1899999976 2.4963998795 1.2999999523 1.2999999523  -999.250000
 1242.3800095 64.650001526 0.1799999923 2.4746999741 1.2999999523 1.2999999523  -999.250000
 1242.4257295 69.089996338 0.2000000030 2.4554998875 1.2999999523 1.2999999523  -999.250000
 1242.4714495 73.300003052 0.2000000030 2.4584999084 1.2999999523 1.2999999523  -999.250000
 1242.5171695 74.739997864 0.2000000030 2.4224998951 1.3999999762 1.2999999523  -999.250000
 1242.5628895 75.889999390 0.1899999976 2.4379999638 1.3999999762 1.3999999762  -999.250000
 1242.6086095 73.349998474 0.1899999976 2.4501998425 1.3999999762 1.3999999762  -999.250000
 1242.6543295 70.629997253 0.1799999923 2.4858999252 1.5000000000 1.5000000000  -999.250000
 1242.7000495 68.769996643 0.1700000018 2.4684998989 1.6000000238 1.5000000000  -999.250000
 1242.7457695 67.860000610 0.1700000018 2.5076000690 1.6000000238 1.5000000000  -999.250000
 1242.7914895 68.449996948 0.1700000018 2.5020999908 1.6000000238 1.5000000000  -999.250000
 1242.8372095 68.010002136 0.1700000018 2.5072000027 1.5000000000 1.5000000000  -999.250000
 1242.8829295 65.089996338 0.1700000018 2.5262000561 1.5000000000 1.3999999762  -999.250000
 1242.9286495 60.520000458 0.1599999964 2.5236999989 1.3999999762 1.3999999762  -999.250000
 1242.9743695 57.200000763 0.1700000018 2.4098999500 1.3999999762 1.2999999523  -999.250000
 1243.0200895 53.209999084 0.1700000018 2.4093000889 1.2999999523 1.2999999523  -999.250000
 1243.0658095  -999.250000  -999.250000  -999.250000  -999.250000  -999.250000  -999.250000
 1243.1115295 49.020000458 0.1599999964 2.4186999798 1.2999999523 1.2999999523  -999.250000
 1243.1572495 49.220001221 0.1599999964 2.4124999046 1.2999999523 1.2999999523  -999.250000
 1243.2029695 52.380001068 0.1700000018 2.4118998051 1.2999999523 1.2999999523  -999.250000
 1243.2486895 55.360000610 0.1700000018 2.4279999733 1.2999999523 1.2999999523  -999.250000
 1243.2944095 56.840000153 0.1700000018 2.4328999519 1.3999999762 1.3999999762  -999.250000
 1243.3401295 54.709999084 0.1799999923 2.4143998623 1.3999999762 1.3999999762  -999.250000
 1243.3858495 51.310001373 0.1899999976 2.3363001347 1.3999999762 1.3999999762  -999.250000
 1243.4315695 50.959999084 0.1799999923 2.3813998699 1.3999999762 1.3999999762  -999.250000
 1243.4772895 54.520000458 0.1700000018 2.4388000965 1.3999999762 1.3999999762  -999.250000
 1243.5230095 58.659999847 0.1700000018 2.4878001213 1.3999999762 1.3999999762  -999.250000
 1243.5687295 56.360000610 0.1700000018 2.4963998795 1.3999999762 1.5000000000  -999.250000
 1243.6144495 50.389999390 0.1599999964 2.4468998909 1.3999999762 1.5000000000  -999.250000
 1243.6601695 47.169998169 0.1599999964 2.4168999195 1.3999999762 1.3999999762  -999.250000
 1243.7058895 47.770000458 0.1799999923 2.4217000008 1.3999999762 1.3999999762  -999.250000
 1243.7516095 51.319999695 0.1899999976 2.4418001175 1.3999999762 1.3999999762  -999.250000
 1243.7973295 53.720001221 0.1799999923 2.4260001183 1.3999999762 1.3999999762  -999.250000
 1243.8430495 55.180000305 0.1899999976 2.4342999458 1.3999999762 1.3999999762  -999.250000
 1243.8887695 58.200000763 0.1899999976 2.4351999760 1.3999999762 1.3999999762  -999.250000
 1243.9344895 61.200000763 0.1799999923 2.4302999973 1.5000000000 1.5000000000  -999.250000
 1243.9802095 61.909999847 0.1799999923 2.4591999054 1.5000000000 1.5000000000  -999.250000
 1244.0259295 60.319999695 0.1899999976 2.4700000286 1.5000000000 1.5000000000  -999.250000
 1244.0716495 60.209999084 0.1899999976 2.4466001987 1.5000000000 1.5000000000  -999.250000
 1244.1173695 61.479999542 0.1799999923 2.4244999886 1.6000000238 1.5000000000  -999.250000
 1244.1630895 62.549999237 0.1899999976 2.4198000431 1.6000000238 1.5000000000  -999.250000
 1244.2088095 64.059997559 0.1700000018 2.4658000469 1.6000000238 1.5000000000  -999.250000
 1244.2545295 64.660003662 0.1799999923 2.4793000221 1.6000000238 1.5000000000  -999.250000
 1244.3002495 64.839996338 0.1700000018 2.5002000332 1.6000000238 1.6000000238  -999.250000
 1244.3459695 64.529998779 0.1599999964 2.5211000443 1.7000000477 1.6000000238  -999.250000
 1244.3916895 63.470001221 0.1500000060 2.5386998653 1.7000000477 1.7000000477  -999.250000
 1244.4374095 59.340000153 0.1500000060 2.5048000813 1.7999999523 1.7999999523  -999.250000
 1244.4831295 54.389999390 0.1400000006 2.5298998356 1.8999999762 1.7999999523  -999.250000
 1244.5288495 53.650001526 0.1500000060 2.5103001595 1.8999999762 1.8999999762  -999.250000
 1244.5745695 52.810001373 0.1400000006 2.5088999271 1.8999999762 1.7999999523  -999.250000
 1244.6202895 52.650001526 0.1500000060 2.5151000023 1.8999999762 1.7999999523  -999.250000
 1244.6660095 56.180000305 0.1500000060 2.4826998711 1.8999999762 1.7999999523  -999.250000
 1244.7117295 59.380001068 0.1400000006 2.5197999477 1.8999999762 1.7999999523  -999.250000
 1244.7574495 60.450000763 0.1299999952 2.4790000916 1.7999999523 1.7999999523  -999.250000
 1244.8031695 60.180000305 0.1400000006 2.4895000458 1.7000000477 1.7000000477  -999.250000
 1244.8488895 58.659999847 0.1500000060 2.4816999435 1.7000000477 1.7000000477  -999.250000
 1244.8946095 57.459999084 0.1400000006 2.4743001461 1.7000000477 1.7000000477  -999.250000
 1244.9403295 55.419998169 0.1599999964 2.4953000546 1.7000000477 1.7000000477  -999.250000
