# LAS format log file from PETREL
# Project units are specified as depth units
#==================================================================
~Version information
VERS.   2.0:
WRAP.   NO:
#==================================================================
~Well
STRT .m      189.89040000 :
STOP .m      3795.0648000 :
STEP .m     0.15240000 :
NULL .        -999.250000 :
COMP.           : COMPANY
WELL.  15_9-F-5   : WELL
FLD.            : FIELD
LOC.            : LOCATION
SRVC.           : SERVICE COMPANY
DATE.  2020-08-19 21:46:58   : Log Export Date {yyyy-MM-dd HH:mm:ss}
PROV.           : PROVINCE
UWI.   15_9-F-5   : UNIQUE WELL ID
API.            : API NUMBER
#==================================================================
~Curve
DEPT .m                   : DEPTH
RHOB .g/cm3               : RHOB
GR .gAPI                  : GR
RT .ohm.m                 : RT
NPHI .m3/m3               : NPHI
RM .ohm.m                 : RM
FACIES ._                 : FACIES
~Parameter
#==================================================================
~Ascii
# ...
 2974.2384000 2.5506250858 6.6161708832 4.0929040909 0.1076136008 3.9382169247  -999.250000
 2974.3908000 2.5576980114 6.9532017708 4.0462031364 0.1069281027 3.8868858814  -999.250000
 2974.5432000 2.5609900951 8.4374599457 4.0198388100 0.1071753055 3.8329310417  -999.250000
 2974.6956000 2.5585970879 8.7901268005 4.0725040436 0.1049427018 3.8150858879  -999.250000
 2974.8480000 2.5506110191 9.1089124680 4.1185989380 0.1064639017 3.8268110752  -999.250000
 2975.0004000 2.5456860065 7.9405069351 4.1380391121 0.1113687977 3.8546719551  -999.250000
 2975.1528000 2.5446369648 6.8564801216 4.2338271141 0.1101900935 3.9129600525  -999.250000
 2975.3052000 2.5457088947 6.4462480545 4.2345471382 0.1130356044 3.9937810898  -999.250000
 2975.4576000 2.5484080315 6.7461352348 4.2820181847 0.1092192009 4.0988378525  -999.250000
 2975.6100000 2.5500059128 6.9498190880 4.4315662384 0.1079121977 4.2208838463  -999.250000
 2975.7624000 2.5565629005 7.5388221741 4.5675520897 0.1086658016 4.4097409248  -999.250000
 2975.9148000 2.5618820190 7.9033589363 4.6463279724 0.1086736023 4.6229968071  -999.250000
 2976.0672000 2.5727729797 8.7160692215 4.7935061455 0.1027925014 4.7934470177  -999.250000
 2976.2196000 2.5710110664 9.3368902206 5.1340122223 0.0963423029 5.0545678139  -999.250000
 2976.3720000 2.5734860897 9.1910476685 5.3376460075 0.0901317820 5.3831911087  -999.250000
 2976.5244000 2.5763669014 8.2365064621 5.6428580284 0.0979075208 5.6557297707  -999.250000
 2976.6768000 2.5923030376 7.2113499641 5.8276672363 0.0848791525 6.0389709473  -999.250000
 2976.8292000 2.6052429676 6.1479349136 6.0606169701 0.0587650575 6.2776689529  -999.250000
 2976.9816000 2.6207280159 7.0598630905 6.4401369095 0.0613942482 6.5408577919  -999.250000
 2977.1340000 2.6294438839 8.3697052002 6.7140040398 0.0636507720 6.9298157692  -999.250000
 2977.2864000 2.6347150803 8.8452939987 6.9949321747 0.0665691644 7.3518619537  -999.250000
 2977.4388000 2.6322579384 8.0770673752 7.1628608704 0.0595313199 7.6530480385  -999.250000
 2977.5912000 2.6331629753 6.8217902184 7.7840170860 0.0516006909 8.1335372925  -999.250000
 2977.7436000 2.6383430958 6.9434370995 8.3333587646 0.0505633205 8.7136201859  -999.250000
 2977.8960000 2.6430211067 7.5883030891 8.6606054306 0.0512673892 8.9600648880  -999.250000
 2978.0484000 2.6440289021 7.8331851959 8.9972486496 0.0513812490 9.3179368973  -999.250000
 2978.2008000 2.6446979046 7.7967948914 9.2251014709 0.0516185202 9.6719684601  -999.250000
 2978.3532000 2.6324141026 8.1537313461 9.5469741821 0.0525215305 9.9844408035  -999.250000
 2978.5056000 2.6324501038 8.1696357727 9.6568355560 0.0530662909 10.245869637  -999.250000
 2978.6580000 2.6279499531 8.3374328613 10.075630188 0.0618687496 10.502860069  -999.250000
 2978.8104000 2.6354799271 7.9387688637 10.253729820 0.0509803481 10.642620087  -999.250000
 2978.9628000 2.6352620125 7.5135498047 10.258669853 0.0489837602 10.591890335  -999.250000
 2979.1152000 2.6344330311 7.6851167679 10.212639809 0.0473306067 10.480719566  -999.250000
 2979.2676000 2.6420300007 8.2317152023 9.8143234253 0.0538141020 10.207830429  -999.250000
 2979.4200000 2.6479539871 9.3560009003 9.7203111649 0.0586750060 9.9376916885  -999.250000
 2979.5724000 2.6445870399 9.8195362091 9.6362009048 0.0575314201 9.6628742218  -999.250000
 2979.7248000 2.6271650791 9.0801668167 9.3388385773 0.0611333884 9.4197301865  -999.250000
 2979.8772000 2.6150310040 7.6384382248 9.0230293274 0.0656842515 9.0325317383  -999.250000
 2980.0296000 2.6033248901 6.9550862312 8.5935583115 0.0729158819 8.6323852539  -999.250000
 2980.1820000 2.6043500900 6.7139620781 8.3015384674 0.0717253461 8.1472778320  -999.250000
 2980.3344000 2.6029579639 7.8719530106 7.9294819832 0.0723816678 7.6215720177  -999.250000
 2980.4868000 2.6095960140 8.9164581299 7.4439277649 0.0670422539 7.2112388611  -999.250000
 2980.6392000 2.6124980450 9.6707305908 6.8610768318 0.0717127323 6.5892138481  -999.250000
 2980.7916000 2.6050739288 9.3995656967 6.6784667969 0.0743835419 6.2569937706  -999.250000
 2980.9440000 2.5869278908 8.1837453842 6.5617699623 0.0904933438 6.0717391968  -999.250000
 2981.0964000 2.5668699741 7.9974370003 6.2328071594 0.0956250951 5.7937698364  -999.250000
 2981.2488000 2.5615739822 7.5298371315 5.7557268143 0.0991128534 5.4975671768  -999.250000
 2981.4012000 2.5567340851 7.7221798897 5.6132230759 0.1081188023 5.2688369751  -999.250000
 2981.5536000 2.5526359081 7.3546810150 5.3394021988 0.1100817025 5.0205450058  -999.250000
 2981.7060000 2.5543062687 7.4070649147 4.9597759247 0.1078929007 4.8047409058  -999.250000
 2981.8584000 2.5576729774 8.0552377701 4.6553077698 0.1055207998 4.6347279549  -999.250000
 2982.0108000 2.5685338974 8.7396373749 4.3952798843 0.1025901958 4.4970159531  -999.250000
 2982.1632000 2.5663990974 9.2037534714 4.2901840210 0.0955910981 4.4100208282  -999.250000
 2982.3156000 2.5805149078 9.4285688400 4.2341699600 0.0928564370 4.3659491539  -999.250000
 2982.4680000 2.5791449547 8.5680704117 4.0984768867 0.0885400474 4.2777829170  -999.250000
 2982.6204000 2.5773339272 8.5461759567 4.0353531837 0.0894633979 4.2356948853  -999.250000
 2982.7728000 2.5662488937 7.4789061546 3.9849560261 0.0964229405 4.1517119408  -999.250000
 2982.9252000 2.5674800873 8.1292238235 3.9219388962 0.0971555412 4.0209932327  -999.250000
 2983.0776000 2.5657079220 8.5045471191 3.8498280048 0.0981830880 3.8805530071  -999.250000
 2983.2300000 2.5681869984 9.3714265823 3.6543889046 0.0989468545 3.6938829422  -999.250000
 2983.3824000 2.5645399094 9.2995605469 3.4291369915 0.0948733687 3.5113561153  -999.250000
 2983.5348000 2.5640220642 8.7570924759 3.4076299667 0.1044671983 3.3736848831  -999.250000
 2983.6872000 2.5589470863 8.9770183563 3.3992829323 0.1110642999 3.2032918930  -999.250000
 2983.8396000 2.5534389019 9.3374872208 3.2000699043 0.1204605997 3.0662078857  -999.250000
 2983.9920000 2.5392839909 9.7097396851 2.9655098915 0.1200664043 2.9361920357  -999.250000
 2984.1444000 2.5324931145 9.3494873047 2.9152159691 0.1408984065 2.8311300278  -999.250000
 2984.2968000 2.5168650150 8.1636877060 2.9310340881 0.1337382942 2.7904090881  -999.250000
 2984.4492000 2.5133841038 7.8938817978 2.9038429260 0.1361121982 2.7946560383  -999.250000
 2984.6016000 2.5053861141 7.4574108124 2.8913419247 0.1491131037 2.7765529156  -999.250000
 2984.7540000 2.4990949631 8.7646131516 2.9203178883 0.1549302042 2.8040399551  -999.250000
 2984.9064000 2.4919149876 8.5463190079 3.0317850113 0.1441584080 2.8929760456  -999.250000
 2985.0588000 2.4807779789 8.5877485275 3.1905949116 0.1395716071 3.0380239487  -999.250000
 2985.2112000 2.4886450768 8.5956230164 3.3340148926 0.1472122967 3.2003378868  -999.250000
 2985.3636000 2.5021219254 8.4538116455 3.3393371105 0.1314897984 3.3305160999  -999.250000
 2985.5160000 2.5241210461 8.1023464203 3.5935020447 0.1232696995 3.4922249317  -999.250000
 2985.6684000 2.5378370285 7.5527877808 3.7262361050 0.1100819036 3.6378610134  -999.250000
 2985.8208000 2.5470819473 8.0605783463 3.9119529724 0.0976344571 3.7565979958  -999.250000
 2985.9732000 2.5580780506 8.2533330917 3.9355099201 0.0963358432 3.9400250912  -999.250000
 2986.1256000 2.5701429844 8.1760740280 4.0282411575 0.0888561904 4.0498619080  -999.250000
 2986.2780000 2.5810680389 7.9030470848 4.0931968689 0.0825653300 4.1432838440  -999.250000
 2986.4304000 2.5860600471 8.2932796478 4.2498908043 0.0842597112 4.2820382118  -999.250000
 2986.5828000 2.5911529064 7.8240470886 4.3705439568 0.0874315649 4.4331569672  -999.250000
 2986.7352000 2.5888459682 7.4314651489 4.3717718124 0.0957596675 4.5009021759  -999.250000
 2986.8876000 2.5853888988 6.6349701881 4.4074859619 0.0975319967 4.5229401588  -999.250000
 2987.0400000 2.5814518929 6.4897122383 4.4869990349 0.0886111259 4.5109858513  -999.250000
 2987.1924000 2.5854320526 6.5538029671 4.5349421501 0.0863869935 4.5309619904  -999.250000
 2987.3448000 2.5882220268 7.3221540451 4.5788869858 0.0924569592 4.5707578659  -999.250000
