# LAS format log file from PETREL
# Project units are specified as depth units
#==================================================================
~Version information
VERS.   2.0:
WRAP.   NO:
#==================================================================
~Well
STRT .m      175.86960000 :
STOP .m      5330.3424000 :
STEP .m     0.15240000 :
NULL .        -999.250000 :
COMP.           : COMPANY
WELL.  15_9-F-10   : WELL
FLD.            : FIELD
LOC.            : LOCATION
SRVC.           : SERVICE COMPANY
DATE.  2020-08-19 21:46:58   : Log Export Date {yyyy-MM-dd HH:mm:ss}
PROV.           : PROVINCE
UWI.   15_9-F-10   : UNIQUE WELL ID
API.            : API NUMBER
#==================================================================
~Curve
DEPT .m                   : DEPTH
RHOB .g/cm3               : RHOB
RT .ohm.m                 : RT
GR .gAPI                  : GR
NPHI .m3/m3               : NPHI
RM .ohm.m                 : RM
FACIES ._                 : FACIES
~Parameter
#==================================================================
~Ascii
# ...
 4803.1908000 2.4563181400 1.9913742542 14.549650192  -999.250000 1.9426378012  -999.250000
 4803.3432000 2.4393618107 1.9862333536 13.786180496  -999.250000 1.9317206144  -999.250000
 4803.4956000 2.4271590710 1.9576594830 13.267135620  -999.250000 1.9289920330  -999.250000
 4803.6480000 2.4152345657 1.9554857016 10.848493576  -999.250000 1.9301017523  -999.250000
 4803.8004000 2.4101278782 1.9677077532 8.9488954544  -999.250000 1.9087300301  -999.250000
 4803.9528000 2.4068245888 1.9478434324 8.4635839462  -999.250000 1.9032592773  -999.250000
 4804.1052000 2.4112646580 1.9237592220 9.8778715134  -999.250000 1.8923588991  -999.250000
 4804.2576000 2.4292724133 1.9080822468 11.600014687  -999.250000 1.9004110098  -999.250000
 4804.4100000 2.4526932240 1.8933558464 11.907871246  -999.250000 1.8607561588  -999.250000
 4804.5624000 2.5128281116 1.8710074425 10.534734726  -999.250000 1.8309428692  -999.250000
 4804.7148000 2.5013532639 1.8455104828 8.8537425995  -999.250000 1.8301798105  -999.250000
 4804.8672000 2.4708178043 1.8481814861 9.7946672440  -999.250000 1.8331648111  -999.250000
 4805.0196000 2.4342157841 1.8530913591 12.416584015  -999.250000 1.8067386150  -999.250000
 4805.1720000 2.4324142933 1.8447437286 14.048807144  -999.250000 1.8066312075  -999.250000
 4805.3244000 2.4382820129 1.8455636501 13.059114456  -999.250000 1.8080096245  -999.250000
 4805.4768000 2.4469130039 1.8528250456 12.901250839  -999.250000 1.8077528477  -999.250000
 4805.6292000 2.4633154869 1.8742367029 13.803128242  -999.250000 1.8032521009  -999.250000
 4805.7816000 2.4693949223 1.8755124807 14.775061607  -999.250000 1.8069673777  -999.250000
 4805.9340000 2.4577078819 1.8306223154 13.678779602  -999.250000 1.7950018644  -999.250000
 4806.0864000 2.4440119267 1.8369574547 12.512443542  -999.250000 1.7958806753  -999.250000
 4806.2388000 2.4135143757 1.8382183313 10.563808441  -999.250000 1.8052495718  -999.250000
 4806.3912000 2.4005002975 1.8252642155 9.8515605927  -999.250000 1.8133718967  -999.250000
 4806.5436000 2.4319045544 1.8440092802 8.7836074829  -999.250000 1.8096742630  -999.250000
 4806.6960000 2.4863729477 1.8356941938 8.4279003143  -999.250000 1.8070873022  -999.250000
 4806.8484000 2.4885692596 1.8426284790 9.1401481628  -999.250000 1.8232104778  -999.250000
 4807.0008000 2.4371817112 1.8427815437 10.208101273  -999.250000 1.8093919754  -999.250000
 4807.1532000 2.4098474979 1.8439103365 8.8867835999  -999.250000 1.8176761866  -999.250000
 4807.3056000 2.4166455269 1.8418416977 6.4975104332  -999.250000 1.8099397421  -999.250000
 4807.4580000 2.4462254047 1.8700822592 6.4975104332  -999.250000 1.8123459816  -999.250000
 4807.6104000 2.4658110142 1.9095364809 8.8867826462  -999.250000 1.8409863710  -999.250000
 4807.7628000 2.4821941853 1.8843830824 10.940452576  -999.250000 1.8367247581  -999.250000
 4807.9152000 2.4706401825 1.9407283068 10.604849815  -999.250000 1.8591378927  -999.250000
 4808.0676000 2.4384367466 1.9292504787 9.6658840179  -999.250000 1.8872846365  -999.250000
 4808.2200000 2.4232990742 1.9282976389 9.7431583405  -999.250000 1.8864325285  -999.250000
 4808.3724000 2.4288613796 1.9197986126 10.501072884  -999.250000 1.9073778391  -999.250000
 4808.5248000 2.4472243786 1.9213248491 10.657725334  -999.250000 1.9052807093  -999.250000
 4808.6772000 2.4594888687 1.9516884089 10.133735657  -999.250000 1.9241046906  -999.250000
 4808.8296000 2.4782884121 1.9410060644 11.282300949  -999.250000 1.9200049639  -999.250000
 4808.9820000 2.4743566513 2.0136551857 13.635492325  -999.250000 1.9717382193  -999.250000
 4809.1344000 2.4698824883 2.0457086563 16.925163269  -999.250000 2.0146563053  -999.250000
 4809.2868000 2.4587500095 2.1043698788 17.861646652  -999.250000 2.0256466866  -999.250000
 4809.4392000 2.4584946632 2.0579650402 18.314638138  -999.250000 2.0520541668  -999.250000
 4809.5916000 2.4837982655 2.1350870132 17.831153870  -999.250000 2.0997951031  -999.250000
 4809.7440000 2.5043122768 2.1136064529 18.039379120  -999.250000 2.0998294353  -999.250000
 4809.8964000 2.5137138367 2.1484518051 18.731092453  -999.250000 2.1454327106  -999.250000
 4810.0488000 2.4867963791 2.1947028637 18.586563110  -999.250000 2.1818718910  -999.250000
 4810.2012000 2.4727218151 2.2085478306 20.234941483  -999.250000 2.1872324944  -999.250000
 4810.3536000 2.4736099243 2.1768920422 21.883317947  -999.250000 2.1970388889  -999.250000
 4810.5060000 2.4828414917 2.1855676174 22.198034286  -999.250000 2.2104389668  -999.250000
 4810.6584000 2.4836182594 2.2064356804 20.028127670  -999.250000 2.2036542892  -999.250000
 4810.8108000 2.4769477844 2.2696106434 19.371255875  -999.250000 2.2185738087  -999.250000
 4810.9632000 2.4895670414 2.3405380249 20.884288788  -999.250000 2.2833812237  -999.250000
 4811.1156000 2.5045664310 2.3439600468 20.727636337  -999.250000 2.2874233723  -999.250000
 4811.2680000 2.4975869656 2.3347854614 19.057950974  -999.250000 2.2928528786  -999.250000
 4811.4204000 2.4759902954 2.3455026150 17.404832840  -999.250000 2.3109931946  -999.250000
 4811.5728000 2.4734420776 2.3761830330 17.874784470  -999.250000 2.3703300953  -999.250000
 4811.7252000 2.4869205952 2.3817775249 18.344738007  -999.250000 2.3674755096  -999.250000
 4811.8776000 2.4986922741 2.4144587517 17.231615067  -999.250000 2.3930878639  -999.250000
 4812.0300000 2.5138235092 2.5034186840 15.665104866  -999.250000 2.4856493473  -999.250000
 4812.1824000 2.5359325409 2.5526778698 14.772073746  -999.250000 2.5330469608  -999.250000
 4812.3348000 2.5398149490 2.5031142235 15.445550919  -999.250000 2.5008397102  -999.250000
 4812.4872000 2.5276081562 2.5800173283 15.445549965  -999.250000 2.5418310165  -999.250000
 4812.6396000 2.5120334625 2.5885164738 14.772070885  -999.250000 2.5513994694  -999.250000
 4812.7920000 2.5072081089 2.6241288185 14.457028389  -999.250000 2.5594720840  -999.250000
 4812.9444000 2.5014028549 2.6642127037 15.027873039  -999.250000 2.6165869236  -999.250000
 4813.0968000 2.4981427193 2.7805573940 15.811128616  -999.250000 2.7060325146  -999.250000
 4813.2492000 2.5189723969 2.7799990177 16.081428528  -999.250000 2.7048132420  -999.250000
 4813.4016000 2.5204474926 2.7267849445 16.139320374  -999.250000 2.6878569126  -999.250000
 4813.5540000 2.5234692097 2.8359055519 17.862480164  -999.250000 2.8053011894  -999.250000
 4813.7064000 2.5252077579 2.8733239174 19.740163803  -999.250000 2.8359708786  -999.250000
 4813.8588000 2.5371553898 2.8629662991 20.429470062  -999.250000 2.8402011395  -999.250000
 4814.0112000 2.5502760410 2.8667829037 19.241094589  -999.250000 2.8548355103  -999.250000
 4814.1636000 2.5512290001 2.8628578186 17.829786301  -999.250000 2.8599259853  -999.250000
 4814.3160000 2.5357675552 2.8673565388 17.606853485  -999.250000 2.8557965755  -999.250000
 4814.4684000 2.5131945610 2.8591232300 20.195472717  -999.250000 2.8482103348  -999.250000
 4814.6208000 2.4818315506 2.9011096954 20.510223389  -999.250000 2.8049864769  -999.250000
 4814.7732000 2.4793138504 2.9314062595 20.824975967  -999.250000 2.8197531700  -999.250000
 4814.9256000 2.4882583618 2.9338784218 19.268077850  -999.250000 2.8022754192  -999.250000
 4815.0780000 2.5403361320 2.9379930496 20.207984924  -999.250000 2.8160977364  -999.250000
 4815.2304000 2.6353774071 2.9282736778 19.698829651  -999.250000 2.8246858120  -999.250000
 4815.3828000 2.6558032036 2.9297370911 18.249767303  -999.250000 2.8155121803  -999.250000
 4815.5352000 2.5840868950 2.9360663891 18.249767303  -999.250000 2.8191666603  -999.250000
 4815.6876000 2.5445892811 2.8478353024 19.698829651  -999.250000 2.8134455681  -999.250000
 4815.8400000 2.5533931255 2.9548704624 21.444480896  -999.250000 2.7928614616  -999.250000
 4815.9924000 2.5506029129 2.9894564152 22.140035629  -999.250000 2.7627687454  -999.250000
 4816.1448000 2.4854311943 2.9830584526 23.234556198  -999.250000 2.7696802616  -999.250000
 4816.2972000 2.4014093876 2.7313482761 25.477668762  -999.250000 2.7684702873  -999.250000
