# LAS format log file from PETREL
# Project units are specified as depth units
#==================================================================
~Version information
VERS.   2.0:
WRAP.   NO:
#==================================================================
~Well
STRT .m      175.86960000 :
STOP .m      5330.3424000 :
STEP .m     0.15240000 :
NULL .        -999.250000 :
COMP.           : COMPANY
WELL.  15_9-F-10   : WELL
FLD.            : FIELD
LOC.            : LOCATION
SRVC.           : SERVICE COMPANY
DATE.  2020-08-19 21:46:58   : Log Export Date {yyyy-MM-dd HH:mm:ss}
PROV.           : PROVINCE
UWI.   15_9-F-10   : UNIQUE WELL ID
API.            : API NUMBER
#==================================================================
~Curve
DEPT .m                   : DEPTH
RHOB .g/cm3               : RHOB
RT .ohm.m                 : RT
GR .gAPI                  : GR
NPHI .m3/m3               : NPHI
RM .ohm.m                 : RM
FACIES ._                 : FACIES
~Parameter
#==================================================================
~Ascii
# ...
 3808.7808000 2.5990235806 10.293438911 7.7250118256  -999.250000 9.7732839584  -999.250000
 3808.9332000 2.6028029919 10.317302704 6.5885963440  -999.250000 9.7907114029  -999.250000
 3809.0856000 2.6130909920 10.045011520 5.3492994308  -999.250000 9.6133193970  -999.250000
 3809.2380000 2.6316127777 9.9603424072 3.9928965569  -999.250000 9.4422836304  -999.250000
 3809.3904000 2.6354744434 9.9110412598 3.8757910728  -999.250000 9.5025014877  -999.250000
 3809.5428000 2.6163268089 9.9236049652 4.0719089508  -999.250000 9.1762094498  -999.250000
 3809.6952000 2.5956697464 9.8477020264 4.3851327896  -999.250000 9.1342086792  -999.250000
 3809.8476000 2.6070168018 9.7560958862 5.3253517151  -999.250000 9.0767230988  -999.250000
 3810.0000000 2.6382381916 9.6644039154 5.9523477554  -999.250000 8.9247970581  -999.250000
 3810.1524000 2.6462574005 9.7436275482 7.2059473991  -999.250000 8.9621362686  -999.250000
 3810.3048000 2.6239740849 9.7219438553 7.8325519562  -999.250000 8.9241924286  -999.250000
 3810.4572000 2.6025047302 9.4514961243 8.7724571228  -999.250000 8.8778066635  -999.250000
 3810.6096000 2.6033151150 9.5596389771 9.0857601166  -999.250000 8.8734903336  -999.250000
 3810.7620000 2.6023621559 9.4784536362 10.132775307  -999.250000 8.8917589188  -999.250000
 3810.9144000 2.6036994457 9.5307931900 10.866488457  -999.250000 8.9388589859  -999.250000
 3811.0668000 2.6237778664 9.5988740921 11.419372559  -999.250000 8.9874982834  -999.250000
 3811.2192000 2.6435437202 9.6473741531 11.238546371  -999.250000 9.1682577133  -999.250000
 3811.3716000 2.6416208744 9.7090406418 9.0949754715  -999.250000 9.1609888077  -999.250000
 3811.5240000 2.5942590237 9.6092205048 7.1322293282  -999.250000 9.1791353226  -999.250000
 3811.6764000 2.5519008636 9.8244667053 6.2530603409  -999.250000 9.2804841995  -999.250000
 3811.8288000 2.5670971870 9.7889356613 7.3366370201  -999.250000 9.2799663544  -999.250000
 3811.9812000 2.6063880920 9.7277774811 7.7408347130  -999.250000 9.3223209381  -999.250000
 3812.1336000 2.6367874146 9.7904272079 7.0614571571  -999.250000 9.3096590042  -999.250000
 3812.2860000 2.6196672916 9.8249149323 6.9177870750  -999.250000 9.3074703217  -999.250000
 3812.4384000 2.6069908142 9.8497810364 7.4534955025  -999.250000 9.4083604813  -999.250000
 3812.5908000 2.6104044914 9.7875146866 6.5793437958  -999.250000 9.3451070786  -999.250000
 3812.7432000 2.6100158691 9.7548904419 6.2645740509  -999.250000 9.4079856873  -999.250000
 3812.8956000 2.6072335243 9.8740119934 5.9498038292  -999.250000 9.4210815430  -999.250000
 3813.0480000 2.6092834473 9.7564125061 6.1061024666  -999.250000 9.3337345123  -999.250000
 3813.2004000 2.6152460575 9.7245922089 5.1673116684  -999.250000 9.3766708374  -999.250000
 3813.3528000 2.6159918308 9.6601610184 5.1681909561  -999.250000 9.3851585388  -999.250000
 3813.5052000 2.6141049862 9.7042665482 6.1078629494  -999.250000 9.3097333908  -999.250000
 3813.6576000 2.6116466522 9.5552701950 5.8884878159  -999.250000 9.2753810883  -999.250000
 3813.8100000 2.6015434265 9.6682186127 4.7294406891  -999.250000 9.3004245758  -999.250000
 3813.9624000 2.5994689465 9.4227733612 5.0433301926  -999.250000 9.2160148621  -999.250000
 3814.1148000 2.6154961586 9.4751338959 6.5162663460  -999.250000 9.1694269180  -999.250000
 3814.2672000 2.6396906376 9.3346052170 7.2059478760  -999.250000 9.1405820847  -999.250000
 3814.4196000 2.6472539902 9.3196887970 6.4226927757  -999.250000 9.0840330124  -999.250000
 3814.5720000 2.6141130924 9.2676420212 4.9058523178  -999.250000 9.0853729248  -999.250000
 3814.7244000 2.5860404968 9.0893373489 4.1722664833  -999.250000 8.8789033890  -999.250000
 3814.8768000 2.5760927200 9.0893373489 4.1208877563  -999.250000 8.8789033890  -999.250000
 3815.0292000 2.5790526867 9.0893373489 3.9145667553  -999.250000 8.8789033890  -999.250000
 3815.1816000 2.5903794765 9.0893373489 3.7082459927  -999.250000 8.8789033890  -999.250000
 3815.3340000 2.5948832035 9.0392923355 3.8058497906  -999.250000 8.7568273544  -999.250000
 3815.4864000 2.6118066311 8.9759016037 4.7919807434  -999.250000 8.7276105881  -999.250000
 3815.6388000 2.6278007030 8.9399423599 6.8107452393  -999.250000 8.6672229767  -999.250000
 3815.7912000 2.6311194897 8.9292449951 6.9211711884  -999.250000 8.6804637909  -999.250000
 3815.9436000 2.6268620491 8.9232158661 7.0315976143  -999.250000 8.5939874649  -999.250000
 3816.0960000 2.6081728935 8.9919719696 6.7353291512  -999.250000 8.6550893784  -999.250000
 3816.2484000 2.6066684723 8.8340396881 5.9132146835  -999.250000 8.6573829651  -999.250000
 3816.4008000 2.5717031956 8.9791107178 5.0320672989  -999.250000 8.6494846344  -999.250000
 3816.5532000 2.5848610401 8.8984670639 3.4659485817  -999.250000 8.6236505508  -999.250000
 3816.7056000 2.5793111324 8.9779157639 3.6614587307  -999.250000 8.6894645691  -999.250000
 3816.8580000 2.5795874596 9.0096807480 3.7461242676  -999.250000 8.6734952927  -999.250000
 3817.0104000 2.6179881096 9.1411390305 4.2880640030  -999.250000 8.8231649399  -999.250000
 3817.1628000 2.6224446297 9.2880783081 4.7580170631  -999.250000 8.9291028976  -999.250000
 3817.3152000 2.6324908733 9.1691913605 5.2643723488  -999.250000 8.8990449905  -999.250000
 3817.4676000 2.6233460903 9.3491859436 5.5539445877  -999.250000 9.0337018967  -999.250000
 3817.6200000 2.6198048592 9.3379201889 5.5539445877  -999.250000 9.1130809784  -999.250000
 3817.7724000 2.6021356583 9.3157320023 5.6874194145  -999.250000 9.1190948486  -999.250000
 3817.9248000 2.5968530178 9.4928836823 5.6394371986  -999.250000 9.2556238174  -999.250000
 3818.0772000 2.5979089737 9.5690364838 5.6394371986  -999.250000 9.3298292160  -999.250000
 3818.2296000 2.6142253876 9.5157003403 6.5038766861  -999.250000 9.2649431229  -999.250000
 3818.3820000 2.6242611408 9.6214838028 7.2061843872  -999.250000 9.4198989868  -999.250000
 3818.5344000 2.6227123737 9.7428903580 7.7463603020  -999.250000 9.4653434753  -999.250000
 3818.6868000 2.6155343056 9.6413698196 6.7252697945  -999.250000 9.4297590256  -999.250000
 3818.8392000 2.6066458225 9.7544221878 5.8663110733  -999.250000 9.4768762589  -999.250000
 3818.9916000 2.6045632362 9.7994995117 5.1815342903  -999.250000 9.4720239639  -999.250000
 3819.1440000 2.5967104435 9.6932821274 5.4921154976  -999.250000 9.5148181915  -999.250000
 3819.2964000 2.5984766483 9.6806030273 6.1012277603  -999.250000 9.4085664749  -999.250000
 3819.4488000 2.6159465313 9.6974582672 6.2458276749  -999.250000 9.4149065018  -999.250000
 3819.6012000 2.6297469139 9.6823682785 6.2693929672  -999.250000 9.4119424820  -999.250000
 3819.7536000 2.6314871311 9.5181093216 5.9687237740  -999.250000 9.3524475098  -999.250000
 3819.9060000 2.6335060596 9.5421991348 6.2319936752  -999.250000 9.3044471741  -999.250000
 3820.0584000 2.6353497505 9.5413637161 6.4242444038  -999.250000 9.2456502914  -999.250000
 3820.2108000 2.6361675262 9.4812402725 6.6421976089  -999.250000 9.1593999863  -999.250000
 3820.3632000 2.6226561069 9.5256605148 7.0049057007  -999.250000 9.1731920242  -999.250000
 3820.5156000 2.6109426022 9.2295064926 7.2611379623  -999.250000 9.0243625641  -999.250000
 3820.6680000 2.6045856476 9.1763668060 7.8312988281  -999.250000 8.8467578888  -999.250000
 3820.8204000 2.5991673470 9.1859054565 8.1452274323  -999.250000 8.7671117783  -999.250000
 3820.9728000 2.5988757610 8.9819660187 8.4821004868  -999.250000 8.6177062988  -999.250000
 3821.1252000 2.5998892784 8.7293386459 8.5050449371  -999.250000 8.4752712250  -999.250000
 3821.2776000 2.5951862335 8.7745819092 8.1587629318  -999.250000 8.4634561539  -999.250000
 3821.4300000 2.5915188789 8.5637331009 7.7895374298  -999.250000 8.2609891891  -999.250000
 3821.5824000 2.5932319164 8.2563648224 6.6696052551  -999.250000 8.1005382538  -999.250000
 3821.7348000 2.6045439243 8.2582674026 5.9188985825  -999.250000 8.1056089401  -999.250000
 3821.8872000 2.6105182171 8.0550394058 5.5940413475  -999.250000 7.8531093597  -999.250000
