# LAS format log file from PETREL
# Project units are specified as depth units
#==================================================================
~Version information
VERS.   2.0:
WRAP.   NO:
#==================================================================
~Well
STRT .m      -0.015270480 :
STOP .m      1245.8090095 :
STEP .m     0.04572000 :
NULL .        -999.250000 :
COMP.           : COMPANY
WELL.  15_9-19 A   : WELL
FLD.            : FIELD
LOC.            : LOCATION
SRVC.           : SERVICE COMPANY
DATE.  2020-08-19 21:46:58   : Log Export Date {yyyy-MM-dd HH:mm:ss}
PROV.           : PROVINCE
UWI.   15_9-19 A   : UNIQUE WELL ID
API.            : API NUMBER
#==================================================================
~Curve
DEPT .m                   : DEPTH
GR .gAPI                  : GR
NPHI .m3/m3               : NPHI
RHOB .g/cm3               : RHOB
RM .ohm.m                 : RM
RT .ohm.m                 : RT
FACIES ._                 : FACIES
~Parameter
#==================================================================
~Ascii
# ...
 787.55744952 65.370002747 0.6800000072 2.1506998539 0.6000000238 0.6000000238  -999.250000
 787.60316952 63.909999847 0.5400000215 2.1670000553 0.6000000238 0.6000000238  -999.250000
 787.64888952 63.849998474 0.5400000215 2.1812000275 0.6000000238 0.6000000238  -999.250000
 787.69460952 63.889999390 0.5000000000 2.2078001499 0.6000000238 0.6000000238  -999.250000
 787.74032952 62.500000000 0.5099999905 1.6744999886 0.6000000238 0.6000000238  -999.250000
 787.78604952 63.380001068 0.5400000215 0.7466999888 0.6000000238 0.6000000238  -999.250000
 787.83176952 63.650001526 0.5400000215 1.5780999660 0.6000000238 0.6000000238  -999.250000
 787.87748952 66.849998474 0.5199999809 2.1453001499 0.6000000238 0.6000000238  -999.250000
 787.92320952 66.480003357 0.4900000095 2.1613998413 0.6000000238 0.6000000238  -999.250000
 787.96892952 65.089996338 0.4699999690 2.1703999043 0.6000000238 0.6000000238  -999.250000
 788.01464952 67.339996338 0.5099999905 2.1806001663 0.6000000238 0.6000000238  -999.250000
 788.06036952 68.160003662 0.6000000238 2.1806001663 0.6000000238 0.6999999881  -999.250000
 788.10608952 67.849998474 0.5500000119 2.1678998470 0.6000000238 0.6999999881  -999.250000
 788.15180952 69.879997253 0.4399999976 2.1675000191 0.6999999881 0.6999999881  -999.250000
 788.19752952 70.150001526 0.4300000072 2.1594998837 0.6999999881 0.6999999881  -999.250000
 788.24324952 70.620002747 0.5000000000 2.2137000561 0.6999999881 0.6999999881  -999.250000
 788.28896952 65.110000610 0.5500000119 2.4786999226 0.6999999881 0.8000000119  -999.250000
 788.33468952 50.259998322 0.5600000024 2.8417999744 0.8000000119 0.8000000119  -999.250000
 788.38040952 42.630001068 0.4599999785 2.7588999271 0.8000000119 0.8000000119  -999.250000
 788.42612952 43.869998932 0.4399999976 2.6278998852 0.8000000119 0.8000000119  -999.250000
 788.47184952 52.299999237 0.5400000215 2.6033000946 0.8000000119 0.6999999881  -999.250000
 788.51756952 62.139999390 0.5699999928 2.3106999397 0.6999999881 0.6999999881  -999.250000
 788.56328952 61.869998932 0.6000000238 2.1480000019 0.6999999881 0.6999999881  -999.250000
 788.60900952 59.139999390 0.5199999809 2.1259999275 0.6999999881 0.6999999881  -999.250000
 788.65472952 62.610000610 0.4599999785 2.1333000660 0.6999999881 0.6999999881  -999.250000
 788.70044952 63.389999390 0.5099999905 2.1476998329 0.6999999881 0.6999999881  -999.250000
 788.74616952 60.860000610 0.5500000119 2.1547000408 0.6999999881 0.6999999881  -999.250000
 788.79188952 63.810001373 0.5500000119 2.1546001434 0.6000000238 0.6999999881  -999.250000
 788.83760952 71.419998169 0.5099999905 2.1938998699 0.6000000238 0.6999999881  -999.250000
 788.88332952 74.319999695 0.4900000095 2.1961998940 0.6999999881 0.6999999881  -999.250000
 788.92904952 71.319999695 0.5500000119 2.1630001068 0.6999999881 0.6999999881  -999.250000
 788.97476952 68.510002136 0.5900000334 2.1691999435 0.6999999881 0.6999999881  -999.250000
 789.02048952 67.400001526 0.5800000429 2.1937999725 0.6999999881 0.6999999881  -999.250000
 789.06620952 66.680000305 0.5000000000 2.1823999882 0.6999999881 0.6999999881  -999.250000
 789.11192952 66.150001526 0.4699999690 2.1575000286 0.6999999881 0.6999999881  -999.250000
 789.15764952 66.150001526 0.5099999905 2.1576001644 0.6999999881 0.6999999881  -999.250000
 789.20336952 66.940002441 0.5300000310 2.1646001339 0.6999999881 0.6999999881  -999.250000
 789.24908952 66.930000305 0.5800000429 2.1766998768 0.6999999881 0.6999999881  -999.250000
 789.29480952 64.260002136 0.6100000143 2.1588997841 0.6999999881 0.6999999881  -999.250000
 789.34052952 62.639999390 0.5500000119 2.1563000679 0.6999999881 0.6999999881  -999.250000
 789.38624952 69.190002441 0.4599999785 2.1649999619 0.6999999881 0.6999999881  -999.250000
 789.43196952 74.830001831 0.4199999869 2.1937999725 0.6999999881 0.6999999881  -999.250000
 789.47768952 76.220001221 0.4499999881 2.2172000408 0.6999999881 0.6999999881  -999.250000
 789.52340952 70.440002441 0.5099999905 2.2288000584 0.6999999881 0.6999999881  -999.250000
 789.56912952 67.800003052 0.5900000334 2.2193999290 0.6999999881 0.6999999881  -999.250000
 789.61484952 72.160003662 0.5699999928 2.2158999443 0.6999999881 0.6999999881  -999.250000
 789.66056952 72.669998169 0.5300000310 2.2316000462 0.6999999881 0.6999999881  -999.250000
 789.70628952 72.250000000 0.5199999809 2.2425000668 0.6999999881 0.6999999881  -999.250000
 789.75200952 74.559997559 0.5199999809 2.2184998989 0.6999999881 0.6999999881  -999.250000
 789.79772952 76.169998169 0.5099999905 2.2007999420 0.6999999881 0.6999999881  -999.250000
 789.84344952 75.300003052 0.5199999809 2.2007000446 0.6999999881 0.6999999881  -999.250000
 789.88916952 72.889999390 0.5199999809 2.2231998444 0.6999999881 0.6999999881  -999.250000
 789.93488952 70.620002747 0.4900000095 2.2143998146 0.6999999881 0.6999999881  -999.250000
 789.98060952 71.040000916 0.5000000000 2.2036001682 0.6999999881 0.6999999881  -999.250000
 790.02632952 72.019996643 0.5099999905 2.2026998997 0.6999999881 0.6999999881  -999.250000
 790.07204952 70.669998169 0.4699999690 2.2078001499 0.6999999881 0.6999999881  -999.250000
 790.11776952 68.919998169 0.4699999690 2.2128999233 0.6999999881 0.6999999881  -999.250000
 790.16348952  -999.250000  -999.250000  -999.250000  -999.250000  -999.250000  -999.250000
 790.20920952 71.620002747 0.5199999809 2.2023999691 0.6999999881 0.6999999881  -999.250000
 790.25492952 73.750000000 0.5400000215 2.1909999847 0.6000000238 0.6999999881  -999.250000
 790.30064952 71.080001831 0.5400000215 2.1868000031 0.6000000238 0.6999999881  -999.250000
 790.34636952 72.669998169 0.5400000215 2.1821000576 0.6000000238 0.6999999881  -999.250000
 790.39208952 72.629997253 0.5500000119 2.1913001537 0.6000000238 0.6999999881  -999.250000
 790.43780952 70.639999390 0.6000000238 2.1991999149 0.6000000238 0.6999999881  -999.250000
 790.48352952 70.419998169 0.5900000334 2.1943998337 0.6000000238 0.6999999881  -999.250000
 790.52924952 69.300003052 0.5300000310 2.1856999397 0.6000000238 0.6999999881  -999.250000
 790.57496952 70.400001526 0.5199999809 2.1851000786 0.6000000238 0.6999999881  -999.250000
 790.62068952 71.779998779 0.4900000095 2.1861000061 0.6000000238 0.6999999881  -999.250000
 790.66640952 68.400001526 0.5099999905 2.1930000782 0.6000000238 0.6999999881  -999.250000
 790.71212952 67.169998169 0.5699999928 2.2046000957 0.6000000238 0.6000000238  -999.250000
 790.75784952 71.709999084 0.5900000334 2.2131998539 0.6000000238 0.6000000238  -999.250000
 790.80356952 71.669998169 0.6399999857 2.2143001556 0.6000000238 0.6000000238  -999.250000
 790.84928952 70.500000000 0.6499999762 2.2156000137 0.6000000238 0.6000000238  -999.250000
 790.89500952 71.680000305 0.5699999928 2.2207000256 0.6000000238 0.6000000238  -999.250000
 790.94072952 69.970001221 0.5300000310 2.1933999062 0.6000000238 0.6000000238  -999.250000
 790.98644952 68.569999695 0.5600000024 2.1728000641 0.6000000238 0.6000000238  -999.250000
 791.03216952 70.400001526 0.5900000334 2.1865000725 0.6000000238 0.6000000238  -999.250000
 791.07788952 72.610000610 0.5600000024 2.1763000488 0.6000000238 0.6000000238  -999.250000
 791.12360952 72.940002441 0.5400000215 2.1391000748 0.6000000238 0.6000000238  -999.250000
 791.16932952 70.620002747 0.5699999928 2.1349999905 0.6000000238 0.6000000238  -999.250000
 791.21504952 68.230003357 0.6299999952 2.1406002045 0.6000000238 0.6000000238  -999.250000
 791.26076952 67.599998474 0.6200000048 2.1795001030 0.6000000238 0.6000000238  -999.250000
 791.30648952 68.379997253 0.5500000119 2.2070000172 0.6000000238 0.6000000238  -999.250000
 791.35220952 66.760002136 0.5000000000 2.2170000076 0.6000000238 0.6000000238  -999.250000
 791.39792952 65.690002441 0.4900000095 2.2096998692 0.6000000238 0.6000000238  -999.250000
 791.44364952 67.160003662 0.4900000095 2.1930000782 0.6000000238 0.6000000238  -999.250000
 791.48936952 68.889999390 0.4800000191 2.1833000183 0.6000000238 0.6000000238  -999.250000
