# LAS format log file from PETREL
# Project units are specified as depth units
#==================================================================
~Version information
VERS.   2.0:
WRAP.   NO:
#==================================================================
~Well
STRT .m      175.86960000 :
STOP .m      5330.3424000 :
STEP .m     0.15240000 :
NULL .        -999.250000 :
COMP.           : COMPANY
WELL.  15_9-F-10   : WELL
FLD.            : FIELD
LOC.            : LOCATION
SRVC.           : SERVICE COMPANY
DATE.  2020-08-19 21:46:58   : Log Export Date {yyyy-MM-dd HH:mm:ss}
PROV.           : PROVINCE
UWI.   15_9-F-10   : UNIQUE WELL ID
API.            : API NUMBER
#==================================================================
~Curve
DEPT .m                   : DEPTH
RHOB .g/cm3               : RHOB
RT .ohm.m                 : RT
GR .gAPI                  : GR
NPHI .m3/m3               : NPHI
RM .ohm.m                 : RM
FACIES ._                 : FACIES
~Parameter
#==================================================================
~Ascii
# ...
 3556.8636000 2.6088509560 5.6628913879 5.8983182907  -999.250000 5.5410585403  -999.250000
 3557.0160000 2.5963420868 5.5643773079 5.7079176903  -999.250000 5.6479225159  -999.250000
 3557.1684000 2.5857980251 5.8382830620 5.3866896629  -999.250000 5.7861208916  -999.250000
 3557.3208000 2.5790452957 5.7942142487 5.3857569695 0.0738164485 5.8962678909  -999.250000
 3557.4732000 2.5743553638 5.9708929062 5.6519112587  -999.250000 5.9089655876  -999.250000
 3557.6256000 2.5661017895 5.9756217003 5.6707000732  -999.250000 6.0161752701  -999.250000
 3557.7780000 2.5605032444 6.1209750175 5.7527866364  -999.250000 6.0997319221  -999.250000
 3557.9304000 2.5569694042 6.2050504684 5.7704138756  -999.250000 6.1417636871  -999.250000
 3558.0828000 2.5520486832 6.4099588394 5.9286861420 0.1013574451 6.2413153648  -999.250000
 3558.2352000 2.5545711517 6.4269108772 5.9787154198  -999.250000 6.2788167000  -999.250000
 3558.3876000 2.5513119698 6.4771156311 5.7834711075  -999.250000 6.3484067917  -999.250000
 3558.5400000 2.5534181595 6.5146260262 5.4281182289  -999.250000 6.2631316185  -999.250000
 3558.6924000 2.5510079861 6.5106344223 5.5066332817  -999.250000 6.2988414764  -999.250000
 3558.8448000 2.5527989864 6.6007494926 5.6713466644  -999.250000 6.2844300270  -999.250000
 3558.9972000 2.5555589199 6.5330166817 5.7596988678  -999.250000 6.2602705956  -999.250000
 3559.1496000 2.5572562218 6.2148160934 5.6534371376  -999.250000 6.1392340660  -999.250000
 3559.3020000 2.5613083839 6.1745119095 6.0992445946  -999.250000 6.0804529190  -999.250000
 3559.4544000 2.5641450882 6.0996804237 6.6273603439  -999.250000 6.0285239220  -999.250000
 3559.6068000 2.5688958168 5.9871606827 6.8920497894  -999.250000 5.9720792770  -999.250000
 3559.7592000 2.5753159523 5.9135890007 7.3917121887  -999.250000 5.9716629982  -999.250000
 3559.9116000 2.5850205421 5.7493877411 7.8175606728  -999.250000 5.8479948044  -999.250000
 3560.0640000 2.5900111198 5.5870671272 8.1979770660  -999.250000 5.7436313629  -999.250000
 3560.2164000 2.5992777348 5.4918947220 7.8231487274  -999.250000 5.7074079514  -999.250000
 3560.3688000 2.6035029888 5.4297609329 8.2506771088  -999.250000 5.5784459114  -999.250000
 3560.5212000 2.6113801003 5.3004627228 8.6427097321 0.0685534924 5.4854044914  -999.250000
 3560.6736000 2.6103200912 5.1893649101 8.8317203522  -999.250000 5.3769087791  -999.250000
 3560.8260000 2.6112630367 5.1781430244 8.7758407593 0.0731257796 5.3180665970  -999.250000
 3560.9784000 2.6104464531 4.9977335930 8.9185991287  -999.250000 5.2054743767  -999.250000
 3561.1308000 2.6110880375 4.9138102531 9.3847742081  -999.250000 5.1247301102  -999.250000
 3561.2832000 2.6102249622 4.8915538788 8.6129684448  -999.250000 5.0489897728  -999.250000
 3561.4356000 2.6071007252 4.9030470848 8.0527553558  -999.250000 4.9996743202  -999.250000
 3561.5880000 2.6030168533 4.8636031151 7.6354436874  -999.250000 4.9534440041  -999.250000
 3561.7404000 2.5986409187 4.8758859634 7.5918889046  -999.250000 4.9879870415  -999.250000
 3561.8928000 2.5944530964 4.9337463379 7.6846938133 0.0711195767 4.9907402992  -999.250000
 3562.0452000 2.5882940292 4.8695302010 7.2536377907  -999.250000 4.9824552536  -999.250000
 3562.1976000 2.5824093819 4.9020271301 6.9956436157  -999.250000 4.9534029961  -999.250000
 3562.3500000 2.5748360157 5.0338878632 6.9354557991  -999.250000 5.0061025620  -999.250000
 3562.5024000 2.5715928078 5.0344071388 7.3323750496  -999.250000 5.0718278885  -999.250000
 3562.6548000 2.5639228821 5.0443563461 7.2070355415  -999.250000 5.0835924149  -999.250000
 3562.8072000 2.5534427166 5.2112879753 6.6736106873  -999.250000 5.0770773888  -999.250000
 3562.9596000 2.5502941608 5.2326512337 5.6528730392  -999.250000 5.1224522591  -999.250000
 3563.1120000 2.5447483063 5.5149064064 5.9166278839  -999.250000 5.0659399033  -999.250000
 3563.2644000 2.5447254181 5.5182547569 5.5173568726  -999.250000 5.0583977699  -999.250000
 3563.4168000 2.5382905006 5.3658051491 6.0422763824  -999.250000 5.0707440376  -999.250000
 3563.5692000 2.5406677723 5.4221134186 5.8636727333  -999.250000 5.0931673050  -999.250000
 3563.7216000 2.5397918224 5.5427322388 6.1849255562  -999.250000 5.0596122742  -999.250000
 3563.8740000 2.5368351936 5.4775538445 5.9127559662  -999.250000 5.0628180504  -999.250000
 3564.0264000 2.5334637165 5.6834421158 5.9779901505  -999.250000 5.0885624886  -999.250000
 3564.1788000 2.5354182720 5.7149920464 6.1754260063  -999.250000 5.1351852417  -999.250000
 3564.3312000 2.5375795364 5.5958709717 6.1594128609  -999.250000 5.1953101158  -999.250000
 3564.4836000 2.5383665562 5.7074861526 6.3548731804  -999.250000 5.2102732658  -999.250000
 3564.6360000 2.5384244919 5.7859220505 6.4295554161  -999.250000 5.3444881439  -999.250000
 3564.7884000 2.5436966419 5.8590044975 6.8769016266  -999.250000 5.3947339058  -999.250000
 3564.9408000 2.5536799431 5.8774204254 7.2183341980  -999.250000 5.4282159805  -999.250000
 3565.0932000 2.5640108585 5.7267360687 6.8915653229  -999.250000 5.5731606483  -999.250000
 3565.2456000 2.5723321438 5.9604449272 6.9208579063  -999.250000 5.5677342415  -999.250000
 3565.3980000 2.5740561485 5.8752846718 6.2933025360  -999.250000 5.5583176613  -999.250000
 3565.5504000 2.5761506557 5.6564040184 6.2901577950  -999.250000 5.5515985489  -999.250000
 3565.7028000 2.5745322704 5.6494798660 5.9405026436  -999.250000 5.4795289040  -999.250000
 3565.8552000 2.5700025558 5.6718201637 5.8575949669  -999.250000 5.4707946777  -999.250000
 3566.0076000 2.5613708496 5.7802419662 5.7608366013  -999.250000 5.5119833946  -999.250000
 3566.1600000 2.5575475693 5.6533932686 5.8054428101  -999.250000 5.5074434280  -999.250000
 3566.3124000 2.5565047264 5.6241774559 6.0109624863  -999.250000 5.5128197670  -999.250000
 3566.4648000 2.5588934422 5.6287646294 6.3484444618  -999.250000 5.5290145874  -999.250000
 3566.6172000 2.5562186241 5.6180214882 6.1797194481  -999.250000 5.5458235741  -999.250000
 3566.7696000 2.5570702553 5.6055583954 5.8593153954  -999.250000 5.5785579681  -999.250000
 3566.9220000 2.5537729263 5.7008414268 6.0180091858  -999.250000 5.5884852409  -999.250000
 3567.0744000 2.5535576344 5.7199845314 6.1263484955  -999.250000 5.5567078590  -999.250000
 3567.2268000 2.5523600578 5.6710071564 6.1611680984  -999.250000 5.5766143799  -999.250000
 3567.3792000 2.5518016815 5.7202205658 6.0241289139  -999.250000 5.5305814743  -999.250000
 3567.5316000 2.5480098724 5.7169570923 6.2907228470  -999.250000 5.5342574120  -999.250000
 3567.6840000 2.5410642624 5.6361665726 6.6420688629  -999.250000 5.4812011719  -999.250000
 3567.8364000 2.5418913364 5.6016836166 6.5427913666  -999.250000 5.4869766235  -999.250000
 3567.9888000 2.5370435715 5.6557540894 6.8248329163  -999.250000 5.4364609718  -999.250000
 3568.1412000 2.5427482128 5.6233596802 6.2089381218  -999.250000 5.3483800888  -999.250000
 3568.2936000 2.5446114540 5.6012158394 5.7359614372  -999.250000 5.4492907524  -999.250000
 3568.4460000 2.5576674938 5.5956182480 5.0377731323  -999.250000 5.4490375519  -999.250000
 3568.5984000 2.5656511784 5.5385856628 5.3304924965  -999.250000 5.4267196655  -999.250000
 3568.7508000 2.5735840797 5.5850424767 5.6178741455  -999.250000 5.4217381477  -999.250000
 3568.9032000 2.5821261406 5.6549153328 5.5106191635  -999.250000 5.4370503426  -999.250000
 3569.0556000 2.5784969330 5.7298645973 5.4736976624  -999.250000 5.5137162209  -999.250000
 3569.2080000 2.5702273846 5.7764787674 5.5335445404  -999.250000 5.3773336411  -999.250000
 3569.3604000 2.5555207729 5.7522006035 5.5061035156  -999.250000 5.4074487686  -999.250000
 3569.5128000 2.5483915806 5.8024439812 5.3121356964  -999.250000 5.3679642677  -999.250000
 3569.6652000 2.5449016094 5.6808524132 5.1049571037  -999.250000 5.3485622406  -999.250000
 3569.8176000 2.5449326038 5.6351594925 5.0814747810  -999.250000 5.3278355598  -999.250000
 3569.9700000 2.5450420380 5.6103782654 5.0483317375  -999.250000 5.3171687126  -999.250000
