# LAS format log file from PETREL
# Project units are specified as depth units
#==================================================================
~Version information
VERS.   2.0:
WRAP.   NO:
#==================================================================
~Well
STRT .m      175.86960000 :
STOP .m      5330.3424000 :
STEP .m     0.15240000 :
NULL .        -999.250000 :
COMP.           : COMPANY
WELL.  15_9-F-10   : WELL
FLD.            : FIELD
LOC.            : LOCATION
SRVC.           : SERVICE COMPANY
DATE.  2020-08-19 21:46:58   : Log Export Date {yyyy-MM-dd HH:mm:ss}
PROV.           : PROVINCE
UWI.   15_9-F-10   : UNIQUE WELL ID
API.            : API NUMBER
#==================================================================
~Curve
DEPT .m                   : DEPTH
RHOB .g/cm3               : RHOB
RT .ohm.m                 : RT
GR .gAPI                  : GR
NPHI .m3/m3               : NPHI
RM .ohm.m                 : RM
FACIES ._                 : FACIES
~Parameter
#==================================================================
~Ascii
# ...
 4683.8616000 2.5203449726 3.7652399540 12.786847115  -999.250000 3.7238378525  -999.250000
 4684.0140000 2.5181984901 3.7760257721 13.512918472  -999.250000 3.7168557644  -999.250000
 4684.1664000 2.5099406242 3.1753973961 11.987338066  -999.250000 2.9925823212  -999.250000
 4684.3188000 2.5089824200 3.0374085903 10.420827866  -999.250000 3.0164277554  -999.250000
 4684.4712000 2.5057058334 3.0430903435 10.379898071  -999.250000 3.0207643509  -999.250000
 4684.6236000 2.5194647312 3.0162763596 9.2424116135  -999.250000 3.0025713444  -999.250000
 4684.7760000 2.5428819656 3.0723299980 8.6591281891  -999.250000 2.9480252266  -999.250000
 4684.9284000 2.5414376259 2.9720196724 8.5891189575  -999.250000 2.8198173046  -999.250000
 4685.0808000 2.5176038742 2.9552047253 8.7457695007  -999.250000 2.8675224781  -999.250000
 4685.2332000 2.5092780590 3.0017066002 8.3891468048  -999.250000 2.8508772850  -999.250000
 4685.3856000 2.5410327911 3.0881984234 7.6456241608  -999.250000 2.8327233791  -999.250000
 4685.5380000 2.5642366409 3.0737254620 7.7871351242  -999.250000 2.8446686268  -999.250000
 4685.6904000 2.5734257698 3.0603988171 7.9437866211  -999.250000 2.8531718254  -999.250000
 4685.8428000 2.5499646664 3.0379607677 6.2842864990  -999.250000 2.8452706337  -999.250000
 4685.9952000 2.5019626617 3.0750215054 4.6096472740  -999.250000 2.8464441299  -999.250000
 4686.1476000 2.4876780510 3.0018711090 3.6693108082  -999.250000 2.8440563679  -999.250000
 4686.3000000 2.5565164089 3.0045652390 4.4187517166  -999.250000 2.8742318153  -999.250000
 4686.4524000 2.5691754818 2.9924588203 7.2113080025  -999.250000 2.8021221161  -999.250000
 4686.6048000 2.5812954903 2.9993414879 8.1822004318  -999.250000 2.8045310974  -999.250000
 4686.7572000 2.5833113194 2.9916820526 9.2927827835  -999.250000 2.8829050064  -999.250000
 4686.9096000 2.5738799572 3.0229744911 9.0499010086  -999.250000 2.9527943134  -999.250000
 4687.0620000 2.5453052521 3.1102149487 10.429203987  -999.250000 2.9678192139  -999.250000
 4687.2144000 2.5332472324 3.0879313946 10.728912354  -999.250000 2.9940295219  -999.250000
 4687.3668000 2.5091865063 3.7635424137 10.652271271  -999.250000 3.5344491005  -999.250000
 4687.5192000 2.5066549778 3.7916073799 10.025666237  -999.250000 3.5704803467  -999.250000
 4687.6716000 2.5059101582 3.7879970074 8.9799346924  -999.250000 3.5760135651  -999.250000
 4687.8240000 2.5083265305 3.4586880207 7.6209006310  -999.250000 3.3120467663  -999.250000
 4687.9764000 2.5231828690 3.2116119862 5.8977394104  -999.250000 2.9692409039  -999.250000
 4688.1288000 2.5196886063 3.0888531208 5.5336112976  -999.250000 2.9415352345  -999.250000
 4688.2812000 2.5243575573 3.0932974815 5.5664834976  -999.250000 2.9015338421  -999.250000
 4688.4336000 2.5096659660 2.9366061687 5.9634842873  -999.250000 2.7862250805  -999.250000
 4688.5860000 2.5081744194 2.9897572994 7.0586328506  -999.250000 2.7610001564  -999.250000
 4688.7384000 2.5176069736 2.9844205379 7.7567801476  -999.250000 2.7535803318  -999.250000
 4688.8908000 2.5282769203 3.0442187786 6.6774892807  -999.250000 2.7826511860  -999.250000
 4689.0432000 2.5319530964 2.6996479034 4.9000506401  -999.250000 2.6040453911  -999.250000
 4689.1956000 2.5234036446 2.7482390404 4.4891119003  -999.250000 2.6111981869  -999.250000
 4689.3480000 2.5154201984 2.7458586693 5.9831266403  -999.250000 2.5693600178  -999.250000
 4689.5004000 2.5179998875 2.6685650349 7.6046581268  -999.250000 2.5228567123  -999.250000
 4689.6528000 2.5237481594 2.5016822815 8.3490219116  -999.250000 2.4037580490  -999.250000
 4689.8052000 2.5258841515 2.5023858547 8.9658708572  -999.250000 2.4020593166  -999.250000
 4689.9576000 2.5119602680 2.4749834538 9.9064416885  -999.250000 2.3951954842  -999.250000
 4690.1100000 2.4979586601 2.3515355587 10.357682228  -999.250000 2.4265732765  -999.250000
 4690.2624000 2.4814262390 2.3719179630 12.357686996  -999.250000 2.4391653538  -999.250000
 4690.4148000 2.4788384438 2.3240091801 13.906452179  -999.250000 2.4160332680  -999.250000
 4690.5672000 2.4837195873 2.3608222008 14.063103676  -999.250000 2.3085806370  -999.250000
 4690.7196000 2.5050115585 2.8545291424 12.670989037  -999.250000 2.5787050724  -999.250000
 4690.8720000 2.5022470951 2.8454730511 11.358736038  -999.250000 2.5864722729  -999.250000
 4691.0244000 2.4741959572 2.7066307068 11.438595772  -999.250000 2.5727326870  -999.250000
 4691.1768000 2.4642622471 2.5063722134 12.378503799  -999.250000 2.4923722744  -999.250000
 4691.3292000 2.4619927406 2.5324025154 13.238549232  -999.250000 2.4995372295  -999.250000
 4691.4816000 2.4600951672 2.5252778530 13.002037048  -999.250000 2.5118114948  -999.250000
 4691.6340000 2.4606323242 2.4974598885 11.905478477  -999.250000 2.3992540836  -999.250000
 4691.7864000 2.4737205505 2.3543114662 10.676370621  -999.250000 2.3228456974  -999.250000
 4691.9388000 2.4863512516 2.3472335339 10.543819427  -999.250000 2.3214879036  -999.250000
 4692.0912000 2.4970879555 2.3907725811 9.4472637177  -999.250000 2.2864136696  -999.250000
 4692.2436000 2.4955284595 2.3106217384 8.4832563400  -999.250000 2.2259709835  -999.250000
 4692.3960000 2.4882750511 2.3179545403 7.5584125519  -999.250000 2.2162456512  -999.250000
 4692.5484000 2.4832899570 2.3161301613 7.5975756645  -999.250000 2.2287280560  -999.250000
 4692.7008000 2.4806203842 2.2935628891 7.9108772278  -999.250000 2.1824233532  -999.250000
 4692.8532000 2.4844012260 2.2451376915 8.1850166321  -999.250000 2.1412506104  -999.250000
 4693.0056000 2.4686741829 2.2379548550 9.3471536636  -999.250000 2.1403503418  -999.250000
 4693.1580000 2.4512250423 2.1969416142 10.235152245  -999.250000 2.1157188416  -999.250000
 4693.3104000 2.4353079796 2.1366751194 11.535660744  -999.250000 2.0839531422  -999.250000
 4693.4628000 2.4320747852 2.1030132771 11.948171616  -999.250000 2.0747613907  -999.250000
 4693.6152000 2.4350192547 2.1095685959 11.530126572  -999.250000 2.0777311325  -999.250000
 4693.7676000 2.4424657822 2.1154482365 10.699571609  -999.250000 2.0694556236  -999.250000
 4693.9200000 2.4574880600 2.2474191189 7.9368891716  -999.250000 2.1984381676  -999.250000
 4694.0724000 2.4635505676 2.2423219681 6.0047631264  -999.250000 2.1879148483  -999.250000
 4694.2248000 2.4661345482 2.1693570614 6.0047631264  -999.250000 2.1131303310  -999.250000
 4694.3772000 2.4644057751 2.1455328465 7.9368891716  -999.250000 2.1080110073  -999.250000
 4694.5296000 2.4550716877 2.1385860443 11.034720421  -999.250000 2.1018550396  -999.250000
 4694.6820000 2.4476995468 2.1251282692 12.200425148  -999.250000 2.0967919827  -999.250000
 4694.8344000 2.4608178139 2.1673052311 11.573821068  -999.250000 2.0619540215  -999.250000
 4694.9868000 2.4637718201 2.1884081364 9.7815113068  -999.250000 2.0708398819  -999.250000
 4695.1392000 2.4727025032 2.1819603443 8.2739934921  -999.250000 2.0699691772  -999.250000
 4695.2916000 2.4670186043 2.1606271267 8.5587844849  -999.250000 2.0256061554  -999.250000
 4695.4440000 2.4704473019 2.2271971703 9.3420400620  -999.250000 2.0693516731  -999.250000
 4695.5964000 2.4886496067 2.2127301693 9.8405046463  -999.250000 2.0602920055  -999.250000
 4695.7488000 2.4866507053 2.2057938576 9.5557136536  -999.250000 2.0726275444  -999.250000
 4695.9012000 2.4659726620 2.2044584751 8.7724571228  -999.250000 2.0963845253  -999.250000
 4696.0536000 2.4477140903 2.1744091511 8.2523679733  -999.250000 2.1528489590  -999.250000
 4696.2060000 2.4473435879 2.1794717312 8.5155344009  -999.250000 2.1521420479  -999.250000
 4696.3584000 2.4495925903 2.2030417919 8.9854869843  -999.250000 2.1984300613  -999.250000
 4696.5108000 2.4540622234 2.3875398636 9.1922740936  -999.250000 2.3276710510  -999.250000
 4696.6632000 2.4551880360 2.4660489559 9.8330478668  -999.250000 2.3518893719  -999.250000
 4696.8156000 2.4521741867 2.4243142605 10.267033577  -999.250000 2.3632035255  -999.250000
 4696.9680000 2.4657535553 2.0546300411 9.9537324905  -999.250000 2.2291064262  -999.250000
