# LAS format log file from PETREL
# Project units are specified as depth units
#==================================================================
~Version information
VERS.   2.0:
WRAP.   NO:
#==================================================================
~Well
STRT .m      -0.015270480 :
STOP .m      1245.8090095 :
STEP .m     0.04572000 :
NULL .        -999.250000 :
COMP.           : COMPANY
WELL.  15_9-19 A   : WELL
FLD.            : FIELD
LOC.            : LOCATION
SRVC.           : SERVICE COMPANY
DATE.  2020-08-19 21:46:58   : Log Export Date {yyyy-MM-dd HH:mm:ss}
PROV.           : PROVINCE
UWI.   15_9-19 A   : UNIQUE WELL ID
API.            : API NUMBER
#==================================================================
~Curve
DEPT .m                   : DEPTH
GR .gAPI                  : GR
NPHI .m3/m3               : NPHI
RHOB .g/cm3               : RHOB
RM .ohm.m                 : RM
RT .ohm.m                 : RT
FACIES ._                 : FACIES
~Parameter
#==================================================================
~Ascii
# ...
 747.78104952 73.410003662 0.5500000119 2.1968998909 0.8000000119 0.8000000119  -999.250000
 747.82676952 70.629997253 0.5600000024 2.1960000992 0.8000000119 0.8000000119  -999.250000
 747.87248952 74.069999695 0.6100000143 2.1911001205 0.8000000119 0.8000000119  -999.250000
 747.91820952 80.800003052 0.5800000429 2.1896998882 0.8000000119 0.8000000119  -999.250000
 747.96392952 78.900001526 0.5000000000 2.1865000725 0.8000000119 0.8000000119  -999.250000
 748.00964952 74.760002136 0.4900000095 2.1740000248 0.8000000119 0.8000000119  -999.250000
 748.05536952 73.290000916 0.5300000310 2.1747000217 0.8000000119 0.8000000119  -999.250000
 748.10108952 71.470001221 0.5400000215 2.1712000370 0.8000000119 0.8000000119  -999.250000
 748.14680952 69.110000610 0.5500000119 2.1719999313 0.8000000119 0.8000000119  -999.250000
 748.19252952 71.500000000 0.5099999905 2.1803998947 0.8000000119 0.8000000119  -999.250000
 748.23824952 75.239997864 0.5099999905 2.1854999065 0.6999999881 0.8000000119  -999.250000
 748.28396952 72.919998169 0.5500000119 2.1933000088 0.6999999881 0.8000000119  -999.250000
 748.32968952 70.430000305 0.5400000215 2.2001001835 0.6999999881 0.8000000119  -999.250000
 748.37540952 72.720001221 0.5400000215 2.1858000755 0.6999999881 0.8000000119  -999.250000
 748.42112952 70.860000610 0.5800000429 2.1877999306 0.6999999881 0.8000000119  -999.250000
 748.46684952 68.580001831 0.5000000000 2.2031002045 0.6999999881 0.6999999881  -999.250000
 748.51256952 69.480003357 0.4800000191 2.2171001434 0.6999999881 0.6999999881  -999.250000
 748.55828952 73.410003662 0.5500000119 2.2190001011 0.6999999881 0.6999999881  -999.250000
 748.60400952 74.730003357 0.5699999928 2.2211000919 0.6999999881 0.6999999881  -999.250000
 748.64972952 72.639999390 0.5800000429 2.2211000919 0.6999999881 0.6999999881  -999.250000
 748.69544952 65.209999084 0.5800000429 2.2084000111 0.6999999881 0.6999999881  -999.250000
 748.74116952 65.699996948 0.5600000024 2.1871001720 0.6999999881 0.6999999881  -999.250000
 748.78688952 71.449996948 0.5099999905 2.1711001396 0.6999999881 0.6999999881  -999.250000
 748.83260952 72.129997253 0.5099999905 2.1571998596 0.6999999881 0.6999999881  -999.250000
 748.87832952 70.809997559 0.5400000215 2.1412999630 0.6999999881 0.6999999881  -999.250000
 748.92404952 66.339996338 0.5099999905 2.1378998756 0.6999999881 0.6999999881  -999.250000
 748.96976952 62.799999237 0.4800000191 2.1476998329 0.6999999881 0.6999999881  -999.250000
 749.01548952 65.150001526 0.5000000000 2.1728000641 0.6999999881 0.6999999881  -999.250000
 749.06120952 67.639999390 0.5199999809 2.1976001263 0.6999999881 0.6999999881  -999.250000
 749.10692952 69.760002136 0.5099999905 2.2039999962 0.6999999881 0.6999999881  -999.250000
 749.15264952 71.389999390 0.4800000191 2.2056999207 0.6999999881 0.6999999881  -999.250000
 749.19836952 71.430000305 0.4699999690 2.1916999817 0.6999999881 0.8000000119  -999.250000
 749.24408952 69.430000305 0.4900000095 2.1775000095 0.6999999881 0.8000000119  -999.250000
 749.28980952 70.599998474 0.4599999785 2.1731998920 0.8000000119 0.8000000119  -999.250000
 749.33552952 71.879997253 0.4499999881 2.1851000786 0.8000000119 0.8000000119  -999.250000
 749.38124952 67.919998169 0.4499999881 2.1984000206 0.8000000119 0.8000000119  -999.250000
 749.42696952 65.389999390 0.4399999976 2.2019000053 0.8000000119 0.8000000119  -999.250000
 749.47268952 65.080001831 0.4300000072 2.1967999935 0.8000000119 0.8000000119  -999.250000
 749.51840952  -999.250000  -999.250000  -999.250000  -999.250000  -999.250000  -999.250000
 749.56412952 63.189998627 0.4199999869 2.1940000057 0.8000000119 0.8000000119  -999.250000
 749.60984952 59.169998169 0.4699999690 2.1935000420 0.8000000119 0.8000000119  -999.250000
 749.65556952 59.310001373 0.5199999809 2.2033998966 0.8000000119 0.8000000119  -999.250000
 749.70128952 67.389999390 0.5099999905 2.2141001225 0.8000000119 0.8000000119  -999.250000
 749.74700952 67.449996948 0.4900000095 2.1991999149 0.6999999881 0.6999999881  -999.250000
 749.79272952 65.500000000 0.5000000000 2.1736998558 0.6999999881 0.6999999881  -999.250000
 749.83844952 64.480003357 0.5000000000 2.1588997841 0.6999999881 0.6999999881  -999.250000
 749.88416952 63.000000000 0.5000000000 2.1541001797 0.6999999881 0.6999999881  -999.250000
 749.92988952 64.769996643 0.5300000310 2.1676001549 0.6999999881 0.6999999881  -999.250000
 749.97560952 67.139999390 0.4800000191 2.1921999454 0.6999999881 0.8000000119  -999.250000
 750.02132952 64.959999084 0.4599999785 2.1878998280 0.8000000119 0.8000000119  -999.250000
 750.06704952 62.069999695 0.5199999809 2.1786999702 0.8000000119 0.8000000119  -999.250000
 750.11276952 68.040000916 0.5400000215 2.1881000996 0.8000000119 0.8000000119  -999.250000
 750.15848952 69.910003662 0.5300000310 2.1876001358 0.8000000119 0.8000000119  -999.250000
 750.20420952 66.870002747 0.5199999809 2.1872000694 0.8000000119 0.8000000119  -999.250000
 750.24992952 64.720001221 0.4800000191 2.1998999119 0.8000000119 0.8000000119  -999.250000
 750.29564952 68.879997253 0.4699999690 2.2063000202 0.8000000119 0.8000000119  -999.250000
 750.34136952 73.910003662 0.4800000191 2.1991000175 0.8000000119 0.8000000119  -999.250000
 750.38708952 72.370002747 0.4599999785 2.2118999958 0.6999999881 0.8000000119  -999.250000
 750.43280952 68.480003357 0.4599999785 2.2146000862 0.6999999881 0.8000000119  -999.250000
 750.47852952 72.050003052 0.5000000000 2.1974999905 0.6999999881 0.8000000119  -999.250000
 750.52424952 73.919998169 0.5000000000 2.1970000267 0.6999999881 0.8000000119  -999.250000
 750.56996952 69.029998779 0.5199999809 2.1946001053 0.6999999881 0.8000000119  -999.250000
 750.61568952 69.510002136 0.5199999809 2.1775000095 0.6999999881 0.8000000119  -999.250000
 750.66140952 65.940002441 0.5300000310 2.1771998405 0.6999999881 0.8000000119  -999.250000
 750.70712952 68.050003052 0.5300000310 2.1919999123 0.8000000119 0.8000000119  -999.250000
 750.75284952 72.809997559 0.5099999905 2.2090001106 0.8000000119 0.8000000119  -999.250000
 750.79856952 72.230003357 0.5099999905 2.2155001163 0.8000000119 0.8000000119  -999.250000
 750.84428952 73.550003052 0.5000000000 2.2251999378 0.8000000119 0.8000000119  -999.250000
 750.89000952 71.160003662 0.4800000191 2.2054998875 0.8000000119 0.8000000119  -999.250000
 750.93572952 68.629997253 0.4699999690 2.1935000420 0.8000000119 0.8000000119  -999.250000
 750.98144952 70.250000000 0.4499999881 2.2101998329 0.8000000119 0.8000000119  -999.250000
 751.02716952 72.540000916 0.4499999881 2.2268998623 0.8000000119 0.8000000119  -999.250000
 751.07288952 72.989997864 0.5099999905 2.2214999199 0.8000000119 0.8000000119  -999.250000
 751.11860952 72.260002136 0.6000000238 2.2096002102 0.8000000119 0.8000000119  -999.250000
 751.16432952 71.129997253 0.6299999952 2.1713998318 0.8000000119 0.8000000119  -999.250000
 751.21004952 68.760002136 0.5600000024 2.1533000469 0.8000000119 0.8000000119  -999.250000
 751.25576952 68.230003357 0.4800000191 2.1547000408 0.8000000119 0.8000000119  -999.250000
 751.30148952 69.169998169 0.4699999690 2.1559998989 0.8000000119 0.8000000119  -999.250000
 751.34720952 69.849998474 0.5199999809 2.1751999855 0.8000000119 0.8000000119  -999.250000
 751.39292952 71.769996643 0.4900000095 2.2084000111 0.8000000119 0.8000000119  -999.250000
 751.43864952 75.980003357 0.4699999690 2.2158999443 0.8000000119 0.8000000119  -999.250000
 751.48436952 75.809997559 0.4800000191 2.2086999416 0.8000000119 0.8000000119  -999.250000
 751.53008952 71.900001526 0.4900000095 2.2160000801 0.8000000119 0.8000000119  -999.250000
 751.57580952 73.059997559 0.4800000191 2.2226998806 0.8000000119 0.8000000119  -999.250000
 751.62152952 68.559997559 0.5000000000 2.2368998528 0.8000000119 0.8000000119  -999.250000
 751.66724952 63.939998627 0.5199999809 2.2546999454 0.8000000119 0.8000000119  -999.250000
 751.71296952 63.810001373 0.5099999905 2.3223998547 0.8000000119 0.8000000119  -999.250000
