# LAS format log file from PETREL
# Project units are specified as depth units
#==================================================================
~Version information
VERS.   2.0:
WRAP.   NO:
#==================================================================
~Well
STRT .m      189.89040000 :
STOP .m      3795.0648000 :
STEP .m     0.15240000 :
NULL .        -999.250000 :
COMP.           : COMPANY
WELL.  15_9-F-5   : WELL
FLD.            : FIELD
LOC.            : LOCATION
SRVC.           : SERVICE COMPANY
DATE.  2020-08-19 21:46:58   : Log Export Date {yyyy-MM-dd HH:mm:ss}
PROV.           : PROVINCE
UWI.   15_9-F-5   : UNIQUE WELL ID
API.            : API NUMBER
#==================================================================
~Curve
DEPT .m                   : DEPTH
RHOB .g/cm3               : RHOB
GR .gAPI                  : GR
RT .ohm.m                 : RT
NPHI .m3/m3               : NPHI
RM .ohm.m                 : RM
FACIES ._                 : FACIES
~Parameter
#==================================================================
~Ascii
# ...
 3199.6380000 2.5461049080 19.996929169 5.4909877777 0.1073452011 5.1872539520  -999.250000
 3199.7904000 2.5465400219 23.664899826 5.1792469025 0.1202075928 5.1086912155  -999.250000
 3199.9428000 2.5568668842 29.806129456 5.4129981995 0.1293724030 5.1346998215  -999.250000
 3200.0952000 2.5618033409 33.315589905 5.4880280495 0.1138843000 5.4104728699  -999.250000
 3200.2476000 2.5682129860 31.022680283 5.1969962120 0.0977124274 5.1241269112  -999.250000
 3200.4000000 2.5681979656 24.743219376 5.0077209473 0.0994981974 4.9677801132  -999.250000
 3200.5524000 2.5772030354 20.342750549 5.0702219009 0.0998338908 4.9022798538  -999.250000
 3200.7048000 2.5771770477 16.607749939 5.0452489853 0.0929371193 4.9229788780  -999.250000
 3200.8572000 2.5740170479 14.797849655 5.0116429329 0.0890027881 4.9814820290  -999.250000
 3201.0096000 2.5631539822 12.106140137 5.0035910606 0.0924561769 5.0085377693  -999.250000
 3201.1620000 2.5583059788 12.154040337 5.1487331390 0.0943536460 5.0680351257  -999.250000
 3201.3144000 2.5553419590 12.152009964 5.1805138588 0.0992655456 5.0550689697  -999.250000
 3201.4668000 2.5573699474 12.575779915 5.2212080956 0.0968566984 5.0601921082  -999.250000
 3201.6192000 2.5586359501 13.533929825 5.2270979881 0.0966852158 5.0614461899  -999.250000
 3201.7716000 2.5658190250 15.159179688 5.2228751183 0.1011804044 5.0897607803  -999.250000
 3201.9240000 2.5652949810 17.684110641 5.4176678658 0.0993492231 5.1578860283  -999.250000
 3202.0764000 2.5670690536 19.445159912 5.5269279480 0.0996123254 5.3092608452  -999.250000
 3202.2288000 2.5650589466 21.577720642 5.5281119347 0.1094506010 5.3313522339  -999.250000
 3202.3812000 2.5620470047 24.986179352 5.6758489609 0.1225362048 5.4803938866  -999.250000
 3202.5336000 2.5638360977 27.816659927 6.0800609589  -999.250000 5.8798351288  -999.250000
 3202.6860000 2.5655388832 28.516649246 5.8793659210  -999.250000 5.9625511169  -999.250000
 3202.8384000 2.5725309849 24.925369263 5.2494277954  -999.250000 5.1297011375  -999.250000
 3202.9908000 2.5745689869 20.226940155 5.2494277954  -999.250000 5.1297011375  -999.250000
 3203.1432000 2.5767269135 16.806940079 5.2494277954  -999.250000 5.1297011375  -999.250000
 3203.2956000 2.5781760216 15.102640152 5.2494277954  -999.250000 5.1297011375  -999.250000
 3203.4480000 2.5727570057 14.956520081 5.2494277954 0.0866697580 5.1297011375  -999.250000
 3203.6004000 2.5722260475 14.660019875 5.8833231926 0.0884464681 6.1213660240  -999.250000
 3203.7528000 2.5767838955 15.450420380 5.8608231544 0.0872124135 6.0915470123  -999.250000
 3203.9052000 2.5866971016 15.940159798 5.8598279953 0.0883223265 6.0851159096  -999.250000
 3204.0576000 2.5870239735 16.598680496 5.8080091476 0.0878598616 5.9235248566  -999.250000
 3204.2100000 2.5874140263 17.441389084 5.7812237740 0.0854022875 5.8054471016  -999.250000
 3204.3624000 2.5889980793 18.467519760 5.6524329185 0.0870053768 5.5710639954  -999.250000
 3204.5148000 2.5921700001 19.562860489 5.4732508659 0.0871868581 5.4113440514  -999.250000
 3204.6672000 2.5721077919 18.826789856 5.3708782196 0.0941420943 5.1431770325  -999.250000
 3204.8196000 2.5791680813 15.290410042 5.2767810822 0.0997669697 5.0529332161  -999.250000
 3204.9720000 2.5779058933 11.267970085 4.9947109222 0.1014021933 4.8149509430  -999.250000
 3205.1244000 2.5786149502 8.6174926758 4.8548350334 0.0963463038 4.6532030106  -999.250000
 3205.2768000 2.5994648933 7.9714498520 4.8185291290 0.1074271947 4.4401631355  -999.250000
 3205.4292000 2.5694949627 9.0621385574 4.5964241028 0.0936491489 4.3541488647  -999.250000
 3205.5816000 2.5693800449 9.4685373306 4.4104118347 0.0960189253 4.2812919617  -999.250000
 3205.7340000 2.5727999210 10.708160400 4.2102828026 0.0957115069 4.2413449287  -999.250000
 3205.8864000 2.5888910294 10.866789818 4.2305650711 0.1011791974 4.2530498505  -999.250000
 3206.0388000 2.6080000401 11.479229927 4.1959481239 0.1106776968 4.2035708427  -999.250000
 3206.1912000 2.6221559048 11.479229927 4.0640377998 0.0778236836 4.1223688126  -999.250000
 3206.3436000 2.6201040745 11.479229927 4.0770068169 0.0766126513 4.1136369705  -999.250000
 3206.4960000 2.6071159840 19.659940720 3.6180949211 0.0958458483 3.4968760014  -999.250000
 3206.6484000 2.5904860497 28.257059097 3.4677700996 0.1220977008 3.4070870876  -999.250000
 3206.8008000 2.5839180946 35.566410065 3.4264540672 0.1272027045 3.4535360336  -999.250000
 3206.9532000 2.5869569778 34.723201752 2.9752500057 0.1369915903 2.9200189114  -999.250000
 3207.1056000 2.5816071033 33.202220917 3.2175331116 0.1448462009 2.8877899647  -999.250000
 3207.2580000 2.5934898853 31.122009277 3.0385038853 0.1488078088 2.9142949581  -999.250000
 3207.4104000 2.5947940350 28.703670502 3.2511219978 0.1277734041 3.2562520504  -999.250000
 3207.5628000 2.6157920361 27.342269897 2.8991088867 0.1229640990 2.7720589638  -999.250000
 3207.7152000 2.6152501106 27.432300568 2.9419379234 0.1223779023 2.9349451065  -999.250000
 3207.8676000 2.6306290627 28.285820007 3.0187599659 0.1047364026 3.0715310574  -999.250000
 3208.0200000 2.6343169212 29.291500092 3.1075439453 0.0932274908 3.1275110245  -999.250000
 3208.1724000 2.6400380135 30.659870148 3.0296220779 0.0951741859 3.1674120426  -999.250000
 3208.3248000 2.6340539455 31.386100769 3.1758639812 0.1001368985 3.2580680847  -999.250000
 3208.4772000 2.6281490326 31.753219604 3.1886799335 0.1038022041 3.2711250782  -999.250000
 3208.6296000 2.6117010117 34.611759186 3.1100029945 0.1052176952 3.2761859894  -999.250000
 3208.7820000 2.5997691154 35.349018097 3.0814950466 0.1118035018 3.1187980175  -999.250000
 3208.9344000 2.5867440701 34.315490723 3.0649850368 0.1221712977 3.0684890747  -999.250000
 3209.0868000 2.5826079845 31.609050751 3.0186820030 0.1193955988 2.9867930412  -999.250000
 3209.2392000 2.5824561119 29.633480072 2.9375970364 0.1146759018 2.8643310070  -999.250000
 3209.3916000 2.5868430138 28.486829758 2.8713829517 0.1063735038 2.7871830463  -999.250000
 3209.5440000 2.5859169960 27.785289764 2.8298509121 0.1019375026 2.7743630409  -999.250000
 3209.6964000 2.5845999718 29.947679520 2.8735480309 0.1180908009 2.7847208977  -999.250000
 3209.8488000 2.5839860439 32.835220337 2.8172008991 0.1285205036 2.7443120480  -999.250000
 3210.0012000 2.5877499580 34.765121460 2.8765408993 0.1237358004 2.8595480919  -999.250000
 3210.1536000 2.5823400021 34.520950317 2.9312820435 0.1171485037 2.9259068966  -999.250000
 3210.3060000 2.5828220844 31.178749084 2.9749228954 0.1079796031 2.9386739731  -999.250000
 3210.4584000 2.5834450722 27.482360840 2.9735300541 0.0973948836 2.9542949200  -999.250000
 3210.6108000 2.5936601162 22.909799576 3.0222349167 0.0970942080 3.0012540817  -999.250000
 3210.7632000 2.5934019089 22.233940125 3.1200029850 0.0945170298 3.1207799911  -999.250000
 3210.9156000 2.5943620205 21.446119308 3.2077898979 0.0961821303 3.1311750412  -999.250000
 3211.0680000 2.5922029018 23.339920044 3.1955680847 0.1040289029 3.2328000069  -999.250000
 3211.2204000 2.5889990330 25.677759171 3.1777648926 0.1051212996 3.3129670620  -999.250000
 3211.3728000 2.5898630619 27.934410095 3.3364250660 0.1162615046 3.3166480064  -999.250000
 3211.5252000 2.5897750854 30.196889877 3.5025830269 0.1112876981 3.3414039612  -999.250000
 3211.6776000 2.6018910408 30.050970078 3.4593629837 0.1070595011 3.3806509972  -999.250000
 3211.8300000 2.6036579609 29.129409790 3.2613019943 0.1020563990 3.2120931149  -999.250000
 3211.9824000 2.5974600315 27.926490784 3.1993610859 0.1084146947 3.1558790207  -999.250000
 3212.1348000 2.5849480629 29.126689911 3.4467260838 0.1136252955 3.1643009186  -999.250000
 3212.2872000 2.5757510662 32.965530396 3.3546690941 0.1231923029 3.2079570293  -999.250000
 3212.4396000 2.5775690079 35.689041138 3.1785368919 0.1296928972 3.1700549126  -999.250000
 3212.5920000 2.5790920258 37.350109100 2.9529540539 0.1312135011 2.9416689873  -999.250000
 3212.7444000 2.5837390423 36.140701294 2.9947159290 0.1297965944 2.8974790573  -999.250000
