# LAS format log file from PETREL
# Project units are specified as depth units
#==================================================================
~Version information
VERS.   2.0:
WRAP.   NO:
#==================================================================
~Well
STRT .m      -0.015270480 :
STOP .m      1245.8090095 :
STEP .m     0.04572000 :
NULL .        -999.250000 :
COMP.           : COMPANY
WELL.  15_9-19 A   : WELL
FLD.            : FIELD
LOC.            : LOCATION
SRVC.           : SERVICE COMPANY
DATE.  2020-08-19 21:46:58   : Log Export Date {yyyy-MM-dd HH:mm:ss}
PROV.           : PROVINCE
UWI.   15_9-19 A   : UNIQUE WELL ID
API.            : API NUMBER
#==================================================================
~Curve
DEPT .m                   : DEPTH
GR .gAPI                  : GR
NPHI .m3/m3               : NPHI
RHOB .g/cm3               : RHOB
RM .ohm.m                 : RM
RT .ohm.m                 : RT
FACIES ._                 : FACIES
~Parameter
#==================================================================
~Ascii
# ...
 1165.4332495 28.139999390 0.1700000018 2.4272999763 17.899999619 20.899999619  -999.250000
 1165.4789695 28.059999466 0.1700000018 2.3581998348 15.600000381 15.800000191  -999.250000
 1165.5246895 27.440000534 0.1700000018 2.3887000084 13.399999619 12.899999619  -999.250000
 1165.5704095 26.180000305 0.1799999923 2.3901998997 13.199999809 12.800000191  -999.250000
 1165.6161295 25.659999847 0.1899999976 2.4336001873 14.300000191 14.800000191  -999.250000
 1165.6618495 25.420000076 0.1700000018 2.4449999332 16.000000000 17.899999619  -999.250000
 1165.7075695 25.590000153 0.1700000018 2.4151000977 16.399999619 19.299999237  -999.250000
 1165.7532895 27.520000458 0.1700000018 2.4189000130 15.199999809 17.899999619  -999.250000
 1165.7990095 28.899999619 0.1700000018 2.4018998146 13.699999809 15.800000191  -999.250000
 1165.8447295 28.030000687 0.1899999976 2.3982000351 13.000000000 14.699999809  -999.250000
 1165.8904495 27.670000076 0.1799999923 2.4140000343 13.300000191 15.000000000  -999.250000
 1165.9361695 27.920000076 0.1700000018 2.3910000324 14.199999809 16.000000000  -999.250000
 1165.9818895 27.049999237 0.1700000018 2.3743000031 15.000000000 17.200000763  -999.250000
 1166.0276095 26.120000839 0.1700000018 2.3641998768 15.500000000 18.100000381  -999.250000
 1166.0733295 25.469999313 0.1700000018 2.3659999371 16.100000381 19.200000763  -999.250000
 1166.1190495 23.829999924 0.1700000018 2.3610000610 17.000000000 20.799999237  -999.250000
 1166.1647695 23.219999313 0.1899999976 2.3183999062 17.100000381 20.799999237  -999.250000
 1166.2104895 23.170000076 0.1799999923 2.3118999004 16.299999237 19.000000000  -999.250000
 1166.2562095 23.899999619 0.1899999976 2.3071999550 15.899999619 17.700000763  -999.250000
 1166.3019295 24.989999771 0.2099999934 2.3231999874 15.699999809 16.899999619  -999.250000
 1166.3476495 25.829999924 0.2099999934 2.3050000668 14.699999809 15.699999809  -999.250000
 1166.3933695 24.879999161 0.1899999976 2.2926001549 13.600000381 14.800000191  -999.250000
 1166.4390895 23.690000534 0.1899999976 2.2927999496 13.399999619 15.000000000  -999.250000
 1166.4848095 22.899999619 0.1899999976 2.3317999840 14.899999619 16.600000381  -999.250000
 1166.5305295 22.850000381 0.1899999976 2.3448998928 17.700000763 17.799999237  -999.250000
 1166.5762495 22.840000153 0.1799999923 2.3080000877 17.899999619 15.000000000  -999.250000
 1166.6219695 22.100000381 0.1899999976 2.2821998596 14.600000381 11.100000381  -999.250000
 1166.6676895 22.170000076 0.2000000030 2.2491998672 13.500000000 10.300000191  -999.250000
 1166.7134095 22.780000687 0.1899999976 2.2186999321 16.200000763 13.199999809  -999.250000
 1166.7591295 23.040000916 0.1899999976 2.2231001854 21.899999619 20.399999619  -999.250000
 1166.8048495 22.170000076 0.2000000030 2.2253999710 33.200000763 38.400001526  -999.250000
 1166.8505695 21.950000763 0.1899999976 2.2193999290 50.700000763 69.800003052  -999.250000
 1166.8962895 21.590000153 0.1899999976 2.2141001225 56.000000000 73.199996948  -999.250000
 1166.9420095 19.969999313 0.1899999976 2.2051000595 110.19999695 2456.0000000  -999.250000
 1166.9877295 19.120000839 0.1899999976 2.1878998280 7695.3999023 10000.000000  -999.250000
 1167.0334495 18.979999542 0.1899999976 2.2023000717 7638.7001953 10000.000000  -999.250000
 1167.0791695 19.639999390 0.1899999976 2.3085000515 31.899999619 2376.8000488  -999.250000
 1167.1248895 20.620000839 0.2500000000 2.2660000324 8.6999998093 9.0000000000  -999.250000
 1167.1706095 20.069999695 0.2599999905 2.2848999500 4.9000000954 4.5999999046  -999.250000
 1167.2163295 20.450000763 0.1899999976 2.3231000900 5.0000000000 4.5000000000  -999.250000
 1167.2620495 20.729999542 0.1799999923 2.2783999443 15.800000191 12.399999619  -999.250000
 1167.3077695 19.889999390 0.1599999964 2.3589999676 7646.3999023 7644.0000000  -999.250000
 1167.3534895 18.690000534 0.1700000018 2.3594999313 7654.1000977 7746.6000977  -999.250000
 1167.3992095 16.120000839 0.1599999964 2.4318001270 52.700000763 163.19999695  -999.250000
 1167.4449295 15.850000381 0.1500000060 2.5056998730 32.099998474 48.700000763  -999.250000
 1167.4906495 16.670000076 0.1500000060 2.5048999786 28.899999619 37.299999237  -999.250000
 1167.5363695 16.329999924 0.1400000006 2.4123001099 29.500000000 33.500000000  -999.250000
 1167.5820895  -999.250000  -999.250000  -999.250000  -999.250000  -999.250000  -999.250000
 1167.6278095 16.530000687 0.1500000060 2.4242999554 55.000000000 63.599998474  -999.250000
 1167.6735295 17.069999695 0.1700000018 2.3923001289 96.199996948 104.19999695  -999.250000
 1167.7192495 17.870000839 0.1500000060 2.1872000694 45.500000000 40.799999237  -999.250000
 1167.7649695 19.110000610 0.2099999934 2.2983000278 20.600000381 17.799999237  -999.250000
 1167.8106895 19.219999313 0.2199999988 2.2179999352 20.100000381 16.799999237  -999.250000
 1167.8564095 19.000000000 0.2099999934 2.2088000774 42.299999237 31.399999619  -999.250000
 1167.9021295 19.870000839 0.1700000018 2.2181999683 91.000000000 62.599998474  -999.250000
 1167.9478495 21.659999847 0.1700000018 2.2149000168 59.299999237 50.700000763  -999.250000
 1167.9935695 23.879999161 0.1700000018 2.2421998978 33.900001526 33.500000000  -999.250000
 1168.0392895 25.549999237 0.1899999976 2.2204999924 30.100000381 31.500000000  -999.250000
 1168.0850095 27.180000305 0.2000000030 2.2138998508 33.400001526 36.900001526  -999.250000
 1168.1307295 29.659999847 0.2000000030 2.2041001320 36.700000763 42.700000763  -999.250000
 1168.1764495 31.260000229 0.2199999988 2.1854999065 35.099998474 39.599998474  -999.250000
 1168.2221695 30.170000076 0.2199999988 2.1511001587 33.400001526 32.000000000  -999.250000
 1168.2678895 27.819999695 0.2299999893 2.1736998558 32.000000000 24.200000763  -999.250000
 1168.3136095 25.110000610 0.2299999893 2.1521999836 29.399999619 18.600000381  -999.250000
 1168.3593295 22.870000839 0.2199999988 2.1672999859 30.700000763 17.600000381  -999.250000
 1168.4050495 22.590000153 0.2400000095 2.1611001492 29.799999237 18.000000000  -999.250000
 1168.4507695 22.690000534 0.2199999988 2.1942999363 23.100000381 16.700000763  -999.250000
 1168.4964895 23.040000916 0.2099999934 2.1706001759 18.899999619 14.899999619  -999.250000
 1168.5422095 24.049999237 0.2299999893 2.1742999554 14.600000381 11.800000191  -999.250000
 1168.5879295 24.549999237 0.2199999988 2.1913998127 12.300000191 10.000000000  -999.250000
 1168.6336495 24.600000381 0.2400000095 2.1893999577 17.299999237 14.000000000  -999.250000
 1168.6793695 24.739999771 0.2400000095 2.1806001663 46.200000763 43.200000763  -999.250000
 1168.7250895 25.049999237 0.2400000095 2.1751999855 111.50000000 2703.5000000  -999.250000
 1168.7708095 25.799999237 0.2299999893 2.1607999802 110.09999847 10000.000000  -999.250000
 1168.8165295 26.780000687 0.2400000095 2.1573998928 49.700000763 7662.2001953  -999.250000
 1168.8622495 27.659999847 0.2299999893 2.1670000553 25.399999619 115.40000153  -999.250000
 1168.9079695 28.750000000 0.2400000095 2.1884999275 26.100000381 64.599998474  -999.250000
 1168.9536895 30.129999161 0.2299999893 2.1806001663 84.300003052 70.300003052  -999.250000
 1168.9994095 31.690000534 0.2299999893 2.1723001003 5544.5000000 49.700000763  -999.250000
 1169.0451295 32.409999847 0.2299999893 2.1793000698 252.50000000 18.500000000  -999.250000
 1169.0908495 33.240001678 0.2299999893 2.2193000317 10.000000000 7.9000000954  -999.250000
 1169.1365695 36.970001221 0.2199999988 2.2866001129 7.1999998093 7.5000000000  -999.250000
 1169.1822895 41.189998627 0.2299999893 2.3322000504 12.300000191 16.299999237  -999.250000
 1169.2280095 45.500000000 0.2099999934 2.4623000622 14.199999809 16.200000763  -999.250000
 1169.2737295 48.560001373 0.2099999934 2.5789999962 6.0999999046 5.4000000954  -999.250000
 1169.3194495 42.720001221 0.1799999923 2.6040999889 3.2000000477 2.7999999523  -999.250000
 1169.3651695 31.350000381 0.1799999923 2.5563001633 3.4000000954 3.2000000477  -999.250000
