# LAS format log file from PETREL
# Project units are specified as depth units
#==================================================================
~Version information
VERS.   2.0:
WRAP.   NO:
#==================================================================
~Well
STRT .m      175.86960000 :
STOP .m      5330.3424000 :
STEP .m     0.15240000 :
NULL .        -999.250000 :
COMP.           : COMPANY
WELL.  15_9-F-10   : WELL
FLD.            : FIELD
LOC.            : LOCATION
SRVC.           : SERVICE COMPANY
DATE.  2020-08-19 21:46:58   : Log Export Date {yyyy-MM-dd HH:mm:ss}
PROV.           : PROVINCE
UWI.   15_9-F-10   : UNIQUE WELL ID
API.            : API NUMBER
#==================================================================
~Curve
DEPT .m                   : DEPTH
RHOB .g/cm3               : RHOB
RT .ohm.m                 : RT
GR .gAPI                  : GR
NPHI .m3/m3               : NPHI
RM .ohm.m                 : RM
FACIES ._                 : FACIES
~Parameter
#==================================================================
~Ascii
# ...
 5187.6960000 2.4887409210 2.2337830067 129.59310913 0.3172440827 2.1588628292  -999.250000
 5187.8484000 2.4830870628 2.1940929890 131.65394592 0.3189874887 2.1475865841  -999.250000
 5188.0008000 2.4794228077 2.2052183151 132.17474365 0.3310081661 2.1308124065  -999.250000
 5188.1532000 2.4689755440 2.1574022770 130.71369934 0.3390946090 2.0871169567  -999.250000
 5188.3056000 2.4663767815 1.9948353767 131.46409607 0.3348806798 2.0027790070  -999.250000
 5188.4580000 2.4614877701 2.1316952705 129.19386292 0.3167386949 2.0508210659  -999.250000
 5188.6104000 2.4773194790 2.1573753357 125.50583649 0.3134587407 2.0512175560  -999.250000
 5188.7628000 2.4963769913 2.0579798222 124.01613617 0.2569240034 1.9490551949  -999.250000
 5188.9152000 2.5175449848 1.9905112982 124.41408539 0.2607258260 1.9465304613  -999.250000
 5189.0676000 2.5217890739 2.1251711845 127.07720947 0.2765329778 1.9936769009  -999.250000
 5189.2200000 2.5296258926 2.1171672344 125.60745239 0.2770212293 2.0613918304  -999.250000
 5189.3724000 2.5409140587 1.9958407879 122.98626709 0.2696984708 1.9621201754  -999.250000
 5189.5248000 2.5526454449 2.1603727341 120.60820007 0.2479588240 2.0231499672  -999.250000
 5189.6772000 2.5423367023 2.2220878601 122.55998230 0.2622806430 2.0891587734  -999.250000
 5189.8296000 2.5174038410 2.0200984478 126.24900818 0.3024361432 2.0120813847  -999.250000
 5189.9820000 2.4985001087 2.1156642437 132.07397461 0.2743317783 2.0678365231  -999.250000
 5190.1344000 2.4881360531 2.1870632172 132.68428040 0.2968044579 2.0402095318  -999.250000
 5190.2868000 2.4948599339 2.1572964191 133.21809387 0.2979116440 2.0721719265  -999.250000
 5190.4392000 2.4985392094 2.1699459553 130.84736633 0.2915610671 2.0546147823  -999.250000
 5190.5916000 2.5047292709 2.0352630615 131.89611816 0.2779228091 2.0618054867  -999.250000
 5190.7440000 2.5028080940 1.9574233294 132.66644287 0.3206422031 1.9835460186  -999.250000
 5190.8964000 2.4990191460 2.0279636383 133.61758423 0.3263344169 2.0553870201  -999.250000
 5191.0488000 2.4903950691 2.1664109230 132.98381042 0.3002763093 2.0716617107  -999.250000
 5191.2012000 2.4887459278 2.2525808811 132.01998901 0.3394158483 2.1082820892  -999.250000
 5191.3536000 2.4949774742 2.1613194942 131.52751160 0.3060647249 2.0695896149  -999.250000
 5191.5060000 2.4929473400 2.1767766476 133.34323120 0.3219908476 2.1353228092  -999.250000
 5191.6584000 2.4958693981 2.1297137737 133.20771790 0.2903580666 2.0370573997  -999.250000
 5191.8108000 2.4895226955 2.0673022270 132.46217346 0.3091787398 2.0956981182  -999.250000
 5191.9632000 2.4913618565 2.2275686264 129.06060791 0.3145843744 2.1848673820  -999.250000
 5192.1156000 2.4844284058 2.2431931496 129.67115784 0.3056881130 2.2631485462  -999.250000
 5192.2680000 2.4828438759 2.3076121807 132.75198364 0.2959259152 2.2523546219  -999.250000
 5192.4204000 2.4813091755 2.3795061111 135.14392090 0.3096471429 2.3275330067  -999.250000
 5192.5728000 2.4799277782 2.4729304314 135.01985168 0.3056374490 2.3525996208  -999.250000
 5192.7252000 2.4787817001 2.5473480225 133.00920105 0.3031660318 2.3877847195  -999.250000
 5192.8776000 2.4825325012 2.5196626186 130.93281555 0.3097115159 2.4212954044  -999.250000
 5193.0300000 2.4933025837 2.4701826572 129.79985046 0.2983202934 2.4559841156  -999.250000
 5193.1824000 2.5044033527 2.4689133167 128.77458191 0.2946145833 2.4503962994  -999.250000
 5193.3348000 2.5124120712 2.5341651440 129.01545715 0.3042676747 2.5312914848  -999.250000
 5193.4872000 2.5143971443 2.6064100266 126.91275024 0.2982509136 2.5331139565  -999.250000
 5193.6396000 2.5159537792 2.6171877384 124.23168182 0.3198270798 2.5289857388  -999.250000
 5193.7920000 2.5249454975 2.6024007797 118.84143066 0.3086679876 2.5795614719  -999.250000
 5193.9444000 2.5316059589 2.6330761909 114.88066101 0.2870331407 2.5011703968  -999.250000
 5194.0968000 2.5336723328 2.5423920155 112.64875031 0.3027373850 2.4423069954  -999.250000
 5194.2492000 2.5270223618 2.5838401318 115.53097534 0.2870923877 2.5408945084  -999.250000
 5194.4016000 2.5129492283 2.5191190243 119.70970917 0.3125220835 2.4797000885  -999.250000
 5194.5540000 2.5007891655 2.4759790897 125.47429657 0.3330514431 2.4395325184  -999.250000
 5194.7064000 2.4902353287 2.4122524261 128.67355347 0.3366522789 2.4800324440  -999.250000
 5194.8588000 2.5001547337 2.4580919743 129.33203125 0.3088602126 2.4124348164  -999.250000
 5195.0112000 2.5027396679 2.4091732502 127.32263947 0.3285980225 2.4096615314  -999.250000
 5195.1636000 2.5080425739 2.5025839806 124.03401947 0.2969332933 2.4740378857  -999.250000
 5195.3160000 2.4980189800 2.4001374245 120.89462280 0.3045420945 2.4131238461  -999.250000
 5195.4684000 2.5009016991 2.4839375019 118.41224670 0.3137795627 2.4598653316  -999.250000
 5195.6208000 2.5147798061 2.5757267475 117.17226410 0.2921405733 2.5176725388  -999.250000
 5195.7732000 2.5298783779 2.6306872368 117.93164825 0.2725884616 2.5429511070  -999.250000
 5195.9256000 2.5309097767 2.6151809692 117.97918701 0.2815673649 2.5779666901  -999.250000
 5196.0780000 2.5118947029 2.5315811634 118.30168915 0.2958893180 2.5266797543  -999.250000
 5196.2304000 2.4969029427 2.5439436436 114.48229980 0.2733446360 2.5249032974  -999.250000
 5196.3828000 2.4913406372 2.6660723686 111.45877838 0.2801397443 2.5203585625  -999.250000
 5196.5352000 2.4973134995 2.6533002853 109.95951843 0.2691827416 2.5267605782  -999.250000
 5196.6876000 2.5057003498 2.4573831558 109.80141449 0.2585451305 2.4983520508  -999.250000
 5196.8400000 2.5165500641 2.6185710430 107.38847351 0.2487330437 2.6155941486  -999.250000
 5196.9924000 2.5198533535 2.5062198639 102.89080811 0.2470147014 2.5332016945  -999.250000
 5197.1448000 2.5171370506 2.8614783287 100.48960876 0.2678370178 2.7654540539  -999.250000
 5197.2972000 2.5048279762 2.8216316700 101.03252411 0.2671201527 2.8561716080  -999.250000
 5197.4496000 2.4972734451 2.5761227608 100.44026947 0.2667305171 2.6586265564  -999.250000
 5197.6020000 2.4932367802 2.6332640648 101.94699860 0.2610134184 2.6803450584  -999.250000
 5197.7544000 2.4930031300 2.6631622314 101.38774109 0.2563394308 2.6908204556  -999.250000
 5197.9068000 2.4880118370 2.6715998650 104.37706757 0.3020191789 2.7070817947  -999.250000
 5198.0592000 2.4771735668 2.6170594692 107.49601746 0.3153039217 2.6528558731  -999.250000
 5198.2116000 2.4755427837 2.5646433830 111.28106689 0.2783299088 2.6048531532  -999.250000
 5198.3640000 2.4766016006 2.5911669731 112.04869080 0.2843277752 2.6046679020  -999.250000
 5198.5164000 2.4842007160 2.6824419498 110.42447662 0.2941281796 2.6022217274  -999.250000
 5198.6688000 2.4825508595 2.4951875210 109.64904022 0.2898332477 2.5084774494  -999.250000
 5198.8212000 2.4857733250 2.4286606312 109.64079285 0.2881323695 2.4088549614  -999.250000
 5198.9736000 2.4821295738 2.4296407700 111.43219757 0.2605503500 2.3727250099  -999.250000
 5199.1260000 2.4838361740 2.3614971638 113.71714783 0.2808422148 2.2986350060  -999.250000
 5199.2784000 2.4792201519 2.3418118954 116.37732697 0.2585842311 2.2978174686  -999.250000
 5199.4308000 2.4827463627 2.1929638386 115.75241089 0.2616123855 2.1838033199  -999.250000
 5199.5832000 2.4764704704 2.2631368637 114.74303436 0.2720073462 2.1884758472  -999.250000
 5199.7356000 2.4787797928 2.1683173180 114.94379425 0.2890392840 2.1594655514  -999.250000
 5199.8880000 2.4741833210 2.1510343552 117.33696747 0.3110356331 2.1483838558  -999.250000
 5200.0404000 2.4773747921 2.0991275311 120.27017975 0.2808386683 2.0657401085  -999.250000
 5200.1928000 2.4760296345 2.0876989365 118.34628296 0.2849173248 2.0271346569  -999.250000
 5200.3452000 2.4760224819 2.0823988914 114.48705292 0.2976084054 2.0079505444  -999.250000
 5200.4976000 2.4796912670 2.1188542843 110.01456451 0.2906273603 2.0285348892  -999.250000
 5200.6500000 2.4826641083 1.9259998798 107.92131805 0.2764902413 1.9022662640  -999.250000
 5200.8024000 2.4877817631 1.9941586256 108.18077850 0.3137914538 1.9581056833  -999.250000
