# LAS format log file from PETREL
# Project units are specified as depth units
#==================================================================
~Version information
VERS.   2.0:
WRAP.   NO:
#==================================================================
~Well
STRT .m      189.89040000 :
STOP .m      3795.0648000 :
STEP .m     0.15240000 :
NULL .        -999.250000 :
COMP.           : COMPANY
WELL.  15_9-F-5   : WELL
FLD.            : FIELD
LOC.            : LOCATION
SRVC.           : SERVICE COMPANY
DATE.  2020-08-19 21:46:58   : Log Export Date {yyyy-MM-dd HH:mm:ss}
PROV.           : PROVINCE
UWI.   15_9-F-5   : UNIQUE WELL ID
API.            : API NUMBER
#==================================================================
~Curve
DEPT .m                   : DEPTH
RHOB .g/cm3               : RHOB
GR .gAPI                  : GR
RT .ohm.m                 : RT
NPHI .m3/m3               : NPHI
RM .ohm.m                 : RM
FACIES ._                 : FACIES
~Parameter
#==================================================================
~Ascii
# ...
 3769.7664000 2.4128229618 46.090339661 1.1244139671 0.1641548872 1.0651700497  -999.250000
 3769.9188000 2.4288389683 47.886539459 1.1480480433 0.1547892988 1.0637140274  -999.250000
 3770.0712000 2.4520759583 49.027389526 1.0625239611 0.1544642001 1.0377490520  -999.250000
 3770.2236000 2.4660820961 50.078071594 1.1289919615 0.1477840990 1.0393830538  -999.250000
 3770.3760000 2.4765760899 49.366210938 1.1075079441 0.1427346021 1.0431760550  -999.250000
 3770.5284000 2.4841866493 49.081039429 1.1597650051 0.1388259977 1.0145460367  -999.250000
 3770.6808000 2.4888920784 49.995750427 1.1665430069 0.1496437043 1.0480480194  -999.250000
 3770.8332000 2.4828720093 51.418170929 1.1734549999 0.1559977978 1.0575150251  -999.250000
 3770.9856000 2.4774019718 53.683879852 1.2109010220 0.1569103003 1.0596359968  -999.250000
 3771.1380000 2.4647359848 56.212181091 1.2393469810 0.1552886963 1.0765229464  -999.250000
 3771.2904000 2.4563100338 58.010879517 1.2989770174 0.1543973982 1.1119639874  -999.250000
 3771.4428000 2.4627349377 59.095691681 1.3067749739 0.1535222977 1.1658389568  -999.250000
 3771.5952000 2.4832139015 60.996341705 1.2837810516 0.1500494033 1.2959339619  -999.250000
 3771.7476000 2.5134909153 67.212173462 1.4305570126 0.1675940007 1.4472390413  -999.250000
 3771.9000000 2.5405690670 74.805740356 1.5814919472 0.1639637947 1.5584379435  -999.250000
 3772.0524000 2.5671660900 85.014266968 1.8765100241 0.1535886973 1.8650250435  -999.250000
 3772.2048000 2.5634450912 93.865249634 1.7621049881 0.1452309936 1.8858690262  -999.250000
 3772.3572000 2.5825510025 101.83850098 1.7762969732 0.1445531994 1.9289699793  -999.250000
 3772.5096000 2.5955779552 109.87909698 1.8566449881 0.1692116857 2.0343849659  -999.250000
 3772.6620000 2.6306209564 115.33679962 1.8707159758 0.1764438003 2.0936229229  -999.250000
 3772.8144000 2.6314599514 116.34169769 1.8507390022 0.1689098030 2.0519740582  -999.250000
 3772.9668000 2.6299870014 106.46530151 1.8116129637 0.1910617054 1.9961329699  -999.250000
 3773.1192000 2.6286580563 87.565246582 1.7854729891 0.1554924995 1.9337290525  -999.250000
 3773.2716000 2.6018741131 68.030792236 1.7320469618 0.1454367042 1.8533179760  -999.250000
 3773.4240000 2.5675289631 52.984088898 1.6736299992 0.1501712948 1.7040920258  -999.250000
 3773.5764000 2.5245509148 46.345039368 1.5891569853 0.1475197971 1.5068550110  -999.250000
 3773.7288000 2.4839460850 45.237079620 1.6720160246 0.1533440948 1.4620909691  -999.250000
 3773.8812000 2.4484848976 44.543338776 1.4323500395 0.1508473009 1.4322810173  -999.250000
 3774.0336000 2.4275972843 43.523078918 1.3721539974 0.1475788951 1.2661950588  -999.250000
 3774.1860000 2.4209229946 42.677871704 1.2155849934 0.1492739022 1.1234560013  -999.250000
 3774.3384000 2.4202899933 43.697448730 1.0716329813 0.1524678022 0.9800487161  -999.250000
 3774.4908000 2.4218740463 42.558681488 0.9830263853 0.1429110020 0.9455305934  -999.250000
 3774.6432000 2.4182369709 42.705539703 0.9702752829 0.1443443000 0.9312226772  -999.250000
 3774.7956000 2.4147720337 43.506500244 0.9233164787 0.1516532004 0.8716269732  -999.250000
 3774.9480000 2.4114160538 44.382579803 0.9087883830 0.1458109021 0.8636813760  -999.250000
 3775.1004000 2.4183681011 43.216148376 0.9527058005 0.1481236964 0.8648211956  -999.250000
 3775.2528000 2.4347019196 43.376201630 0.9520937800 0.1559745073 0.8951507807  -999.250000
 3775.4052000 2.4439771175 45.895629883 0.8534603715 0.1475989968 0.9000372887  -999.250000
 3775.5576000 2.4496459961 47.162960052 0.8710849285 0.1389368027 0.8939715028  -999.250000
 3775.7100000 2.4423170090 44.813510895 0.9172157049 0.1420859993 0.9566612244  -999.250000
 3775.8624000 2.4382960796 42.318111420 0.9766079187 0.1379071027 1.0376479626  -999.250000
 3776.0148000 2.4328150749 41.805881500 1.0413559675 0.1360000968 1.0729110241  -999.250000
 3776.1672000 2.4359569550 41.616909027 1.0544919968 0.1347353011 1.0633339882  -999.250000
 3776.3196000 2.4447000027 42.672641754 1.0009729862 0.1314575076 1.0150289536  -999.250000
 3776.4720000 2.4531912804 42.358299255 1.0134099722 0.1355672032 1.0296410322  -999.250000
 3776.6244000 2.4533729553 42.742088318 1.0415409803 0.1362781972 1.0281599760  -999.250000
 3776.7768000 2.4494330883 40.904441833 1.0192129612 0.1361628026 1.0103080273  -999.250000
 3776.9292000 2.4429709911 40.684711456 0.9876713157 0.1324937940 0.9659634233  -999.250000
 3777.0816000 2.4400820732 40.439041138 0.9602802992 0.1376200914 0.9114475846  -999.250000
 3777.2340000 2.4407799244 38.427490234 0.9116467237 0.1364603937 0.8547186255  -999.250000
 3777.3864000 2.4374530315 36.846370697 0.9059501290 0.1379905939 0.8180255294  -999.250000
 3777.5388000 2.4301297665 35.404861450 0.8236644864 0.1401709020 0.7455078959  -999.250000
 3777.6912000 2.4210739136 35.706478119 0.8773686290 0.1389975995 0.6937469244  -999.250000
 3777.8436000 2.4137539864 33.683410645 0.8536887169 0.1447006017 0.6849058867  -999.250000
 3777.9960000 2.4051139355 32.255119324 0.7644023895 0.1505012959 0.6808518171  -999.250000
 3778.1484000 2.3946499825 32.788990021 0.6754767895 0.1561377943 0.6601576805  -999.250000
 3778.3008000 2.3912980556 34.914070129 0.7696238160  -999.250000 0.7035856843  -999.250000
 3778.4532000 2.3938829899 39.959789276 0.8122386932  -999.250000 0.7967609167  -999.250000
 3778.6056000 2.4113910198 41.415420532 1.0173909664  -999.250000 0.9231488109  -999.250000
 3778.7580000 2.4483621120 45.636909485 1.1910849810  -999.250000 1.1367549896  -999.250000
 3778.9104000 2.4475629330 50.093929291 1.2903130054  -999.250000 1.3282059431  -999.250000
 3779.0628000 2.4913430214 61.850589752 1.3883340359  -999.250000 1.4245979786  -999.250000
 3779.2152000 2.5127170086 71.029296875 1.3648279905  -999.250000 1.4355909824  -999.250000
 3779.3676000 2.5686669350 74.924293518 1.3521039486  -999.250000 1.4548859596  -999.250000
 3779.5200000 2.5322399139 72.583312988  -999.250000  -999.250000  -999.250000  -999.250000
 3779.6724000 2.4913382530 67.195663452  -999.250000  -999.250000  -999.250000  -999.250000
 3779.8248000 2.4644370079 64.867797852  -999.250000  -999.250000  -999.250000  -999.250000
 3779.9772000 2.4476540089 61.882110596  -999.250000  -999.250000  -999.250000  -999.250000
 3780.1296000 2.4364910126 58.886280060  -999.250000  -999.250000  -999.250000  -999.250000
 3780.2820000 2.4183790684 53.883480072  -999.250000  -999.250000  -999.250000  -999.250000
 3780.4344000 2.4031960964 49.087619781  -999.250000  -999.250000  -999.250000  -999.250000
 3780.5868000 2.3920760155 45.962749481  -999.250000  -999.250000  -999.250000  -999.250000
 3780.7392000 2.3911879063 44.029899597  -999.250000  -999.250000  -999.250000  -999.250000
 3780.8916000 2.3932380676 43.345161438  -999.250000  -999.250000  -999.250000  -999.250000
 3781.0440000  -999.250000 42.880611420  -999.250000  -999.250000  -999.250000  -999.250000
 3781.1964000  -999.250000 41.441440582  -999.250000  -999.250000  -999.250000  -999.250000
 3781.3488000  -999.250000 40.827770233  -999.250000  -999.250000  -999.250000  -999.250000
 3781.5012000  -999.250000 40.957569122  -999.250000  -999.250000  -999.250000  -999.250000
 3781.6536000  -999.250000 42.963489532  -999.250000  -999.250000  -999.250000  -999.250000
 3781.8060000  -999.250000 45.944728851  -999.250000  -999.250000  -999.250000  -999.250000
 3781.9584000  -999.250000 49.770858765  -999.250000  -999.250000  -999.250000  -999.250000
 3782.1108000  -999.250000 53.636810303  -999.250000  -999.250000  -999.250000  -999.250000
 3782.2632000  -999.250000 57.003570557  -999.250000  -999.250000  -999.250000  -999.250000
 3782.4156000  -999.250000  -999.250000  -999.250000  -999.250000  -999.250000  -999.250000
 3782.5680000  -999.250000  -999.250000  -999.250000  -999.250000  -999.250000  -999.250000
 3782.7204000  -999.250000  -999.250000  -999.250000  -999.250000  -999.250000  -999.250000
 3782.8728000  -999.250000  -999.250000  -999.250000  -999.250000  -999.250000  -999.250000
