# LAS format log file from PETREL
# Project units are specified as depth units
#==================================================================
~Version information
VERS.   2.0:
WRAP.   NO:
#==================================================================
~Well
STRT .m      175.86960000 :
STOP .m      5330.3424000 :
STEP .m     0.15240000 :
NULL .        -999.250000 :
COMP.           : COMPANY
WELL.  15_9-F-10   : WELL
FLD.            : FIELD
LOC.            : LOCATION
SRVC.           : SERVICE COMPANY
DATE.  2020-08-19 21:46:58   : Log Export Date {yyyy-MM-dd HH:mm:ss}
PROV.           : PROVINCE
UWI.   15_9-F-10   : UNIQUE WELL ID
API.            : API NUMBER
#==================================================================
~Curve
DEPT .m                   : DEPTH
RHOB .g/cm3               : RHOB
RT .ohm.m                 : RT
GR .gAPI                  : GR
NPHI .m3/m3               : NPHI
RM .ohm.m                 : RM
FACIES ._                 : FACIES
~Parameter
#==================================================================
~Ascii
# ...
 4312.6152000 2.5221316814 2.8028340340 12.529969215  -999.250000 2.7039623260  -999.250000
 4312.7676000 2.5147836208 2.7975399494 12.374375343  -999.250000 2.6931090355  -999.250000
 4312.9200000 2.5216321945 2.7950565815 12.599469185  -999.250000 2.7126486301  -999.250000
 4313.0724000 2.5465588570 2.8042385578 12.980155945  -999.250000 2.6963169575  -999.250000
 4313.2248000 2.5477755070 2.8117582798 13.292360306  -999.250000 2.6903638840  -999.250000
 4313.3772000 2.5274391174 2.7880353928 13.223877907  -999.250000 2.6952323914  -999.250000
 4313.5296000 2.5010075569 2.8094038963 12.882514954  -999.250000 2.7136657238  -999.250000
 4313.6820000 2.4975132942 2.8306806087 12.609632492  -999.250000 2.7365827560  -999.250000
 4313.8344000 2.5028128624 2.8471276760 12.943997383  -999.250000 2.7307527065  -999.250000
 4313.9868000 2.5006127357 2.8410215378 13.551246643  -999.250000 2.7314801216  -999.250000
 4314.1392000 2.4978454113 2.8538684845 13.355273247  -999.250000 2.7600936890  -999.250000
 4314.2916000 2.4982945919 2.8311321735 12.552050591  -999.250000 2.7788844109  -999.250000
 4314.4440000 2.4944217205 2.8263428211 11.830938339  -999.250000 2.7715783119  -999.250000
 4314.5964000 2.4809665680 2.8508577347 11.913047791  -999.250000 2.7795689106  -999.250000
 4314.7488000 2.4659276009 2.8498344421 12.696302414  -999.250000 2.8307266235  -999.250000
 4314.9012000 2.4670929909 2.8614146709 13.397448540  -999.250000 2.8189172745  -999.250000
 4315.0536000 2.4760074615 2.8465785980 13.121464729  -999.250000 2.8302309513  -999.250000
 4315.2060000 2.4861557484 2.9122183323 12.144333839  -999.250000 2.8717737198  -999.250000
 4315.3584000 2.4977810383 2.9410610199 12.686082840  -999.250000 2.8841202259  -999.250000
 4315.5108000 2.5095682144 2.9378449917 14.204962730  -999.250000 2.8833310604  -999.250000
 4315.6632000 2.5184841156 2.9111578465 14.712141037  -999.250000 2.8674309254  -999.250000
 4315.8156000 2.5185124874 2.9420208931 13.700437546  -999.250000 2.9021956921  -999.250000
 4315.9680000 2.5100455284 2.9725427628 11.487142563  -999.250000 2.9399714470  -999.250000
 4316.1204000 2.4933185577 2.9609444141 10.285552979  -999.250000 2.9268782139  -999.250000
 4316.2728000 2.4840438366 2.9545903206 9.1889963150  -999.250000 2.9178946018  -999.250000
 4316.4252000 2.4894025326 2.9557826519 9.2940301895  -999.250000 2.9465894699  -999.250000
 4316.5776000 2.4953527451 2.9530274868 9.8434095383  -999.250000 2.9518866539  -999.250000
 4316.7300000 2.4874031544 2.9480357170 10.287755013  -999.250000 2.9445743561  -999.250000
 4316.8824000 2.4752333164 2.9891083241 10.429670334  -999.250000 2.9568588734  -999.250000
 4317.0348000 2.4676406384 2.9841141701 10.127236366  -999.250000 2.9533464909  -999.250000
 4317.1872000 2.4705083370 2.9886860847 10.622797012  -999.250000 2.9597573280  -999.250000
 4317.3396000 2.4836807251 2.9813363552 11.420787811  -999.250000 2.9667663574  -999.250000
 4317.4920000 2.4771213531 3.0433392525 10.855913162  -999.250000 2.9899573326  -999.250000
 4317.6444000 2.4635281563 3.0552742481 9.4930429459  -999.250000 3.0362513065  -999.250000
 4317.7968000 2.4546377659 3.0559146404 8.3964862823  -999.250000 3.0346548557  -999.250000
 4317.9492000 2.4614107609 3.0516161919 8.6627979279  -999.250000 3.0352013111  -999.250000
 4318.1016000 2.4430778027 3.0572662354 8.7524223328  -999.250000 3.0672256947  -999.250000
 4318.2540000 2.4306526184 3.0977580547 8.5757369995  -999.250000 3.0965621471  -999.250000
 4318.4064000 2.4464788437 3.1085708141 8.7323875427  -999.250000 3.1001532078  -999.250000
 4318.5588000 2.4862642288 3.0693898201 9.0657262802  -999.250000 3.0858831406  -999.250000
 4318.7112000 2.4859931469 3.0831446648 9.9958286285  -999.250000 3.0839085579  -999.250000
 4318.8636000 2.5021686554 3.1104273796 10.592594147  -999.250000 3.0879607201  -999.250000
 4319.0160000 2.5287241936 3.0808520317 11.062546730  -999.250000 3.0779812336  -999.250000
 4319.1684000 2.5488729477 3.0769777298 10.935734749  -999.250000 3.0932009220  -999.250000
 4319.3208000 2.5516707897 3.1385219097 13.015748978  -999.250000 3.1255984306  -999.250000
 4319.4732000 2.5429110527 3.1275029182 15.222575188  -999.250000 3.1101825237  -999.250000
 4319.6256000 2.5423278809 3.0695822239 15.065923691  -999.250000 3.1248261929  -999.250000
 4319.7780000 2.5507299900 3.1431946754 12.702445984  -999.250000 3.1029596329  -999.250000
 4319.9304000 2.5311331749 3.1562678814 9.4918336868  -999.250000 3.1016163826  -999.250000
 4320.0828000 2.4948294163 3.0859315395 8.6446981430  -999.250000 3.0976371765  -999.250000
 4320.2352000 2.4895951748 3.1483194828 7.3914909363  -999.250000 3.1103363037  -999.250000
 4320.3876000 2.5109350681 3.0588006973 6.9854168892  -999.250000 3.0336515903  -999.250000
 4320.5400000 2.5373370647 3.0694897175 7.5562329292  -999.250000 3.0498576164  -999.250000
 4320.6924000 2.5245940685 3.1022126675 8.5331220627  -999.250000 3.0939581394  -999.250000
 4320.8448000 2.5018529892 3.1323559284 9.0030755997  -999.250000 3.1194441319  -999.250000
 4320.9972000 2.4974601269 3.1472048759 8.4961395264  -999.250000 3.1235284805  -999.250000
 4321.1496000 2.5039050579 3.1322937012 10.097716331  -999.250000 3.1502513885  -999.250000
 4321.3020000 2.5152647495 3.1661763191 12.206230164  -999.250000 3.1759841442  -999.250000
 4321.4544000 2.4961853027 3.1932201385 12.872229576  -999.250000 3.1870763302  -999.250000
 4321.6068000 2.4729940891 3.2140707970 11.429714203  -999.250000 3.1686680317  -999.250000
 4321.7592000 2.4786522388 3.1636762619 10.104454994  -999.250000 3.2054858208  -999.250000
 4321.9116000 2.5117688179 3.1844782829 10.221711159  -999.250000 3.1922442913  -999.250000
 4322.0640000 2.5415906906 3.1883082390 10.704106331  -999.250000 3.1897888184  -999.250000
 4322.2164000 2.5432054996 3.1922214031 11.069244385  -999.250000 3.2126450539  -999.250000
 4322.3688000 2.5369162560 3.2037911415 11.539198875  -999.250000 3.2068514824  -999.250000
 4322.5212000 2.5307979584 3.2110331059 11.644013405  -999.250000 3.2039549351  -999.250000
 4322.6736000 2.5297412872 3.2261962891 10.839290619  -999.250000 3.2207713127  -999.250000
 4322.8260000 2.5402104855 3.2185676098 9.9297513962  -999.250000 3.2323775291  -999.250000
 4322.9784000 2.5180861950 3.2742733955 9.1349954605  -999.250000 3.2223331928  -999.250000
 4323.1308000 2.5375099182 3.2629618645 9.2497797012  -999.250000 3.2173814774  -999.250000
 4323.2832000 2.5472116470 3.2821307182 8.5922193527  -999.250000 3.2284851074  -999.250000
 4323.4356000 2.5426154137 3.2849042416 7.8198771477  -999.250000 3.2737352848  -999.250000
 4323.5880000 2.5404219627 3.3038582802 9.6084556580  -999.250000 3.2609868050  -999.250000
 4323.7404000 2.5371122360 3.3039999008 12.169375420  -999.250000 3.2629981041  -999.250000
 4323.8928000 2.5326356888 3.3581438065 13.735494614  -999.250000 3.2833099365  -999.250000
 4324.0452000 2.5274550915 3.3329272270 12.740693092  -999.250000 3.3003408909  -999.250000
 4324.1976000 2.5256166458 3.3280780315 11.490189552  -999.250000 3.2969603539  -999.250000
 4324.3500000 2.5196654797 3.3698523045 11.234487534  -999.250000 3.3279342651  -999.250000
 4324.5024000 2.4983520508 3.4118094444 11.078817368  -999.250000 3.3416678905  -999.250000
 4324.6548000 2.4856631756 3.3748240471 11.178845406  -999.250000 3.3402683735  -999.250000
 4324.8072000 2.4959495068 3.3658390045 10.494874954  -999.250000 3.3449525833  -999.250000
 4324.9596000 2.5204498768 3.4339730740 9.7108764648  -999.250000 3.3609626293  -999.250000
 4325.1120000 2.5253028870 3.4397549629 9.9375238419  -999.250000 3.3883171082  -999.250000
 4325.2644000 2.5209026337 3.4526550770 10.948171616  -999.250000 3.3894615173  -999.250000
 4325.4168000 2.5146858692 3.4254777431 10.948915482  -999.250000 3.3996305466  -999.250000
 4325.5692000 2.5240805149 3.4813220501 9.9390125275  -999.250000 3.4043500423  -999.250000
 4325.7216000 2.5170023441 3.4855725765 9.0498991013  -999.250000 3.4283444881  -999.250000
