# LAS format log file from PETREL
# Project units are specified as depth units
#==================================================================
~Version information
VERS.   2.0:
WRAP.   NO:
#==================================================================
~Well
STRT .m      175.86960000 :
STOP .m      5330.3424000 :
STEP .m     0.15240000 :
NULL .        -999.250000 :
COMP.           : COMPANY
WELL.  15_9-F-10   : WELL
FLD.            : FIELD
LOC.            : LOCATION
SRVC.           : SERVICE COMPANY
DATE.  2020-08-19 21:46:58   : Log Export Date {yyyy-MM-dd HH:mm:ss}
PROV.           : PROVINCE
UWI.   15_9-F-10   : UNIQUE WELL ID
API.            : API NUMBER
#==================================================================
~Curve
DEPT .m                   : DEPTH
RHOB .g/cm3               : RHOB
RT .ohm.m                 : RT
GR .gAPI                  : GR
NPHI .m3/m3               : NPHI
RM .ohm.m                 : RM
FACIES ._                 : FACIES
~Parameter
#==================================================================
~Ascii
# ...
 5307.0252000 2.5800497532 1.9686130285 103.19753265 0.2187591195 1.9008820057  -999.250000
 5307.1776000 2.5815763474 1.9309904575 103.09943390 0.2298801690 1.9251151085  -999.250000
 5307.3300000 2.5825927258 1.9529503584 103.86408234 0.2301253974 1.9337797165  -999.250000
 5307.4824000 2.5823049545 2.0145430565 104.30877686 0.2195103019 1.9827131033  -999.250000
 5307.6348000 2.5844731331 2.0196492672 103.52894592 0.2264210284 1.9807533026  -999.250000
 5307.7872000 2.5885543823 2.0852906704 102.53105164 0.2175503522 2.0144982338  -999.250000
 5307.9396000 2.5870881081 2.0905995369 101.35245514 0.2164177150 2.0189061165  -999.250000
 5308.0920000 2.5859498978 2.0821590424 100.95244598 0.2235683650 2.0346059799  -999.250000
 5308.2444000 2.5805571079 2.0849373341 99.862205505 0.2278352827 2.0208666325  -999.250000
 5308.3968000 2.5827994347 2.1026585102 101.31716156 0.2188890725 2.0693500042  -999.250000
 5308.5492000 2.5827965736 2.1223740578 102.33338928 0.2174357027 2.1003026962  -999.250000
 5308.7016000 2.5872712135 2.1013650894 100.82887268 0.2238548398 2.0560865402  -999.250000
 5308.8540000 2.5836586952 2.0898475647 99.541900635 0.2212563902 2.0632843971  -999.250000
 5309.0064000 2.5840401649 2.1595942974 99.907173157 0.2083414644 2.1135158539  -999.250000
 5309.1588000 2.5831677914 2.1527976990 100.33632660 0.2129220665 2.0992491245  -999.250000
 5309.3112000 2.5868422985 2.1448986530 99.458526611 0.2146840990 2.1087322235  -999.250000
 5309.4636000 2.5821549892 2.1469869614 99.276939392 0.2284447998 2.1091766357  -999.250000
 5309.6160000 2.5838692188 2.1876626015 100.50348663 0.2211474329 2.0970060825  -999.250000
 5309.7684000 2.5826492310 2.1441736221 100.89510345 0.2247845083 2.0985541344  -999.250000
 5309.9208000 2.5799980164 2.0622303486 99.624702454 0.2306774259 2.0581150055  -999.250000
 5310.0732000 2.5789675713 2.0391159058 99.102188110 0.2267347723 2.0512645245  -999.250000
 5310.2256000 2.5769791603 2.0491285324 96.505729675 0.2209647447 2.0357198715  -999.250000
 5310.3780000 2.5814168453 2.0067036152 94.833160400 0.2221213430 1.9812335968  -999.250000
 5310.5304000 2.5790345669 2.0545735359 95.674400330 0.2205104083 2.0088665485  -999.250000
 5310.6828000 2.5812940598 2.0391132832 105.18501282 0.2133291960 1.9815486670  -999.250000
 5310.8352000 2.5796327591 1.9622405767 115.07146454 0.2192450911 1.9512215853  -999.250000
 5310.9876000 2.5731234550 1.9574831724 122.72777557 0.2247755527 1.9251834154  -999.250000
 5311.1400000 2.5703413486 1.9277725220 123.26023102 0.2339919806 1.8983874321  -999.250000
 5311.2924000 2.5720884800 1.8813796043 117.19679260 0.2259824723 1.8664894104  -999.250000
 5311.4448000 2.5770640373 1.8747798204 111.39096832 0.2308672220 1.8604717255  -999.250000
 5311.5972000 2.5814249516 1.8647239208 106.37018585 0.2364484519 1.8558297157  -999.250000
 5311.7496000 2.5810441971 1.8629759550 102.89616394 0.2342077196 1.8588263988  -999.250000
 5311.9020000 2.5840203762 1.8369871378 101.60178375 0.2321857810 1.8227968216  -999.250000
 5312.0544000 2.5757956505 1.8421638012 104.88459778 0.2286798209 1.8147919178  -999.250000
 5312.2068000 2.5704691410 1.8404529095 116.50366974 0.2329853326 1.8186699152  -999.250000
 5312.3592000 2.5619380474 1.8208400011 126.53281403 0.2166737765 1.8063104153  -999.250000
 5312.5116000 2.5632987022 1.8074918985 125.76403809 0.2346210480 1.7978283167  -999.250000
 5312.6640000 2.5636763573 1.8139510155 117.09790802 0.2301742285 1.8199241161  -999.250000
 5312.8164000 2.5718624592 1.8460729122 106.21084595 0.2204829752 1.8277893066  -999.250000
 5312.9688000 2.5780220032 1.8407216072 101.93645477 0.2204373926 1.8355113268  -999.250000
 5313.1212000 2.5874326229 1.8389526606 100.51496124 0.2209410071 1.8332300186  -999.250000
 5313.2736000 2.5888831615 1.8244848251 102.36215210 0.2150535583 1.8244397640  -999.250000
 5313.4260000 2.5833792686 1.8458118439 107.56125641 0.2182593346 1.8228094578  -999.250000
 5313.5784000 2.5769095421 1.8357915878 116.13977814 0.2291759998 1.8162579536  -999.250000
 5313.7308000 2.5720994473 1.8364104033 118.37595367 0.2210423201 1.8098697662  -999.250000
 5313.8832000 2.5754370689 1.8319381475 114.15702057 0.2205831409 1.7958252430  -999.250000
 5314.0356000 2.5747034550 1.8062540293 107.46572876 0.2312335670 1.7841842175  -999.250000
 5314.1880000 2.5759491920 1.8034728765 104.69544220 0.2328164876 1.7707121372  -999.250000
 5314.3404000 2.5716855526 1.7953084707 106.45288849 0.2381164879 1.7674671412  -999.250000
 5314.4928000 2.5733482838 1.7880227566 106.73596954 0.2445237488 1.7636615038  -999.250000
 5314.6452000 2.5724999905 1.7845342159 104.93850708 0.2329744846 1.7545667887  -999.250000
 5314.7976000 2.5712249279 1.7827471495 103.25940704 0.2368472666 1.7549514771  -999.250000
 5314.9500000 2.5714592934 1.7844487429 102.80244446 0.2389376760 1.7459758520  -999.250000
 5315.1024000 2.5683085918 1.7792627811 103.29206848 0.2350251675 1.7477558851  -999.250000
 5315.2548000 2.5709977150 1.7906292677 104.02194977 0.2270555794 1.7549054623  -999.250000
 5315.4072000 2.5692849159 1.8166571856 102.55239105 0.2316780835 1.7782026529  -999.250000
 5315.5596000 2.5735104084 1.8153156042 103.06170654 0.2445795983 1.7783330679  -999.250000
 5315.7120000 2.5735743046 1.8219931126 102.31250000 0.2337339967 1.7811771631  -999.250000
 5315.8644000 2.5705947876 1.8280335665 103.41474152 0.2335069776 1.8199409246  -999.250000
 5316.0168000 2.5691342354 1.8218911886 102.93375397 0.2301356494 1.8231134415  -999.250000
 5316.1692000 2.5754489899 1.8452346325 102.12533569 0.2273239493 1.8395855427  -999.250000
 5316.3216000 2.5725619793 1.8987658024 101.89276123 0.2226740420 1.8778524399  -999.250000
 5316.4740000 2.5690400600 1.8792635202 102.86490631 0.2161471546 1.8762975931  -999.250000
 5316.6264000 2.5664598942 1.8885921240 101.81963348 0.2145683467 1.8857045174  -999.250000
 5316.7788000 2.5757341385 1.9028444290 100.28688049 0.2108509988 1.9128781557  -999.250000
 5316.9312000 2.5753195286 1.8980339766 100.07213593 0.2043423206 1.9029904604  -999.250000
 5317.0836000 2.5726275444 1.9203670025 102.44441223  -999.250000 1.9049644470  -999.250000
 5317.2360000 2.5700380802 1.9184030294 103.00249481  -999.250000 1.9098429680  -999.250000
 5317.3884000 2.5712006092 1.9237636328 101.74073029  -999.250000 1.8962137699  -999.250000
 5317.5408000 2.5713095665 1.8616710901 101.02492523  -999.250000 1.8481363058  -999.250000
 5317.6932000 2.5664939880 1.8896955252 100.79999542  -999.250000 1.8850655556  -999.250000
 5317.8456000 2.5694222450 1.9184783697 99.103805542  -999.250000 1.8867253065  -999.250000
 5317.9980000 2.5667743683  -999.250000 97.627563477  -999.250000  -999.250000  -999.250000
 5318.1504000 2.5693383217  -999.250000 99.052871704  -999.250000  -999.250000  -999.250000
 5318.3028000 2.5716757774  -999.250000 100.98171997  -999.250000  -999.250000  -999.250000
 5318.4552000 2.5760302544  -999.250000 102.08938599  -999.250000  -999.250000  -999.250000
 5318.6076000 2.5759403706  -999.250000 102.12640381  -999.250000  -999.250000  -999.250000
 5318.7600000 2.5685229301  -999.250000 106.37572479  -999.250000  -999.250000  -999.250000
 5318.9124000 2.5631773472  -999.250000 110.64720917  -999.250000  -999.250000  -999.250000
 5319.0648000 2.5585992336  -999.250000 113.50147247  -999.250000  -999.250000  -999.250000
 5319.2172000 2.5611639023  -999.250000 109.00761414  -999.250000  -999.250000  -999.250000
 5319.3696000 2.5596866608  -999.250000 104.50045776  -999.250000  -999.250000  -999.250000
 5319.5220000  -999.250000  -999.250000 100.86170959  -999.250000  -999.250000  -999.250000
 5319.6744000  -999.250000  -999.250000 99.541961670  -999.250000  -999.250000  -999.250000
 5319.8268000  -999.250000  -999.250000 99.388481140  -999.250000  -999.250000  -999.250000
 5319.9792000  -999.250000  -999.250000 99.964981079  -999.250000  -999.250000  -999.250000
 5320.1316000  -999.250000  -999.250000 101.30706787  -999.250000  -999.250000  -999.250000
