# LAS format log file from PETREL
# Project units are specified as depth units
#==================================================================
~Version information
VERS.   2.0:
WRAP.   NO:
#==================================================================
~Well
STRT .m      -0.015270480 :
STOP .m      1245.8090095 :
STEP .m     0.04572000 :
NULL .        -999.250000 :
COMP.           : COMPANY
WELL.  15_9-19 A   : WELL
FLD.            : FIELD
LOC.            : LOCATION
SRVC.           : SERVICE COMPANY
DATE.  2020-08-19 21:46:58   : Log Export Date {yyyy-MM-dd HH:mm:ss}
PROV.           : PROVINCE
UWI.   15_9-19 A   : UNIQUE WELL ID
API.            : API NUMBER
#==================================================================
~Curve
DEPT .m                   : DEPTH
GR .gAPI                  : GR
NPHI .m3/m3               : NPHI
RHOB .g/cm3               : RHOB
RM .ohm.m                 : RM
RT .ohm.m                 : RT
FACIES ._                 : FACIES
~Parameter
#==================================================================
~Ascii
# ...
 1089.8580895 19.489999771 0.0799999982 2.5673000813 7.5999999046 7.4000000954  -999.250000
 1089.9038095 19.049999237 0.0799999982 2.5583000183 7.5999999046 7.5000000000  -999.250000
 1089.9495295 19.790000916 0.0799999982 2.5718998909 7.6999998093 7.5999999046  -999.250000
 1089.9952495 20.129999161 0.0799999982 2.5608999729 7.5999999046 7.5999999046  -999.250000
 1090.0409695 19.290000916 0.0799999982 2.5494999886 7.5999999046 7.5999999046  -999.250000
 1090.0866895 18.069999695 0.0700000003 2.5729999542 7.5999999046 7.5999999046  -999.250000
 1090.1324095 17.930000305 0.0799999982 2.5666999817 7.6999998093 7.5999999046  -999.250000
 1090.1781295 17.700000763 0.0799999982 2.5757000446 7.6999998093 7.6999998093  -999.250000
 1090.2238495 17.600000381 0.0799999982 2.6040999889 7.8000001907 7.9000000954  -999.250000
 1090.2695695 17.340000153 0.0799999982 2.5710000992 7.9000000954 8.1000003815  -999.250000
 1090.3152895 17.000000000 0.0799999982 2.5676999092 8.0000000000 8.3000001907  -999.250000
 1090.3610095 16.950000763 0.0799999982 2.5576000214 7.9000000954 8.1999998093  -999.250000
 1090.4067295 16.799999237 0.0799999982 2.5766000748 7.8000001907 8.0000000000  -999.250000
 1090.4524495 16.170000076 0.0799999982 2.5757000446 7.6999998093 7.6999998093  -999.250000
 1090.4981695 15.899999619 0.0899999961 2.5763001442 7.4000000954 7.3000001907  -999.250000
 1090.5438895 16.549999237 0.0899999961 2.5580000877 6.8000001907 6.8000001907  -999.250000
 1090.5896095 17.909999847 0.0899999961 2.5663998127 6.3000001907 6.1999998093  -999.250000
 1090.6353295 18.809999466 0.0899999961 2.5399999619 5.6999998093 5.5999999046  -999.250000
 1090.6810495 18.899999619 0.0899999961 2.5234999657 4.9000000954 4.9000000954  -999.250000
 1090.7267695 18.979999542 0.1000000015 2.5423998833 4.3000001907 4.1999998093  -999.250000
 1090.7724895 19.540000916 0.1200000048 2.5633001328 4.1999998093 4.1999998093  -999.250000
 1090.8182095 19.809999466 0.1200000048 2.5643999577 4.9000000954 4.8000001907  -999.250000
 1090.8639295 20.040000916 0.1200000048 2.5643000603 6.0999999046 6.0999999046  -999.250000
 1090.9096495 18.159999847 0.1200000048 2.5286998749 6.9000000954 7.0999999046  -999.250000
 1090.9553695 14.619999886 0.1000000015 2.5746998787 6.9000000954 7.0999999046  -999.250000
 1091.0010895 13.659999847 0.1000000015 2.5991001129 7.0999999046 7.4000000954  -999.250000
 1091.0468095 13.670000076 0.0799999982 2.5748999119 7.5000000000 7.5999999046  -999.250000
 1091.0925295 13.029999733 0.0799999982 2.5929999352 7.4000000954 7.4000000954  -999.250000
 1091.1382495 12.189999580 0.0799999982 2.5940999985 7.3000001907 7.1999998093  -999.250000
 1091.1839695 11.779999733 0.0700000003 2.5776998997 7.1999998093 7.1999998093  -999.250000
 1091.2296895 12.500000000 0.0799999982 2.5728001595 7.3000001907 7.3000001907  -999.250000
 1091.2754095 14.420000076 0.0799999982 2.5893998146 7.4000000954 7.4000000954  -999.250000
 1091.3211295 16.360000610 0.0799999982 2.6101999283 7.3000001907 7.3000001907  -999.250000
 1091.3668495 17.559999466 0.0799999982 2.6178998947 7.1999998093 7.1999998093  -999.250000
 1091.4125695 17.979999542 0.0799999982 2.5985000134 7.1999998093 7.1999998093  -999.250000
 1091.4582895 17.520000458 0.0700000003 2.5829999447 7.1999998093 7.1999998093  -999.250000
 1091.5040095 16.719999313 0.1299999952 2.6117999554 6.9000000954 7.0000000000  -999.250000
 1091.5497295 15.020000458 0.0700000003 2.5973999500 6.6999998093 6.6999998093  -999.250000
 1091.5954495 14.810000420 0.0399999991 2.5685000420 6.5999999046 6.5999999046  -999.250000
 1091.6411695 16.780000687 0.0899999961 2.5498001575 6.5999999046 6.5999999046  -999.250000
 1091.6868895 19.360000610 0.0899999961 2.5920000076 6.4000000954 6.4000000954  -999.250000
 1091.7326095 19.430000305 0.1000000015 2.5663998127 5.8000001907 5.8000001907  -999.250000
 1091.7783295 16.489999771 0.1099999994 2.5536999702 5.0999999046 5.1999998093  -999.250000
 1091.8240495 15.220000267 0.1000000015 2.5439999104 4.5999999046 4.6999998093  -999.250000
 1091.8697695 15.409999847 0.1099999994 2.5521001816 4.3000001907 4.3000001907  -999.250000
 1091.9154895 13.770000458 0.1099999994 2.5209999084 3.9000000954 3.9000000954  -999.250000
 1091.9612095 10.529999733 0.1099999994 2.5096001625 3.5999999046 3.5999999046  -999.250000
 1092.0069295 9.0399999619 0.1000000015 2.4898998737 3.5000000000 3.5000000000  -999.250000
 1092.0526495 8.5299997330 0.1000000015 2.4693000317 3.5000000000 3.5000000000  -999.250000
 1092.0983695  -999.250000  -999.250000  -999.250000  -999.250000  -999.250000  -999.250000
 1092.1440895 7.8400001526 0.1000000015 2.4677000046 3.5999999046 3.5999999046  -999.250000
 1092.1898095 7.9099998474 0.0899999961 2.4962999821 3.7000000477 3.5999999046  -999.250000
 1092.2355295 10.510000229 0.0899999961 2.5123000145 3.7000000477 3.7000000477  -999.250000
 1092.2812495 17.620000839 0.0899999961 2.5248999596 3.7000000477 3.7000000477  -999.250000
 1092.3269695 25.549999237 0.1000000015 2.5710000992 3.4000000954 3.4000000954  -999.250000
 1092.3726895 29.850000381 0.1099999994 2.5833001137 3.0000000000 3.0000000000  -999.250000
 1092.4184095 30.889999390 0.1299999952 2.5699999332 2.7000000477 2.7000000477  -999.250000
 1092.4641295 32.330001831 0.1299999952 2.6164000034 2.5000000000 2.5999999046  -999.250000
 1092.5098495 33.139999390 0.1400000006 2.5810999870 2.4000000954 2.4000000954  -999.250000
 1092.5555695 33.319999695 0.1400000006 2.5881998539 2.2999999523 2.2999999523  -999.250000
 1092.6012895 32.159999847 0.1400000006 2.5601999760 2.4000000954 2.4000000954  -999.250000
 1092.6470095 27.600000381 0.1200000048 2.5810999870 2.5000000000 2.5999999046  -999.250000
 1092.6927295 23.840000153 0.1099999994 2.5769999027 2.7999999523 2.9000000954  -999.250000
 1092.7384495 22.739999771 0.1000000015 2.6036999226 3.0999999046 3.2000000477  -999.250000
 1092.7841695 23.229999542 0.1099999994 2.5986001492 3.2000000477 3.4000000954  -999.250000
 1092.8298895 24.729999542 0.1000000015 2.5940001011 3.2000000477 3.2999999523  -999.250000
 1092.8756095 27.120000839 0.1099999994 2.6081001759 3.0999999046 3.0999999046  -999.250000
 1092.9213295 30.219999313 0.1200000048 2.5903999805 2.7999999523 2.9000000954  -999.250000
 1092.9670495 32.560001373 0.1200000048 2.5827000141 2.5999999046 2.7000000477  -999.250000
 1093.0127695 32.069999695 0.1299999952 2.5583999157 2.5000000000 2.5000000000  -999.250000
 1093.0584895 30.110000610 0.1200000048 2.5861999989 2.5000000000 2.5000000000  -999.250000
 1093.1042095 27.350000381 0.1099999994 2.5506999493 2.5999999046 2.5999999046  -999.250000
 1093.1499295 23.159999847 0.1000000015 2.2372000217 3.0000000000 3.0000000000  -999.250000
 1093.1956495 20.870000839 0.0799999982 2.4588999748 3.5999999046 3.7000000477  -999.250000
 1093.2413695 20.540000916 0.0799999982 2.6322000027 4.1999998093 4.3000001907  -999.250000
 1093.2870895 20.639999390 0.0799999982 2.5976998806 4.4000000954 4.5000000000  -999.250000
 1093.3328095 21.770000458 0.0799999982 2.6086001396 4.5000000000 4.5999999046  -999.250000
 1093.3785295 21.690000534 0.0799999982 2.5975000858 4.4000000954 4.5999999046  -999.250000
 1093.4242495 22.750000000 0.0899999961 2.6188998222 4.5000000000 4.6999998093  -999.250000
 1093.4699695 23.840000153 0.0899999961 2.5885000229 4.5000000000 4.6999998093  -999.250000
 1093.5156895 24.739999771 0.1000000015 2.5959999561 4.1999998093 4.3000001907  -999.250000
 1093.5614095 26.159999847 0.1099999994 2.6023001671 3.7000000477 3.7000000477  -999.250000
 1093.6071295 25.909999847 0.1099999994 2.5796000957 3.2999999523 3.2999999523  -999.250000
 1093.6528495 27.270000458 0.1200000048 2.5776998997 3.0999999046 3.0999999046  -999.250000
 1093.6985695 28.829999924 0.1200000048 2.5588998795 3.0000000000 2.9000000954  -999.250000
 1093.7442895 27.969999313 0.1200000048 2.5817999840 2.9000000954 2.7999999523  -999.250000
 1093.7900095 27.319999695 0.1200000048 2.5846998692 2.9000000954 2.7999999523  -999.250000
