# LAS format log file from PETREL
# Project units are specified as depth units
#==================================================================
~Version information
VERS.   2.0:
WRAP.   NO:
#==================================================================
~Well
STRT .m      189.89040000 :
STOP .m      3795.0648000 :
STEP .m     0.15240000 :
NULL .        -999.250000 :
COMP.           : COMPANY
WELL.  15_9-F-5   : WELL
FLD.            : FIELD
LOC.            : LOCATION
SRVC.           : SERVICE COMPANY
DATE.  2020-08-19 21:46:58   : Log Export Date {yyyy-MM-dd HH:mm:ss}
PROV.           : PROVINCE
UWI.   15_9-F-5   : UNIQUE WELL ID
API.            : API NUMBER
#==================================================================
~Curve
DEPT .m                   : DEPTH
RHOB .g/cm3               : RHOB
GR .gAPI                  : GR
RT .ohm.m                 : RT
NPHI .m3/m3               : NPHI
RM .ohm.m                 : RM
FACIES ._                 : FACIES
~Parameter
#==================================================================
~Ascii
# ...
 3265.9320000 2.5637719631 44.728328705 2.4769530296 0.1384924054 2.4483590126  -999.250000
 3266.0844000 2.5744030476 44.147380829 2.4582750797 0.1289426982 2.4538280964  -999.250000
 3266.2368000 2.5772409439 42.860160828 2.4542911053 0.1371017992 2.4429330826  -999.250000
 3266.3892000 2.5786650181 41.491519928 2.5620999336 0.1212650016 2.5087819099  -999.250000
 3266.5416000 2.5766239166 41.107360840 2.4792859554 0.1298540086 2.4887530804  -999.250000
 3266.6940000 2.5639901161 40.401878357 2.4688320160 0.1383530051 2.5074369907  -999.250000
 3266.8464000 2.5647981167 41.670749664 2.4952609539 0.1447452009 2.4816229343  -999.250000
 3266.9988000 2.5713191032 42.004379272 2.5041880608 0.1320624948 2.4862980843  -999.250000
 3267.1512000 2.5853209496 41.835350037 2.5201790333 0.1311175972 2.4755818844  -999.250000
 3267.3036000 2.5836510658 40.958679199 2.4657940865 0.1382853091 2.4635210037  -999.250000
 3267.4560000 2.5755178928 42.783569336 2.4092431068 0.1359535009 2.4082419872  -999.250000
 3267.6084000 2.5649609566 44.726589203 2.4516170025 0.1517895013 2.4385941029  -999.250000
 3267.7608000 2.5480771065 47.181259155 2.4573299885 0.1534368098 2.4512319565  -999.250000
 3267.9132000 2.5430860519 48.137310028 2.4320480824 0.1504230946 2.4358479977  -999.250000
 3268.0656000 2.5446310043 48.080928802 2.3933959007 0.1515119970 2.4069349766  -999.250000
 3268.2180000 2.5592689514 47.833499908 2.4098980427 0.1487268955 2.4189639091  -999.250000
 3268.3704000 2.5564217567 46.154609680 2.4094729424 0.1385470033 2.4066500664  -999.250000
 3268.5228000 2.5533299446 46.634521484 2.4114730358 0.1300971955 2.4048590660  -999.250000
 3268.6752000 2.5531880856 45.847469330 2.3725531101 0.1429488063 2.3825700283  -999.250000
 3268.8276000 2.5504748821 48.489440918 2.3709518909 0.1447824985 2.4230539799  -999.250000
 3268.9800000 2.5451440811 49.588119507 2.3572969437 0.1514666975 2.3567171097  -999.250000
 3269.1324000 2.5420858860 54.783790588 2.4094700813 0.1694685966 2.3808989525  -999.250000
 3269.2848000 2.5495409966 56.027568817 2.3247489929 0.1546753049 2.3492910862  -999.250000
 3269.4372000 2.5573899746 56.403800964 2.3491990566 0.1480050981 2.3903560638  -999.250000
 3269.5896000 2.5643420219 55.417968750 2.3076329231 0.1471208036 2.3032341003  -999.250000
 3269.7420000 2.5666959286 58.628089905 2.3754429817 0.1590390950 2.2929658890  -999.250000
 3269.8944000 2.5759289265 63.368858337 2.4814600945 0.1655340940 2.3437979221  -999.250000
 3270.0468000 2.5738999844 64.404937744 2.4394640923 0.1482126117 2.3726100922  -999.250000
 3270.1992000 2.5799338818 63.444770813 2.3237190247 0.1630554050 2.2624030113  -999.250000
 3270.3516000 2.5698580742 65.456146240 2.3686459064 0.1828791052 2.3424448967  -999.250000
 3270.5040000 2.5787520409 68.336708069 2.4357120991 0.1743523031 2.3367600441  -999.250000
 3270.6564000 2.5836060047 68.256843567 2.4394268990 0.1855415851 2.4899320602  -999.250000
 3270.8088000 2.6088891029 58.243801117 2.7555959225 0.1466930956 2.6335399151  -999.250000
 3270.9612000 2.6369199753 43.774139404 2.5270340443 0.1252803057 2.6432490349  -999.250000
 3271.1136000 2.6602160931 31.325799942 2.6503019333 0.1310808063 2.5943529606  -999.250000
 3271.2660000 2.6592888832 25.450130463 3.3333079815 0.1163941920 3.4055120945  -999.250000
 3271.4184000 2.6500790119 24.838460922 2.8997209072 0.1130599976 2.9881200790  -999.250000
 3271.5708000 2.6373200417 27.898250580 3.0440790653 0.1349316984 3.1193079948  -999.250000
 3271.7232000 2.6442029476 29.879159927 3.7430980206 0.1113722995 4.0341629982  -999.250000
 3271.8756000 2.6413609982 31.551420212 3.3862628937 0.1063437015 3.4126639366  -999.250000
 3272.0280000 2.6412250996 31.644830704 3.5206151009 0.1055729985 3.5450739861  -999.250000
 3272.1804000 2.6381790638 34.138889313 3.8665859699 0.1151280031 3.7850430012  -999.250000
 3272.3328000 2.6414709091 37.077758789 4.3659000397 0.1070384011 4.0532240868  -999.250000
 3272.4852000 2.6464610100 36.105518341 4.2328219414 0.0990984142 4.1872758865  -999.250000
 3272.6376000 2.6416668892 33.500740051 4.3993511200 0.0977101550 4.3043460846  -999.250000
 3272.7900000 2.6492791176 29.697500229 4.5540170670 0.0886810273 4.5834679604  -999.250000
 3272.9424000 2.6473929882 29.101039886 4.5156030655 0.0801394358 4.5624132156  -999.250000
 3273.0948000 2.6394720078 30.724269867 4.6664500237 0.0950996429 4.7445549965  -999.250000
 3273.2472000 2.6294629574 32.856269836 4.7750048637 0.0964292884 4.9960517883  -999.250000
 3273.3996000 2.6288700104 30.717670441 4.9320821762 0.0859230533 5.0232281685  -999.250000
 3273.5520000 2.6355199814 26.029050827 4.8592271805 0.0924376696 5.0552182198  -999.250000
 3273.7044000 2.6432769299 22.054540634 5.2399239540 0.0872055441 5.0849938393  -999.250000
 3273.8568000 2.6439766884 21.558269501 5.3438620567 0.0742891133 5.1838011742  -999.250000
 3274.0092000 2.6508080959 21.722549438 5.0805058479 0.0791237131 5.0812067986  -999.250000
 3274.1616000 2.6523869038 24.770320892 5.2331957817 0.0848115757 5.0386857986  -999.250000
 3274.3140000 2.6506729126 31.668859482 5.2849922180 0.1006138995 5.0780291557  -999.250000
 3274.4664000 2.6331429482 36.788120270 5.1714491844 0.0968897268 5.1258568764  -999.250000
 3274.6188000 2.6231000423 38.360038757 5.2145857811 0.1057723016 5.1222138405  -999.250000
 3274.7712000 2.6214299202 36.670719147 5.1342329979 0.1025725007 5.0721812248  -999.250000
 3274.9236000 2.6325359344 33.178588867 5.1890487671 0.0940233395 5.1191220284  -999.250000
 3275.0760000 2.6304740906 33.279609680 5.1874690056 0.0887779891 5.1088252068  -999.250000
 3275.2284000 2.6392009258 31.204809189 5.2851309776 0.0830769241 5.2514281273  -999.250000
 3275.3808000 2.6379730701 35.955390930 5.3208951950 0.0785982385 5.3448691368  -999.250000
 3275.5332000 2.6342248917 37.211498260 5.4469828606 0.0877921283 5.4474759102  -999.250000
 3275.6856000 2.6304459572 37.159080505 5.5374431610 0.0866089091 5.6318511963  -999.250000
 3275.8380000 2.6305949688 32.418498993 5.4780220985 0.0812235847 5.6201491356  -999.250000
 3275.9904000 2.6356589794 27.826120377 5.4267377853 0.0863923356 5.5675268173  -999.250000
 3276.1428000 2.6391499043 23.414270401 5.3305459023 0.0841896534 5.5487880707  -999.250000
 3276.2952000 2.6406080723 21.584390640 5.2684679031 0.0793924257 5.4840540886  -999.250000
 3276.4476000 2.6496109962 19.707099915 5.1153321266 0.0780048817 5.2799539566  -999.250000
 3276.6000000 2.6468410492 20.832450867 4.9618120193 0.0768330023 5.0474648476  -999.250000
 3276.7524000 2.6397631168 21.002500534 4.7491760254 0.0885896683 4.7907071114  -999.250000
 3276.9048000 2.6329529285 25.042789459 4.5367932320 0.1013585031 4.5431327820  -999.250000
 3277.0572000 2.6119389534 31.206350327 4.2863478661 0.1046214029 4.2923388481  -999.250000
 3277.2096000 2.6100471020 39.573909760 4.0147261620 0.1266591996 3.9789450169  -999.250000
 3277.3620000 2.5948259830 46.585521698 3.9041039944 0.1319849044 3.8546450138  -999.250000
 3277.5144000 2.5862250328 51.234859467 3.4651279449 0.1310589015 3.4894769192  -999.250000
 3277.6668000 2.5640439987 54.302619934 3.2165520191 0.1442864090 3.2167189121  -999.250000
 3277.8192000 2.5566470623 57.071220398 2.8685290813 0.1455049068 2.9849541187  -999.250000
 3277.9716000 2.5613670349 60.085849762 2.7080359459 0.1456294954 2.7885739803  -999.250000
 3278.1240000 2.5704770088 61.058128357 2.5803380013 0.1439319998 2.5508038998  -999.250000
 3278.2764000 2.5689818859 62.717269897 2.3940160275 0.1442634016 2.3610548973  -999.250000
 3278.4288000 2.5734760761 63.512878418 2.1177570820 0.1420831978 2.0563321114  -999.250000
 3278.5812000 2.5718660355 67.848396301 1.9104969501 0.1783581972 1.8006910086  -999.250000
 3278.7336000 2.5716919899 70.422828674 2.1226630211 0.2584362030 1.8181910515  -999.250000
 3278.8860000 2.5756490231 72.916412354 1.7964160442 0.2412949055 1.6824979782  -999.250000
 3279.0384000 2.5568149090 77.180992126 1.4701880217 0.2975178063 1.4445630312  -999.250000
