# LAS format log file from PETREL
# Project units are specified as depth units
#==================================================================
~Version information
VERS.   2.0:
WRAP.   NO:
#==================================================================
~Well
STRT .m      -0.015270480 :
STOP .m      1245.8090095 :
STEP .m     0.04572000 :
NULL .        -999.250000 :
COMP.           : COMPANY
WELL.  15_9-19 A   : WELL
FLD.            : FIELD
LOC.            : LOCATION
SRVC.           : SERVICE COMPANY
DATE.  2020-08-19 21:46:58   : Log Export Date {yyyy-MM-dd HH:mm:ss}
PROV.           : PROVINCE
UWI.   15_9-19 A   : UNIQUE WELL ID
API.            : API NUMBER
#==================================================================
~Curve
DEPT .m                   : DEPTH
GR .gAPI                  : GR
NPHI .m3/m3               : NPHI
RHOB .g/cm3               : RHOB
RM .ohm.m                 : RM
RT .ohm.m                 : RT
FACIES ._                 : FACIES
~Parameter
#==================================================================
~Ascii
# ...
 898.93136952 47.450000763 0.4499999881 2.2261002064 0.6999999881 0.6999999881  -999.250000
 898.97708952 49.459999084 0.4199999869 2.1751000881 0.6000000238 0.6999999881  -999.250000
 899.02280952 49.400001526 0.4699999690 2.1022000313 0.6000000238 0.6999999881  -999.250000
 899.06852952 47.110000610 0.5000000000 2.0843999386 0.6000000238 0.6999999881  -999.250000
 899.11424952 45.990001678 0.5099999905 2.0971000195 0.6000000238 0.6999999881  -999.250000
 899.15996952 45.810001373 0.5900000334 2.1223998070 0.6999999881 0.6999999881  -999.250000
 899.20568952 47.209999084 0.5300000310 2.1008999348 0.6999999881 0.6999999881  -999.250000
 899.25140952 48.159999847 0.4599999785 2.0704998970 0.6999999881 0.6999999881  -999.250000
 899.29712952 47.509998322 0.4599999785 2.0851001740 0.6999999881 0.6999999881  -999.250000
 899.34284952 45.490001678 0.4300000072 2.1471998692 0.6999999881 0.6999999881  -999.250000
 899.38856952 44.049999237 0.4199999869 2.2114999294 0.6999999881 0.6999999881  -999.250000
 899.43428952 43.330001831 0.4399999976 2.2284998894 0.6999999881 0.6999999881  -999.250000
 899.48000952 41.520000458 0.4300000072 2.2428998947 0.6999999881 0.6999999881  -999.250000
 899.52572952 41.569999695 0.4399999976 2.2283999920 0.6999999881 0.6999999881  -999.250000
 899.57144952 40.130001068 0.4399999976 2.1943998337 0.6999999881 0.6999999881  -999.250000
 899.61716952 38.810001373 0.4399999976 2.1665999889 0.6999999881 0.6999999881  -999.250000
 899.66288952 41.139999390 0.4599999785 2.1678998470 0.6999999881 0.6999999881  -999.250000
 899.70860952 41.849998474 0.4499999881 2.1638998985 0.6999999881 0.6999999881  -999.250000
 899.75432952 39.659999847 0.4399999976 2.1436998844 0.6999999881 0.6999999881  -999.250000
 899.80004952 38.830001831 0.4199999869 2.1438999176 0.6999999881 0.6999999881  -999.250000
 899.84576952 44.639999390 0.4199999869 2.1724998951 0.6999999881 0.6999999881  -999.250000
 899.89148952 47.400001526 0.4499999881 2.1972000599 0.6000000238 0.6999999881  -999.250000
 899.93720952 46.549999237 0.4800000191 2.1891999245 0.6000000238 0.6000000238  -999.250000
 899.98292952 47.900001526 0.4599999785 2.1712999344 0.6000000238 0.6000000238  -999.250000
 900.02864952 49.750000000 0.4300000072 2.1626999378 0.6000000238 0.6000000238  -999.250000
 900.07436952 50.209999084 0.4399999976 2.1788001060 0.6000000238 0.6000000238  -999.250000
 900.12008952 49.819999695 0.4900000095 2.1941001415 0.6000000238 0.6000000238  -999.250000
 900.16580952 48.549999237 0.4900000095 2.1761999130 0.6000000238 0.6000000238  -999.250000
 900.21152952 47.529998779 0.4599999785 2.1136999130 0.6000000238 0.6999999881  -999.250000
 900.25724952 45.610000610 0.4800000191 2.0485000610 0.6000000238 0.6999999881  -999.250000
 900.30296952 43.529998779 0.5300000310 2.0151998997 0.6999999881 0.6999999881  -999.250000
 900.34868952 46.299999237 0.5300000310 2.0322999954 0.6999999881 0.6999999881  -999.250000
 900.39440952 47.000000000 0.4800000191 2.1006999016 0.6999999881 0.6999999881  -999.250000
 900.44012952 46.069999695 0.4199999869 2.1571998596 0.6999999881 0.6999999881  -999.250000
 900.48584952  -999.250000  -999.250000  -999.250000  -999.250000  -999.250000  -999.250000
 900.53156952 44.709999084 0.4000000060 2.1723001003 0.6999999881 0.6999999881  -999.250000
 900.57728952 47.029998779 0.4000000060 2.1621000767 0.6999999881 0.6999999881  -999.250000
 900.62300952 49.119998932 0.4300000072 2.1559000015 0.6999999881 0.6999999881  -999.250000
 900.66872952 49.439998627 0.4599999785 2.1618998051 0.6999999881 0.6999999881  -999.250000
 900.71444952 51.590000153 0.4099999964 2.1619999409 0.6999999881 0.6999999881  -999.250000
 900.76016952 51.139999390 0.2599999905 2.1382000446 0.6000000238 0.6000000238  -999.250000
 900.80588952 50.930000305 0.1799999923 2.1019999981 0.6000000238 0.6000000238  -999.250000
 900.85160952 54.759998322 0.2199999988 2.0801000595 0.6000000238 0.6000000238  -999.250000
 900.89732952 55.569999695 0.3499999940 2.0629999638 0.6000000238 0.6000000238  -999.250000
 900.94304952 53.740001678 0.4399999976 2.0273001194 0.6000000238 0.6000000238  -999.250000
 900.98876952 52.279998779 0.4300000072 2.0155999660 0.6000000238 0.6000000238  -999.250000
 901.03448952 49.229999542 0.4099999964 2.0327999592 0.6000000238 0.6000000238  -999.250000
 901.08020952 47.720001221 0.4399999976 2.0490000248 0.6000000238 0.6000000238  -999.250000
 901.12592952 45.490001678 0.4800000191 2.0733001232 0.5000000000 0.6000000238  -999.250000
 901.17164952 45.509998322 0.5000000000 2.1428000927 0.5000000000 0.5000000000  -999.250000
 901.21736952 43.319999695 0.4699999690 2.1447000504 0.5000000000 0.5000000000  -999.250000
 901.26308952 43.369998932 0.4399999976 2.1373000145 0.5000000000 0.5000000000  -999.250000
 901.30880952 46.020000458 0.4699999690 2.1671998501 0.5000000000 0.5000000000  -999.250000
 901.35452952 45.740001678 0.4599999785 2.1331000328 0.5000000000 0.5000000000  -999.250000
 901.40024952 50.369998932 0.4499999881 2.1219999790 0.5000000000 0.5000000000  -999.250000
 901.44596952 53.680000305 0.4599999785 2.1324999332 0.5000000000 0.5000000000  -999.250000
 901.49168952 56.169998169 0.4499999881 2.0989999771 0.5000000000 0.5000000000  -999.250000
 901.53740952 52.790000916 0.4199999869 2.1061000824 0.5000000000 0.5000000000  -999.250000
 901.58312952 46.950000763 0.4199999869 2.1445000172 0.5000000000 0.5000000000  -999.250000
 901.62884952 48.720001221 0.4800000191 2.0826001167 0.6000000238 0.6000000238  -999.250000
 901.67456952 48.860000610 0.4699999690 2.0559999943 0.6000000238 0.6000000238  -999.250000
 901.72028952 47.590000153 0.4499999881 2.1407999992 0.6000000238 0.6000000238  -999.250000
 901.76600952 51.000000000 0.4499999881 2.1696999073 0.6000000238 0.6000000238  -999.250000
 901.81172952 53.450000763 0.4499999881 2.1517000198 0.6000000238 0.6000000238  -999.250000
 901.85744952 57.110000610 0.4599999785 2.1400001049 0.6000000238 0.6000000238  -999.250000
 901.90316952 58.020000458 0.4699999690 2.1259999275 0.6000000238 0.6000000238  -999.250000
 901.94888952 53.000000000 0.4499999881 2.1421999931 0.6000000238 0.6000000238  -999.250000
 901.99460952 48.490001678 0.4199999869 2.1925001144 0.6000000238 0.6000000238  -999.250000
 902.04032952 49.459999084 0.4300000072 2.2133998871 0.6000000238 0.6000000238  -999.250000
 902.08604952 53.380001068 0.4699999690 2.1783998013 0.6000000238 0.6000000238  -999.250000
 902.13176952 58.419998169 0.4699999690 2.1429998875 0.6000000238 0.6000000238  -999.250000
 902.17748952 61.790000916 0.4800000191 2.1408998966 0.6000000238 0.6000000238  -999.250000
 902.22320952 61.970001221 0.5300000310 2.1558001041 0.6000000238 0.6000000238  -999.250000
 902.26892952 64.080001831 0.5199999809 2.1594998837 0.6000000238 0.6000000238  -999.250000
 902.31464952 66.319999695 0.4399999976 1.9523000717 0.6000000238 0.6000000238  -999.250000
 902.36036952 67.419998169 0.4000000060 1.2975000143 0.6000000238 0.6000000238  -999.250000
 902.40608952 63.270000458 0.4399999976 0.8626999855 0.5000000000 0.6000000238  -999.250000
 902.45180952 57.250000000 0.4800000191 1.3331999779 0.5000000000 0.5000000000  -999.250000
 902.49752952 51.349998474 0.4800000191 1.9874999523 0.5000000000 0.5000000000  -999.250000
 902.54324952 49.560001373 0.4699999690 2.1666998863 0.5000000000 0.5000000000  -999.250000
 902.58896952 52.139999390 0.4599999785 2.1649999619 0.5000000000 0.5000000000  -999.250000
 902.63468952 59.310001373 0.4499999881 2.1568000317 0.5000000000 0.5000000000  -999.250000
 902.68040952 65.250000000 0.4699999690 2.1389999390 0.5000000000 0.5000000000  -999.250000
 902.72612952 68.330001831 0.4900000095 2.1336998940 0.5000000000 0.5000000000  -999.250000
 902.77184952 64.370002747 0.4900000095 2.1338999271 0.4000000060 0.5000000000  -999.250000
 902.81756952 63.380001068 0.5099999905 2.1328999996 0.4000000060 0.5000000000  -999.250000
 902.86328952 66.230003357 0.4900000095 2.1306002140 0.5000000000 0.5000000000  -999.250000
