# LAS format log file from PETREL
# Project units are specified as depth units
#==================================================================
~Version information
VERS.   2.0:
WRAP.   NO:
#==================================================================
~Well
STRT .m      189.89040000 :
STOP .m      3795.0648000 :
STEP .m     0.15240000 :
NULL .        -999.250000 :
COMP.           : COMPANY
WELL.  15_9-F-5   : WELL
FLD.            : FIELD
LOC.            : LOCATION
SRVC.           : SERVICE COMPANY
DATE.  2020-08-19 21:46:58   : Log Export Date {yyyy-MM-dd HH:mm:ss}
PROV.           : PROVINCE
UWI.   15_9-F-5   : UNIQUE WELL ID
API.            : API NUMBER
#==================================================================
~Curve
DEPT .m                   : DEPTH
RHOB .g/cm3               : RHOB
GR .gAPI                  : GR
RT .ohm.m                 : RT
NPHI .m3/m3               : NPHI
RM .ohm.m                 : RM
FACIES ._                 : FACIES
~Parameter
#==================================================================
~Ascii
# ...
 3146.6028000 2.5807809830 16.299280167 3.2015180588 0.1000802070 3.1907119751  -999.250000
 3146.7552000 2.5795500278 18.112419128 3.2479970455 0.1126607060 3.2369899750  -999.250000
 3146.9076000 2.5787239075 19.893890381 3.4162950516 0.1019793004 3.4444010258  -999.250000
 3147.0600000 2.5860168934 21.451480865 3.3952810764 0.0945504680 3.4206080437  -999.250000
 3147.2124000 2.5946528912 20.180599213 3.3720409870 0.1004348025 3.3927409649  -999.250000
 3147.3648000 2.5882880688 18.755470276 3.4126219749 0.1029036045 3.3936040401  -999.250000
 3147.5172000 2.5734341145 16.090660095 3.3934719563 0.1081849933 3.3902590275  -999.250000
 3147.6696000 2.5617001057 16.568069458 3.3656759262 0.1049937978 3.3620378971  -999.250000
 3147.8220000 2.5720219612 21.329059601 3.5655529499 0.1112117991 3.3883531094  -999.250000
 3147.9744000 2.5814409256 25.911640167 3.7958478928 0.1071977019 3.3998150826  -999.250000
 3148.1268000 2.5898959637 28.542449951 3.4221749306 0.0999507830 3.3180301189  -999.250000
 3148.2792000 2.5844759941 27.604299545 3.5296769142 0.1011122018 3.3936920166  -999.250000
 3148.4316000 2.5814840794 25.720300674 3.4609839916 0.1097678021 3.3596260548  -999.250000
 3148.5840000 2.5817680359 25.512790680 3.4301669598 0.1247126013 3.4285418987  -999.250000
 3148.7364000 2.5778229237 25.263759613 4.1176018715 0.1100737005 3.8513450623  -999.250000
 3148.8888000 2.5737180710 24.186859131 3.5877380371 0.1058629975 3.5271289349  -999.250000
 3149.0412000 2.5727140903 22.292379379 3.6117129326 0.1016567051 3.5677969456  -999.250000
 3149.1936000 2.5788359642 20.866239548 3.6439390182 0.1108226031 3.6715970039  -999.250000
 3149.3460000 2.5829219818 20.273529053 3.8073348999 0.0958854184 3.7705340385  -999.250000
 3149.4984000 2.5844240189 20.063850403 3.7301049232 0.1087786034 3.8035440445  -999.250000
 3149.6508000 2.5832560062 20.381269455 3.8307449818 0.1046523973 3.8585519791  -999.250000
 3149.8032000 2.5840950012 20.598480225 3.8980150223 0.1018498987 3.9252500534  -999.250000
 3149.9556000 2.5866429806 21.671529770 3.9125280380 0.1074436009 3.9025270939  -999.250000
 3150.1080000 2.5978589058 22.171590805 3.9313840866 0.1001943052 3.9351370335  -999.250000
 3150.2604000 2.6045730114 23.379020691 3.9689071178 0.1015693024 3.9386339188  -999.250000
 3150.4128000 2.6105089188 22.742670059 4.0120081902 0.0959711671 3.9452810287  -999.250000
 3150.5652000 2.6042890549 20.579849243 4.0038971901 0.1114090979 3.9346370697  -999.250000
 3150.7176000 2.5984349251 18.351470947 4.0035948753 0.1134235933 3.9189219475  -999.250000
 3150.8700000 2.5922830105 19.124179840 3.9690430164 0.1137667000 3.8599190712  -999.250000
 3151.0224000 2.5910658836 19.215019226 3.9805889130 0.1108541042 3.8640859127  -999.250000
 3151.1748000 2.5870430470 19.679040909 4.0301890373 0.1108106077 3.9225299358  -999.250000
 3151.3272000 2.5893650055 16.570129395 3.9978940487 0.1082542017 3.9241740704  -999.250000
 3151.4796000 2.5820219517 15.656279564 4.2006039619 0.1030004025 4.1526160240  -999.250000
 3151.6320000 2.5810649395 14.925120354 4.2787761688 0.0996466577 4.2613148689  -999.250000
 3151.7844000 2.5749850273 15.425950050 4.3206157684 0.0968879685 4.2924251556  -999.250000
 3151.9368000 2.5827898979 14.559630394 4.4113860130 0.0953242853 4.3970880508  -999.250000
 3152.0892000 2.5936601162 14.798780441 4.5456800461 0.0940608531 4.5615057945  -999.250000
 3152.2416000 2.6011281013 15.108320236 4.6967830658 0.0904041305 4.6694989204  -999.250000
 3152.3940000 2.6071710587 16.467090607 4.8051700592 0.0835041553 4.7541108131  -999.250000
 3152.5464000 2.6101589203 15.125570297 4.8685908318 0.0855086222 4.8487391472  -999.250000
 3152.6988000 2.6094229221 13.455419540 4.9248118401 0.0857619271 4.9785809517  -999.250000
 3152.8512000 2.6041979790 13.352950096 5.0245571136 0.0869352818 5.0807671547  -999.250000
 3153.0036000 2.6008319855 14.053230286 5.1804580688 0.0873037800 5.1851739883  -999.250000
 3153.1560000 2.6048099995 13.775369644 5.1935420036 0.0874713883 5.3866271973  -999.250000
 3153.3084000 2.6070830822 13.082699776 5.3431639671 0.0847776234 5.3438258171  -999.250000
 3153.4608000 2.6053919792 13.200429916 5.3532972336 0.0904606655 5.3461937904  -999.250000
 3153.6132000 2.6029269695 14.450220108 5.5366439819 0.0920363441 5.3974747658  -999.250000
 3153.7656000 2.6013391018 13.559419632 5.8598971367 0.0860870332 5.4743800163  -999.250000
 3153.9180000 2.6056399345 12.602660179 5.6648769379 0.0843261629 5.5176968575  -999.250000
 3154.0704000 2.6047639847 12.193719864 5.3222799301 0.0855819881 5.3120408058  -999.250000
 3154.2228000 2.6037099361 13.123240471 5.3679981232 0.0859530270 5.3198461533  -999.250000
 3154.3752000 2.6027820110 13.522270203 5.3348259926 0.0829483792 5.2823510170  -999.250000
 3154.5276000 2.6063170433 13.098050117 5.2863049507 0.0868462399 5.2935791016  -999.250000
 3154.6800000 2.6060929298 11.855620384 5.2816810608 0.0811715499 5.2706570625  -999.250000
 3154.8324000 2.6016399860 10.703689575 5.2941150665 0.0827743262 5.1955189705  -999.250000
 3154.9848000 2.5959520340 10.558529854 5.1705861092 0.0835093334 5.1232061386  -999.250000
 3155.1372000 2.5937640667 10.912690163 5.2090830803 0.0821689144 5.1130599976  -999.250000
 3155.2896000 2.5955650806 11.896989822 5.2248811722 0.0841009542 5.1032657623  -999.250000
 3155.4420000 2.5939860344 12.036439896 5.1883559227 0.0837409496 5.1026420593  -999.250000
 3155.5944000 2.5958800316 12.542719841 5.1729578972 0.0833223909 5.0767321587  -999.250000
 3155.7468000 2.5923430920 12.609290123 5.2123122215 0.0896207392 5.0513520241  -999.250000
 3155.8992000 2.5906350613 12.447799683 5.2536940575 0.0949795246 5.0928521156  -999.250000
 3156.0516000 2.5884559155 11.992460251 5.3314051628 0.0914743990 5.1715159416  -999.250000
 3156.2040000 2.5852420330 11.986760139 5.2457890511 0.0911649913 5.1959538460  -999.250000
 3156.3564000 2.5890779495 12.076239586 5.3418211937 0.0896137878 5.2333950996  -999.250000
 3156.5088000 2.5902769566 12.377369881 5.2958989143 0.0887476429 5.2904968262  -999.250000
 3156.6612000 2.5939400196 12.153140068 5.3991389275 0.0913509354 5.3626379967  -999.250000
 3156.8136000 2.5964200497 12.987219810 5.4163751602 0.0846067891 5.3907079697  -999.250000
 3156.9660000 2.5967969894 12.945750237 5.4777898788 0.0803990960 5.4889311790  -999.250000
 3157.1184000 2.5988430977 12.893460274 5.5165910721 0.0805728808 5.5624938011  -999.250000
 3157.2708000 2.5963439941 12.177510262 5.4801530838 0.0797906518 5.5775728226  -999.250000
 3157.4232000 2.5980329514 12.820249557 5.6084890366 0.0827752203 5.5802168846  -999.250000
 3157.5756000 2.5962860584 13.705470085 5.6296048164 0.0838348866 5.6427459717  -999.250000
 3157.7280000 2.5994300842 16.303400040 5.6393451691 0.0898985416 5.6542940140  -999.250000
 3157.8804000 2.5993449688 17.679100037 5.7142682076 0.0919470862 5.7193360329  -999.250000
 3158.0328000 2.6050269604 19.085580826 5.8125629425 0.0887011141 5.6853079796  -999.250000
 3158.1852000 2.6044900417 18.816659927 5.7087869644 0.0922114253 5.6683578491  -999.250000
 3158.3376000 2.6047649384 19.084119797 5.6419382095 0.0812792853 5.5457978249  -999.250000
 3158.4900000 2.5989539623 18.548019409 5.5319910049 0.0725037456 5.5571289063  -999.250000
 3158.6424000 2.5978150368 18.483320236 5.4919319153 0.0804135203 5.5057721138  -999.250000
 3158.7948000 2.5970060825 18.123609543 5.5191488266 0.0857258216 5.4751691818  -999.250000
 3158.9472000 2.5964329243 17.663179398 5.4066481590 0.0884070024 5.4115118980  -999.250000
 3159.0996000 2.5960969925 15.914270401 5.2855157852 0.0849899873 5.3511219025  -999.250000
 3159.2520000 2.5923221111 15.418230057 5.1010169983 0.0933899581 5.2458109856  -999.250000
 3159.4044000 2.5910670757 15.403109550 5.2172799110 0.0924149603 5.1991500854  -999.250000
 3159.5568000 2.5889229774 16.029859543 5.0070028305 0.0873414725 5.0754270554  -999.250000
 3159.7092000 2.5929999352 16.219020844 4.9991979599 0.0885770619 4.8931798935  -999.250000
