# LAS format log file from PETREL
# Project units are specified as depth units
#==================================================================
~Version information
VERS.   2.0:
WRAP.   NO:
#==================================================================
~Well
STRT .m      189.89040000 :
STOP .m      3795.0648000 :
STEP .m     0.15240000 :
NULL .        -999.250000 :
COMP.           : COMPANY
WELL.  15_9-F-5   : WELL
FLD.            : FIELD
LOC.            : LOCATION
SRVC.           : SERVICE COMPANY
DATE.  2020-08-19 21:46:58   : Log Export Date {yyyy-MM-dd HH:mm:ss}
PROV.           : PROVINCE
UWI.   15_9-F-5   : UNIQUE WELL ID
API.            : API NUMBER
#==================================================================
~Curve
DEPT .m                   : DEPTH
RHOB .g/cm3               : RHOB
GR .gAPI                  : GR
RT .ohm.m                 : RT
NPHI .m3/m3               : NPHI
RM .ohm.m                 : RM
FACIES ._                 : FACIES
~Parameter
#==================================================================
~Ascii
# ...
 3716.7312000 2.6601970196 30.253879547 5.8572897911 0.0695780814 6.3890252113  -999.250000
 3716.8836000 2.6603379250 31.237909317 5.8587632179 0.0736191496 6.3432178497  -999.250000
 3717.0360000 2.6547470093 33.602241516 5.9704880714 0.0711202398 6.3217301369  -999.250000
 3717.1884000 2.6542530060 34.831130981 5.8717770576 0.0709448457 6.2796721458  -999.250000
 3717.3408000 2.6478281021 35.188930511 5.9420838356 0.0670624599 6.2965397835  -999.250000
 3717.4932000 2.6520531178 33.362438202 6.0390291214 0.0701523423 6.3316359520  -999.250000
 3717.6456000 2.6566309929 33.420360565 6.3681697845 0.0665996671 6.3521828651  -999.250000
 3717.7980000 2.6890230179 34.026260376 6.4535298347 0.0592881590 6.5672078133  -999.250000
 3717.9504000 2.6966960430 36.210468292 6.7261028290 0.0636360347 6.7292351723  -999.250000
 3718.1028000 2.7027630806 36.054691315 6.7695817947 0.0640490577 6.8312802315  -999.250000
 3718.2552000 2.6908900738 37.141338348 6.9697761536 0.0608970895 6.9443101883  -999.250000
 3718.4076000 2.6939330101 35.496990204 7.6171112061 0.0609733090 7.3030748367  -999.250000
 3718.5600000 2.6855440140 36.450828552 8.0866632462 0.0634964406 7.6709427834  -999.250000
 3718.7124000 2.6700930595 35.097450256 7.5019249916 0.0685098618 7.8014311790  -999.250000
 3718.8648000 2.6634259224 35.651710510 7.5342960358 0.0700109452 7.7099170685  -999.250000
 3719.0172000 2.6803650856 35.415931702 7.3924608231 0.0658821836 7.8351011276  -999.250000
 3719.1696000 2.6750380993 36.631629944 7.0027599335 0.0701429173 7.6200227737  -999.250000
 3719.3220000 2.6480019093 36.455139160 6.4342951775 0.0804764926 6.8966999054  -999.250000
 3719.4744000 2.5983450413 35.961208344 5.7128539085 0.0842581466 6.4125790596  -999.250000
 3719.6268000 2.5750889778 35.827548981 5.1638197899 0.0879512429 5.8888120651  -999.250000
 3719.7792000 2.5732250214 37.400051117 4.8386850357 0.0862909779 5.3232660294  -999.250000
 3719.9316000 2.5819480419 38.559669495 4.5550618172 0.0920616314 4.3738207817  -999.250000
 3720.0840000 2.5758950710 39.277030945 4.6541328430 0.0917241499 3.8138380051  -999.250000
 3720.2364000 2.5333878994 41.301448822 4.0967831612 0.1130527034 3.5000450611  -999.250000
 3720.3888000 2.4689230919 43.067401886 3.6558508873 0.1360204071 3.1659400463  -999.250000
 3720.5412000 2.4226160049 44.660869598 3.0736179352 0.1476935893 2.7790720463  -999.250000
 3720.6936000 2.3987269402 46.552730560 2.7500729561 0.1574919075 2.5399510860  -999.250000
 3720.8460000 2.4352939129 50.629508972 2.6328039169 0.1827524006 2.4094860554  -999.250000
 3720.9984000 2.5118649006 54.245960236 2.3024489880 0.1577326953 2.3611760139  -999.250000
 3721.1508000 2.6240639687 53.444030762 2.3026840687 0.1162488014 2.2537310123  -999.250000
 3721.3032000 2.6880490780 47.434898376 1.9202769995 0.1072920039 2.0467450619  -999.250000
 3721.4556000 2.6822910309 39.465610504 1.8409689665 0.1077497005 1.7726010084  -999.250000
 3721.6080000 2.6524100304 34.997459412 1.7067300081 0.1051300988 1.5325479507  -999.250000
 3721.7604000 2.5791299343 31.623119354 1.3840459585 0.1082524955 1.3316090107  -999.250000
 3721.9128000 2.5095789433 29.741430283 1.2416069508 0.1139430031 1.0871870518  -999.250000
 3722.0652000 2.4597980976 27.432270050 1.1109800339 0.1380162984 0.9156311154  -999.250000
 3722.2176000 2.4263520241 26.533050537 0.9421513081 0.1614201963 0.7661587000  -999.250000
 3722.3700000 2.4035789967 25.268100739 0.6731519103 0.1699052006 0.6125543714  -999.250000
 3722.5224000 2.3873090744 24.307180405 0.5746746063 0.1659054905 0.5361233950  -999.250000
 3722.6748000 2.3760700226 21.373300552 0.5261769295 0.1688275933 0.4868691862  -999.250000
 3722.8272000 2.3717880249 20.011020660 0.4660946131 0.1737241000 0.4560702145  -999.250000
 3722.9796000 2.3680760860 17.558059692 0.4807819128 0.1739878058 0.4684996903  -999.250000
 3723.1320000 2.3691220284 19.814140320 0.4594855905 0.1721040010 0.4424391091  -999.250000
 3723.2844000 2.3709459305 20.681589127 0.4278880060 0.1769364923 0.4378297925  -999.250000
 3723.4368000 2.3726649284 22.949459076 0.4301278889 0.1705340892 0.4541591108  -999.250000
 3723.5892000 2.3691120148 23.787939072 0.4727197886 0.1763211042 0.4566543102  -999.250000
 3723.7416000 2.3605480194 25.711799622 0.4859719872 0.1835372895 0.4354876876  -999.250000
 3723.8940000 2.3536200523 25.899459839 0.5796797872 0.1868608147 0.4367608130  -999.250000
 3724.0464000 2.3546829224 25.109989166 0.6214482188 0.1799385101 0.4810482860  -999.250000
 3724.1988000 2.3606829643 25.151720047 0.6818087101 0.1737373918 0.5283802748  -999.250000
 3724.3512000 2.3666110039 24.743730545 0.6287661195 0.1835236996 0.5393623114  -999.250000
 3724.5036000 2.3709139824 23.507160187 0.5912672877 0.1727650017 0.5308961868  -999.250000
 3724.6560000 2.3664679527 20.813579559 0.6843727827 0.1704487056 0.5710620880  -999.250000
 3724.8084000 2.3651170731 19.571269989 1.0667569637 0.1760069132 0.7192083001  -999.250000
 3724.9608000 2.3621640205 19.889089584 1.1976259947 0.1724974960 0.8326501846  -999.250000
 3725.1132000 2.3689529896 21.346389771 1.4110540152 0.1617283076 1.0412770510  -999.250000
 3725.2656000 2.3709080219 24.658489227 1.5946780443 0.1669982970 1.1438670158  -999.250000
 3725.4180000 2.3727030754 27.754909515 1.9098269939 0.1727820933 1.3083399534  -999.250000
 3725.5704000 2.3765718937 30.916320801 2.3122479916 0.1745177060 1.4372830391  -999.250000
 3725.7228000 2.3853640556 32.521709442 2.1583418846 0.1740254909 1.4555029869  -999.250000
 3725.8752000 2.3889889717 32.735069275 2.2242801189 0.1657271981 1.5298709869  -999.250000
 3726.0276000 2.3825249672 32.271530151 2.4590680599 0.1760803014 1.4657579660  -999.250000
 3726.1800000 2.3643450737 29.264690399 2.3287320137 0.1876436025 1.4994380474  -999.250000
 3726.3324000 2.3457450867 27.285430908 2.4061748981 0.1899807900 1.5840489864  -999.250000
 3726.4848000 2.3332901001 25.596780777 2.5715010166 0.2126507014 1.9184180498  -999.250000
 3726.6372000 2.3328440189 28.449220657 3.2204380035 0.1997410953 2.7052750587  -999.250000
 3726.7896000 2.3413119316 29.606599808 2.9775578976 0.2086389959 3.8517251015  -999.250000
 3726.9420000 2.3609359264 33.263851166 3.5504410267 0.2068371922 3.8693048954  -999.250000
 3727.0944000 2.3884971142 39.453578949 4.8155231476 0.1992090940 3.8654959202  -999.250000
 3727.2468000 2.4323129654 50.607368469 4.6870341301 0.2089734972 4.2456498146  -999.250000
 3727.3992000 2.4796719551 60.219608307 6.6370129585 0.1860288084 5.3440737724  -999.250000
 3727.5516000 2.5226800442 64.426277161 6.7393879890 0.1891023070 4.6512441635  -999.250000
 3727.7040000 2.5569090843 66.633590698 5.2094101906 0.1783042848 4.1317272186  -999.250000
 3727.8564000 2.5872380733 65.612716675 4.1589031219 0.1720276028 3.4265859127  -999.250000
 3728.0088000 2.5952689648 63.421329498 4.2248191833 0.1574330032 2.9966139793  -999.250000
 3728.1612000 2.6025140285 60.963291168 3.9132978916 0.1387427002 2.7720539570  -999.250000
 3728.3136000 2.5979270935 57.635311127 3.7428009510 0.1330679953 2.5705370903  -999.250000
 3728.4660000 2.5912239552 57.608379364 3.0343809128 0.1273351014 2.3962750435  -999.250000
 3728.6184000 2.5794169903 54.736370087 3.0517420769 0.1225180998 2.2621428967  -999.250000
 3728.7708000 2.5623469353 53.517730713 2.9035809040 0.1231890991 2.1952641010  -999.250000
 3728.9232000 2.5500180721 49.704299927 2.7478940487 0.1135914028 2.3350210190  -999.250000
 3729.0756000 2.5398778915 46.796661377 2.7352108955 0.1101043001 2.4236528873  -999.250000
 3729.2280000 2.5247418880 46.008129120 2.9752008915 0.1026352048 2.5118319988  -999.250000
 3729.3804000 2.5217719078 45.389431000 3.0473239422 0.1103197038 2.7657060623  -999.250000
 3729.5328000 2.5117330551 48.700489044 3.2391049862 0.1056669056 2.9544920921  -999.250000
 3729.6852000 2.5188059807 51.725788116 3.4723620415 0.1117694005 3.2489030361  -999.250000
 3729.8376000 2.5156190395 58.501628876 3.1701030731 0.1121319979 3.0131568909  -999.250000
