# LAS format log file from PETREL
# Project units are specified as depth units
#==================================================================
~Version information
VERS.   2.0:
WRAP.   NO:
#==================================================================
~Well
STRT .m      -0.015270480 :
STOP .m      1245.8090095 :
STEP .m     0.04572000 :
NULL .        -999.250000 :
COMP.           : COMPANY
WELL.  15_9-19 A   : WELL
FLD.            : FIELD
LOC.            : LOCATION
SRVC.           : SERVICE COMPANY
DATE.  2020-08-19 21:46:58   : Log Export Date {yyyy-MM-dd HH:mm:ss}
PROV.           : PROVINCE
UWI.   15_9-19 A   : UNIQUE WELL ID
API.            : API NUMBER
#==================================================================
~Curve
DEPT .m                   : DEPTH
GR .gAPI                  : GR
NPHI .m3/m3               : NPHI
RHOB .g/cm3               : RHOB
RM .ohm.m                 : RM
RT .ohm.m                 : RT
FACIES ._                 : FACIES
~Parameter
#==================================================================
~Ascii
# ...
 1014.2829295 17.450000763 0.1400000006 2.5666999817 3.2000000477 3.2999999523  -999.250000
 1014.3286495 15.920000076 0.1299999952 2.5776998997 3.2000000477 3.2999999523  -999.250000
 1014.3743695 16.569999695 0.1200000048 2.5840001106 3.2999999523 3.4000000954  -999.250000
 1014.4200895 20.329999924 0.1099999994 2.5727000237 3.5999999046 3.5999999046  -999.250000
 1014.4658095 21.950000763 0.1000000015 2.5593998432 4.0000000000 3.7000000477  -999.250000
 1014.5115295 23.000000000 0.0899999961 2.5690000057 4.1999998093 3.7999999523  -999.250000
 1014.5572495 22.940000534 0.0899999961 2.5652999878 4.3000001907 3.9000000954  -999.250000
 1014.6029695 20.299999237 0.0799999982 2.5680000782 4.1999998093 3.9000000954  -999.250000
 1014.6486895 13.189999580 0.0799999982 2.5875999928 4.3000001907 3.9000000954  -999.250000
 1014.6944095 8.6199998856 0.0799999982 2.6047999859 4.5999999046 4.0000000000  -999.250000
 1014.7401295 8.3299999237 0.0799999982 2.5981001854 4.9000000954 4.0999999046  -999.250000
 1014.7858495 9.3900003433 0.0799999982 2.5863001347 5.0999999046 4.1999998093  -999.250000
 1014.8315695 10.100000381 0.0799999982 2.6038000584 5.1999998093 4.1999998093  -999.250000
 1014.8772895 10.649999619 0.0799999982 2.6231999397 5.0999999046 4.1999998093  -999.250000
 1014.9230095 10.319999695 0.0799999982 2.5873000622 5.0000000000 4.1999998093  -999.250000
 1014.9687295 9.6899995804 0.0899999961 2.5527999401 4.9000000954 4.3000001907  -999.250000
 1015.0144495 9.3299999237 1.6200001240 2.5415000916 4.8000001907 4.3000001907  -999.250000
 1015.0601695 9.2600002289 3.9599997997 2.5281000137 4.8000001907 4.3000001907  -999.250000
 1015.1058895 8.8400001526 2.7200000286 2.5144000053 4.6999998093 4.3000001907  -999.250000
 1015.1516095 7.6799998283 2.9200000763 2.5161001682 4.6999998093 4.3000001907  -999.250000
 1015.1973295 7.2800002098 2.8299999237 2.5220000744 4.6999998093 4.3000001907  -999.250000
 1015.2430495 7.2300000191 1.2999999523 2.5553998947 4.5999999046 4.1999998093  -999.250000
 1015.2887695 6.3899998665 0.0899999961 2.4593999386 4.0999999046 3.5999999046  -999.250000
 1015.3344895 5.3000001907 0.1299999952 2.4941999912 2.9000000954 2.7999999523  -999.250000
 1015.3802095 5.5799999237 0.1400000006 2.4176001549 2.0999999046 2.2000000477  -999.250000
 1015.4259295 6.6900000572 0.1500000060 2.4478001595 2.0000000000 2.0999999046  -999.250000
 1015.4716495 7.2899999619 0.1500000060 2.4551999569 2.0000000000 2.0999999046  -999.250000
 1015.5173695 6.9400000572 0.1500000060 2.4558000565 2.0000000000 2.0999999046  -999.250000
 1015.5630895 7.0599999428 0.1400000006 2.4603998661 2.0999999046 2.0999999046  -999.250000
 1015.6088095 7.1700000763 0.1400000006 2.4633998871 2.0999999046 2.0999999046  -999.250000
 1015.6545295 7.4099998474 0.1400000006 2.4688000679 2.0999999046 2.0999999046  -999.250000
 1015.7002495 6.5500001907 0.1299999952 2.4846000671 2.0999999046 2.0999999046  -999.250000
 1015.7459695 7.2199997902 0.1299999952 2.4893999100 2.0999999046 2.0999999046  -999.250000
 1015.7916895 7.4499998093 0.1299999952 2.4865000248 2.0999999046 2.0000000000  -999.250000
 1015.8374095 6.2600002289 0.1200000048 2.4873998165 2.0999999046 2.0000000000  -999.250000
 1015.8831295 7.0700001717 0.1200000048 2.5002999306 2.0000000000 2.0000000000  -999.250000
 1015.9288495 6.7300000191 0.1200000048 2.4998998642 2.0000000000 2.0000000000  -999.250000
 1015.9745695 6.6100001335 0.1200000048 2.4693000317 2.0000000000 2.0000000000  -999.250000
 1016.0202895 6.2199997902 0.1200000048 2.4525001049 2.0000000000 2.0000000000  -999.250000
 1016.0660095 5.8099999428 0.1200000048 2.4498999119 2.0999999046 2.0000000000  -999.250000
 1016.1117295 6.5999999046 0.1200000048 2.4519000053 2.0999999046 2.0000000000  -999.250000
 1016.1574495 6.4200000763 0.1299999952 2.4513001442 2.0999999046 2.0000000000  -999.250000
 1016.2031695 5.6599998474 0.1299999952 2.4551999569 2.0999999046 2.0000000000  -999.250000
 1016.2488895 5.3499999046 0.1299999952 2.4543001652 2.0999999046 2.0999999046  -999.250000
 1016.2946095 5.5799999237 0.1299999952 2.4578998089 2.0999999046 2.0999999046  -999.250000
 1016.3403295 6.3000001907 0.1299999952 2.4736001492 2.2000000477 2.0999999046  -999.250000
 1016.3860495 5.4899997711 0.1299999952 2.5016999245 2.2000000477 2.0999999046  -999.250000
 1016.4317695 5.8099999428 0.1200000048 2.5167000294 2.2999999523 2.2000000477  -999.250000
 1016.4774895 6.6799998283 0.1099999994 2.5251998901 2.4000000954 2.2999999523  -999.250000
 1016.5232095 6.5799999237 0.1099999994 2.1463000774 2.5999999046 2.4000000954  -999.250000
 1016.5689295 6.4800000191 0.1000000015 1.2389000654 2.7999999523 2.5000000000  -999.250000
 1016.6146495  -999.250000  -999.250000  -999.250000  -999.250000  -999.250000  -999.250000
 1016.6603695 6.4800000191 0.1000000015 -0.008800000 3.0000000000 2.5999999046  -999.250000
 1016.7060895 6.4699997902 0.1000000015 1.2645999193 3.0999999046 2.5999999046  -999.250000
 1016.7518095 6.2100000381 0.1000000015 2.0234000683 3.0999999046 2.7000000477  -999.250000
 1016.7975295 5.6300001144 0.0899999961 2.1229999065 3.2000000477 2.7000000477  -999.250000
 1016.8432495 5.5000000000 0.0899999961 1.9638999701 3.2000000477 2.7000000477  -999.250000
 1016.8889695 5.6799998283 0.0899999961 2.2953999043 3.2999999523 2.7999999523  -999.250000
 1016.9346895 6.6100001335 0.0899999961 2.5144999027 3.4000000954 2.9000000954  -999.250000
 1016.9804095 6.7800002098 0.0899999961 2.5539999008 3.5000000000 3.0000000000  -999.250000
 1017.0261295 7.4000000954 0.1000000015 2.5418999195 3.5999999046 3.0000000000  -999.250000
 1017.0718495 7.5700001717 0.1000000015 2.5248000622 3.7000000477 3.0999999046  -999.250000
 1017.1175695 7.0100002289 0.1000000015 2.5099999905 3.5999999046 3.0999999046  -999.250000
 1017.1632895 5.1799998283 0.1000000015 2.4967999458 3.5000000000 3.0000000000  -999.250000
 1017.2090095 5.0399999619 0.1000000015 2.5083999634 3.4000000954 3.0000000000  -999.250000
 1017.2547295 6.4000000954 0.1000000015 2.5353999138 3.4000000954 3.0000000000  -999.250000
 1017.3004495 6.3400001526 0.1000000015 2.5557000637 3.2999999523 3.0000000000  -999.250000
 1017.3461695 6.2199997902 0.1000000015 2.5518999100 3.2999999523 3.0000000000  -999.250000
 1017.3918895 6.3800001144 0.0899999961 2.5421998501 3.4000000954 3.0000000000  -999.250000
 1017.4376095 5.3899998665 0.0899999961 2.5266001225 3.5000000000 3.0999999046  -999.250000
 1017.4833295 5.1500000954 0.0899999961 2.5191001892 3.5999999046 3.0999999046  -999.250000
 1017.5290495 6.5500001907 0.0899999961 2.5236001015 3.7000000477 3.2000000477  -999.250000
 1017.5747695 7.1700000763 0.0899999961 2.5378999710 3.7000000477 3.2000000477  -999.250000
 1017.6204895 6.1300001144 0.0899999961 2.5490000248 3.7000000477 3.2000000477  -999.250000
 1017.6662095 5.1999998093 0.0899999961 2.5436999798 3.7000000477 3.2000000477  -999.250000
 1017.7119295 5.1100001335 0.0899999961 2.5436000824 3.5999999046 3.2000000477  -999.250000
 1017.7576495 5.8499999046 0.0899999961 2.5494999886 3.5999999046 3.2000000477  -999.250000
 1017.8033695 5.3200001717 0.0899999961 2.5556001663 3.5000000000 3.0999999046  -999.250000
 1017.8490895 5.3899998665 0.1000000015 2.5486001968 3.4000000954 3.0999999046  -999.250000
 1017.8948095 6.6399998665 0.1000000015 2.5218999386 3.4000000954 3.0999999046  -999.250000
 1017.9405295 7.4200000763 0.1099999994 2.5046999454 3.2999999523 3.0000000000  -999.250000
 1017.9862495 7.4000000954 0.1099999994 2.5062999725 3.2999999523 3.0000000000  -999.250000
 1018.0319695 6.8200001717 0.1000000015 2.5204999447 3.2000000477 3.0000000000  -999.250000
 1018.0776895 7.3899998665 0.1000000015 2.5276999474 3.2000000477 3.0000000000  -999.250000
 1018.1234095 7.6399998665 0.1000000015 2.5171000957 3.2000000477 3.0000000000  -999.250000
 1018.1691295 5.9499998093 0.1000000015 2.5220000744 3.0999999046 2.9000000954  -999.250000
 1018.2148495 4.7800002098 0.1000000015 2.5262000561 3.0999999046 2.9000000954  -999.250000
