# LAS format log file from PETREL
# Project units are specified as depth units
#==================================================================
~Version information
VERS.   2.0:
WRAP.   NO:
#==================================================================
~Well
STRT .m      189.89040000 :
STOP .m      3795.0648000 :
STEP .m     0.15240000 :
NULL .        -999.250000 :
COMP.           : COMPANY
WELL.  15_9-F-5   : WELL
FLD.            : FIELD
LOC.            : LOCATION
SRVC.           : SERVICE COMPANY
DATE.  2020-08-19 21:46:58   : Log Export Date {yyyy-MM-dd HH:mm:ss}
PROV.           : PROVINCE
UWI.   15_9-F-5   : UNIQUE WELL ID
API.            : API NUMBER
#==================================================================
~Curve
DEPT .m                   : DEPTH
RHOB .g/cm3               : RHOB
GR .gAPI                  : GR
RT .ohm.m                 : RT
NPHI .m3/m3               : NPHI
RM .ohm.m                 : RM
FACIES ._                 : FACIES
~Parameter
#==================================================================
~Ascii
# ...
 3093.5676000 2.5654459000 11.673150063 3.8133850098 0.1076912954 3.8000860214  -999.250000
 3093.7200000 2.5570609570 11.697569847 3.6166911125 0.1077604964 3.6633210182  -999.250000
 3093.8724000 2.5574829578 10.945249557 3.5155289173 0.1009794995 3.5252161026  -999.250000
 3094.0248000 2.5528540611 10.317830086 3.3798730373 0.1002743989 3.3383750916  -999.250000
 3094.1772000 2.5534799099 9.8302679062 3.2564480305 0.1113630980 3.1591560841  -999.250000
 3094.3296000 2.5526049137 9.8229722977 3.1065180302 0.0980616361 3.0452430248  -999.250000
 3094.4820000 2.5583310127 10.223449707 3.0254619122 0.1166436002 2.9313969612  -999.250000
 3094.6344000 2.5468490124 11.025970459 2.8960199356 0.1239321977 2.8291618824  -999.250000
 3094.7868000 2.5387620926 11.306920052 2.8471410275 0.1405615956 2.7142550945  -999.250000
 3094.9392000 2.5187320709 10.969050407 2.7330529690 0.1424009949 2.7361660004  -999.250000
 3095.0916000 2.5090939999 9.9918403625 2.7139539719 0.1320812106 2.6785140038  -999.250000
 3095.2440000 2.5028939247 9.3815879822 2.7649879456 0.1535093933 2.6569459438  -999.250000
 3095.3964000 2.5112380981 8.7799930573 2.6717150211 0.1429339051 2.6163909435  -999.250000
 3095.5488000 2.5259590149 8.6041641235 2.8589079380 0.1256396919 2.6872100830  -999.250000
 3095.7012000 2.5420460701 9.0315847397 2.7191259861 0.1073217988 2.7272849083  -999.250000
 3095.8536000 2.5413699150 10.716039658 2.8119239807 0.1173497960 2.7996110916  -999.250000
 3096.0060000 2.5359480381 10.822230339 3.0230851173 0.1268838048 2.9111359119  -999.250000
 3096.1584000 2.5289518833 11.540249825 3.0321130753 0.1372469068 3.0245089531  -999.250000
 3096.3108000 2.5346329212 10.495610237 3.1577789783 0.1304768026 3.1423990726  -999.250000
 3096.4632000 2.5312080383 10.902330399 3.2619750500 0.1221236065 3.3158369064  -999.250000
 3096.6156000 2.5397551060 9.6803560257 3.4092209339 0.1317241043 3.4321470261  -999.250000
 3096.7680000 2.5525629520 8.6214942932 3.4219501019 0.1160445958 3.4808371067  -999.250000
 3096.9204000 2.5735580921 8.0644760132 3.5584909916 0.1116802022 3.6413390636  -999.250000
 3097.0728000 2.5806100368 7.6489567757 3.5214369297 0.1027163044 3.6944530010  -999.250000
 3097.2252000 2.5785939693 8.7435588837 3.6216731071 0.0976813808 3.7344350815  -999.250000
 3097.3776000 2.5757899284 8.8640089035 3.6297221184 0.1060386002 3.8341529369  -999.250000
 3097.5300000 2.5665099621 8.8397150040 3.7253310680 0.1030974016 3.8115410805  -999.250000
 3097.6824000 2.5702610016 9.0214605331 3.6584610939 0.0963218287 3.7088079453  -999.250000
 3097.8348000 2.5595300198 9.1118078232 3.6279730797 0.1079950035 3.6211891174  -999.250000
 3097.9872000 2.5639688969 9.3105335236 3.7566199303 0.1096854955 3.5273199081  -999.250000
 3098.1396000 2.5531830788 8.7833909988 3.4692759514 0.1084852964 3.3732399940  -999.250000
 3098.2920000 2.5539300442 8.6017141342 3.3484129906 0.1203214005 3.2342638969  -999.250000
 3098.4444000 2.5352940559 8.8107223511 3.3071889877 0.1197130010 3.1679859161  -999.250000
 3098.5968000 2.5314929485 9.3858251572 3.0190548897 0.1251952052 2.9879860878  -999.250000
 3098.7492000 2.5276589394 9.9185152054 3.0671679974 0.1280640066 2.9835269451  -999.250000
 3098.9016000 2.5343470573 11.105380058 2.8997569084 0.1299574971 2.8486518860  -999.250000
 3099.0540000 2.5307381153 10.928039551 2.7900578976 0.1305819005 2.7872040272  -999.250000
 3099.2064000 2.5308730602 12.372679710 2.7628080845 0.1383382082 2.7594869137  -999.250000
 3099.3588000 2.5362949371 11.662570000 2.7303249836 0.1282411963 2.7011220455  -999.250000
 3099.5112000 2.5479280949 12.497340202 2.7044050694 0.1278945953 2.6859180927  -999.250000
 3099.6636000 2.5462539196 13.186710358 2.6515951157 0.1315845996 2.6188390255  -999.250000
 3099.8160000 2.5424489975 14.206170082 2.6176810265 0.1273933947 2.5892269611  -999.250000
 3099.9684000 2.5223140717 14.653670311 2.6268548965 0.1350506991 2.5655920506  -999.250000
 3100.1208000 2.5281050205 13.349760056 2.5620839596 0.1474207938 2.5302059650  -999.250000
 3100.2732000 2.5140230656 12.403949738 2.5744938850 0.1413750052 2.5144200325  -999.250000
 3100.4256000 2.5170469284 11.968059540 2.5994060040 0.1614804119 2.5198779106  -999.250000
 3100.5780000 2.5125780106 12.682909966 2.4856400490 0.1376276910 2.4849760532  -999.250000
 3100.7304000 2.5310459137 16.392509460 2.4989209175 0.1147262007 2.4727950096  -999.250000
 3100.8828000 2.5478971004 19.760700226 2.4876339436 0.1485551000 2.4889171124  -999.250000
 3101.0352000 2.5624630451 22.898099899 2.4978489876 0.1407893002 2.4886560440  -999.250000
 3101.1876000 2.5649909973 22.214229584 2.5100829601 0.1324754059 2.5215060711  -999.250000
 3101.3400000 2.5571820736 22.220050812 2.5330851078 0.1364807934 2.5232520103  -999.250000
 3101.4924000 2.5455570221 19.467880249 2.5140140057 0.1287534982 2.5114660263  -999.250000
 3101.6448000 2.5339839458 17.873220444 2.5099129677 0.1198842973 2.5206689835  -999.250000
 3101.7972000 2.5305891037 14.741430283 2.4843370914 0.1215406954 2.5017230511  -999.250000
 3101.9496000 2.5256121159 13.549650192 2.5089681149 0.1449346989 2.4912829399  -999.250000
 3102.1020000 2.5293660164 12.679909706 2.4659988880 0.1350549012 2.4782209396  -999.250000
 3102.2544000 2.5325589180 13.326789856 2.5042209625 0.1367321014 2.4795188904  -999.250000
 3102.4068000 2.5392730236 14.511850357 2.5079040527 0.1512919962 2.4736568928  -999.250000
 3102.5592000 2.5337619781 15.902449608 2.5349309444 0.1413733959 2.5073590279  -999.250000
 3102.7116000 2.5362660885 15.133910179 2.5635769367 0.1505644917 2.4985640049  -999.250000
 3102.8640000 2.5365619659 14.692299843 2.5211250782 0.1379588097 2.5070230961  -999.250000
 3103.0164000 2.5364470482 13.759989738 2.5089209080 0.1312281936 2.5095169544  -999.250000
 3103.1688000 2.5284709930 13.929369926 2.5423069000 0.1393593997 2.5619709492  -999.250000
 3103.3212000 2.5206549168 13.181409836 2.5592949390 0.1405947953 2.5942420959  -999.250000
 3103.4736000 2.5274529457 13.016240120 2.5908041000 0.1195710003 2.6196579933  -999.250000
 3103.6260000 2.5346529484 13.986419678 2.6035280228 0.1144979000 2.6399869919  -999.250000
 3103.7784000 2.5423860550 14.717000008 2.6191089153 0.1370576918 2.6426420212  -999.250000
 3103.9308000 2.5432031155 15.700679779 2.6400129795 0.1317458004 2.6423599720  -999.250000
 3104.0832000 2.5511391163 15.181909561 2.6566429138 0.1161833927 2.6592979431  -999.250000
 3104.2356000 2.5511832237 16.266010284 2.6564130783 0.1274378002 2.6207699776  -999.250000
 3104.3880000 2.5506980419 15.390310287 2.6427540779 0.1434253007 2.5975658894  -999.250000
 3104.5404000 2.5378088951 15.263629913 2.5991659164 0.1408255994 2.5665540695  -999.250000
 3104.6928000 2.5248639584 14.242710114 2.5812959671 0.1416314095 2.5223619938  -999.250000
 3104.8452000 2.5217421055 13.257519722 2.6029369831 0.1431491971 2.5080080032  -999.250000
 3104.9976000 2.5257349014 14.237810135 2.5008649826 0.1415207982 2.4757308960  -999.250000
 3105.1500000 2.5328450203 14.725440025 2.4941298962 0.1349940896 2.4731040001  -999.250000
 3105.3024000 2.5344560146 16.811500549 2.4952859879 0.1461717039 2.4844570160  -999.250000
 3105.4548000 2.5362379551 15.518369675 2.5087749958 0.1381760091 2.5223760605  -999.250000
 3105.6072000 2.5346899033 15.439539909 2.5590379238 0.1360794008 2.5594909191  -999.250000
 3105.7596000 2.5334689617 14.323769569 2.5716919899 0.1307522058 2.5832490921  -999.250000
 3105.9120000 2.5362579823 13.507590294 2.5555269718 0.1352740973 2.5778090954  -999.250000
 3106.0644000 2.5444130898 13.692429543 2.5521440506 0.1373614073 2.6081180573  -999.250000
 3106.2168000 2.5495059490 13.469260216 2.5901050568 0.1313115060 2.6159949303  -999.250000
 3106.3692000 2.5475170612 14.572159767 2.5627620220 0.1220110953 2.6122350693  -999.250000
 3106.5216000 2.5487859249 13.457229614 2.5406448841 0.1306709051 2.5962259769  -999.250000
 3106.6740000 2.5469169617 13.953660011 2.5174539089 0.1240575984 2.5555939674  -999.250000
