# LAS format log file from PETREL
# Project units are specified as depth units
#==================================================================
~Version information
VERS.   2.0:
WRAP.   NO:
#==================================================================
~Well
STRT .m      -0.015270480 :
STOP .m      1245.8090095 :
STEP .m     0.04572000 :
NULL .        -999.250000 :
COMP.           : COMPANY
WELL.  15_9-19 A   : WELL
FLD.            : FIELD
LOC.            : LOCATION
SRVC.           : SERVICE COMPANY
DATE.  2020-08-19 21:46:58   : Log Export Date {yyyy-MM-dd HH:mm:ss}
PROV.           : PROVINCE
UWI.   15_9-19 A   : UNIQUE WELL ID
API.            : API NUMBER
#==================================================================
~Curve
DEPT .m                   : DEPTH
GR .gAPI                  : GR
NPHI .m3/m3               : NPHI
RHOB .g/cm3               : RHOB
RM .ohm.m                 : RM
RT .ohm.m                 : RT
FACIES ._                 : FACIES
~Parameter
#==================================================================
~Ascii
# ...
 1201.2320095 48.520000458 0.1899999976 2.4973001480 1.6000000238 1.7999999523  -999.250000
 1201.2777295 49.490001678 0.2000000030 2.5078001022 1.7000000477 1.7999999523  -999.250000
 1201.3234495 47.380001068 0.1599999964 2.4653000832 1.7000000477 1.7000000477  -999.250000
 1201.3691695 42.979999542 0.1599999964 2.4031999111 1.6000000238 1.6000000238  -999.250000
 1201.4148895 42.529998779 0.1400000006 2.4739999771 1.6000000238 1.5000000000  -999.250000
 1201.4606095 45.590000153 0.1299999952 2.5108001232 1.5000000000 1.5000000000  -999.250000
 1201.5063295 44.520000458 0.1299999952 2.5036001205 1.5000000000 1.3999999762  -999.250000
 1201.5520495 39.279998779 0.1400000006 2.4765000343 1.3999999762 1.3999999762  -999.250000
 1201.5977695 33.880001068 0.1500000060 2.4336001873 1.3999999762 1.3999999762  -999.250000
 1201.6434895 38.610000610 0.1700000018 2.4113998413 1.3999999762 1.3999999762  -999.250000
 1201.6892095 52.919998169 0.1500000060 2.4616999626 1.3999999762 1.3999999762  -999.250000
 1201.7349295 62.619998932 0.2500000000 2.5571000576 1.3999999762 1.3999999762  -999.250000
 1201.7806495 67.290000916 0.2299999893 2.5368001461 1.5000000000 1.3999999762  -999.250000
 1201.8263695 69.279998779 0.2599999905 2.5376999378 1.6000000238 1.5000000000  -999.250000
 1201.8720895 70.160003662 0.2400000095 2.5134999752 1.7000000477 1.6000000238  -999.250000
 1201.9178095 70.620002747 0.2700000107 2.5548000336 1.7999999523 1.7000000477  -999.250000
 1201.9635295 70.220001221 0.2099999934 2.5778999329 1.7999999523 1.7000000477  -999.250000
 1202.0092495 70.889999390 0.1599999964 2.5656001568 1.8999999762 1.7999999523  -999.250000
 1202.0549695 68.489997864 0.1799999923 2.5343999863 1.8999999762 1.8999999762  -999.250000
 1202.1006895 62.229999542 0.1400000006 2.4758999348 1.7999999523 1.7999999523  -999.250000
 1202.1464095 53.540000916 0.1400000006 2.4265999794 1.7000000477 1.6000000238  -999.250000
 1202.1921295 44.159999847 0.1200000048 2.4258000851 1.5000000000 1.3999999762  -999.250000
 1202.2378495 44.630001068 0.1200000048 2.5393998623 1.3999999762 1.2999999523  -999.250000
 1202.2835695 54.409999847 0.1000000015 2.5788998604 1.2999999523 1.2999999523  -999.250000
 1202.3292895 61.279998779 0.1000000015 2.5686001778 1.2999999523 1.2999999523  -999.250000
 1202.3750095 61.099998474 0.1299999952 2.4693999290 1.2999999523 1.2999999523  -999.250000
 1202.4207295  -999.250000  -999.250000  -999.250000  -999.250000  -999.250000  -999.250000
 1202.4664495 57.880001068 0.1500000060 2.4423999786 1.2000000477 1.2000000477  -999.250000
 1202.5121695 57.470001221 0.1400000006 2.4186999798 1.2000000477 1.2000000477  -999.250000
 1202.5578895 61.319999695 0.1400000006 2.4254999161 1.1000000238 1.1000000238  -999.250000
 1202.6036095 65.029998779 0.1299999952 2.4539999962 1.1000000238 1.1000000238  -999.250000
 1202.6493295 67.190002441 0.1400000006 2.4456999302 1.2000000477 1.1000000238  -999.250000
 1202.6950495 68.379997253 0.1400000006 2.4646999836 1.2000000477 1.2000000477  -999.250000
 1202.7407695 70.349998474 0.1400000006 2.4478001595 1.2999999523 1.2000000477  -999.250000
 1202.7864895 72.650001526 0.1400000006 2.4558999538 1.2999999523 1.2000000477  -999.250000
 1202.8322095 73.290000916 0.1299999952 2.4821999073 1.2999999523 1.2999999523  -999.250000
 1202.8779295 76.790000916 0.1299999952 2.5081000328 1.3999999762 1.2999999523  -999.250000
 1202.9236495 79.410003662 0.1299999952 2.4978001118 1.3999999762 1.3999999762  -999.250000
 1202.9693695 80.180000305 0.1299999952 2.4828999043 1.5000000000 1.3999999762  -999.250000
 1203.0150895 81.269996643 0.1400000006 2.5121998787 1.5000000000 1.5000000000  -999.250000
 1203.0608095 80.059997559 0.1200000048 2.4903998375 1.3999999762 1.5000000000  -999.250000
 1203.1065295 74.779998779 0.1200000048 2.4600000381 1.3999999762 1.5000000000  -999.250000
 1203.1522495 70.989997864 0.1200000048 2.4616000652 1.3999999762 1.5000000000  -999.250000
 1203.1979695 62.889999390 0.1099999994 2.4236001968 1.2999999523 1.3999999762  -999.250000
 1203.2436895 50.500000000 0.1299999952 2.3796999454 1.2000000477 1.2000000477  -999.250000
 1203.2894095 43.119998932 0.1400000006 2.4026999474 1.1000000238 1.1000000238  -999.250000
 1203.3351295 40.479999542 0.1299999952 2.3782000542 0.8999999762 0.8999999762  -999.250000
 1203.3808495 43.779998779 0.1500000060 2.3711998463 0.8000000119 0.8000000119  -999.250000
 1203.4265695 47.180000305 0.1400000006 2.3188998699 0.8000000119 0.8000000119  -999.250000
 1203.4722895 50.099998474 0.1400000006 2.3653998375 0.6999999881 0.6999999881  -999.250000
 1203.5180095 53.200000763 0.1700000018 2.3351001740 0.6999999881 0.6999999881  -999.250000
 1203.5637295 53.959999084 0.1700000018 2.3269999027 0.6000000238 0.6000000238  -999.250000
 1203.6094495 51.169998169 0.1799999923 2.3289999962 0.6000000238 0.6000000238  -999.250000
 1203.6551695 46.389999390 0.1700000018 2.2790000439 0.6000000238 0.6000000238  -999.250000
 1203.7008895 43.759998322 0.1700000018 2.2843999863 0.6000000238 0.6000000238  -999.250000
 1203.7466095 44.049999237 0.1599999964 2.3145999908 0.6000000238 0.6000000238  -999.250000
 1203.7923295 45.900001526 0.1799999923 2.3334999084 0.6000000238 0.6000000238  -999.250000
 1203.8380495 47.819999695 0.1700000018 2.3338999748 0.6000000238 0.6000000238  -999.250000
 1203.8837695 50.630001068 0.1599999964 2.3447999954 0.6999999881 0.6000000238  -999.250000
 1203.9294895 61.450000763 0.1700000018 2.3443999290 0.6999999881 0.6999999881  -999.250000
 1203.9752095 78.169998169 0.1599999964 2.2832000256 0.8000000119 0.6999999881  -999.250000
 1204.0209295 89.099998474 0.1400000006 2.2376999855 0.8000000119 0.8000000119  -999.250000
 1204.0666495 89.000000000 0.1400000006 2.4478001595 0.8000000119 0.8000000119  -999.250000
 1204.1123695 84.290000916 0.1400000006 2.4923000336 0.8000000119 0.6999999881  -999.250000
 1204.1580895 78.190002441 0.1400000006 2.5051000118 0.8000000119 0.8000000119  -999.250000
 1204.2038095 69.419998169 0.1400000006 2.3457000256 0.8999999762 0.8000000119  -999.250000
 1204.2495295 60.790000916 0.1599999964 2.3841998577 0.8000000119 0.6999999881  -999.250000
 1204.2952495 55.240001678 0.1599999964 2.4226000309 0.6000000238 0.6000000238  -999.250000
 1204.3409695 50.590000153 0.1700000018 2.3034999371 0.6000000238 0.5000000000  -999.250000
 1204.3866895 45.970001221 0.1799999923 2.3192000389 0.5000000000 0.5000000000  -999.250000
 1204.4324095 46.799999237 0.1799999923 2.3236000538 0.5000000000 0.5000000000  -999.250000
 1204.4781295 55.790000916 0.1599999964 2.3511002064 0.5000000000 0.5000000000  -999.250000
 1204.5238495 63.000000000 0.1700000018 2.3523998260 0.5000000000 0.5000000000  -999.250000
 1204.5695695 64.040000916 0.1700000018 2.3593001366 0.5000000000 0.5000000000  -999.250000
 1204.6152895 64.239997864 0.1700000018 2.3482999802 0.5000000000 0.5000000000  -999.250000
 1204.6610095 60.840000153 0.1799999923 2.3348999023 0.6000000238 0.5000000000  -999.250000
 1204.7067295 54.529998779 0.1700000018 2.3111999035 0.6000000238 0.6000000238  -999.250000
 1204.7524495 50.740001678 0.1599999964 2.3341999054 0.6000000238 0.6000000238  -999.250000
 1204.7981695 49.119998932 0.1700000018 2.3143999577 0.6000000238 0.6000000238  -999.250000
 1204.8438895 48.349998474 0.1700000018 2.3078000546 0.6000000238 0.6000000238  -999.250000
 1204.8896095 50.409999847 0.1500000060 2.4077000618 0.6000000238 0.6000000238  -999.250000
 1204.9353295 54.130001068 0.1500000060 2.4073998928 0.6000000238 0.6000000238  -999.250000
 1204.9810495 62.549999237 0.1400000006 2.4991002083 0.6000000238 0.6000000238  -999.250000
 1205.0267695 71.760002136 0.1400000006 2.4103999138 0.6000000238 0.6000000238  -999.250000
 1205.0724895 70.730003357 0.1500000060 2.4296998978 0.6000000238 0.6000000238  -999.250000
 1205.1182095 63.419998169 0.1700000018 2.3328001499 0.6000000238 0.6000000238  -999.250000
 1205.1639295 59.049999237 0.1599999964 2.3057000637 0.6000000238 0.6000000238  -999.250000
