# LAS format log file from PETREL
# Project units are specified as depth units
#==================================================================
~Version information
VERS.   2.0:
WRAP.   NO:
#==================================================================
~Well
STRT .m      175.86960000 :
STOP .m      5330.3424000 :
STEP .m     0.15240000 :
NULL .        -999.250000 :
COMP.           : COMPANY
WELL.  15_9-F-10   : WELL
FLD.            : FIELD
LOC.            : LOCATION
SRVC.           : SERVICE COMPANY
DATE.  2020-08-19 21:46:58   : Log Export Date {yyyy-MM-dd HH:mm:ss}
PROV.           : PROVINCE
UWI.   15_9-F-10   : UNIQUE WELL ID
API.            : API NUMBER
#==================================================================
~Curve
DEPT .m                   : DEPTH
RHOB .g/cm3               : RHOB
RT .ohm.m                 : RT
GR .gAPI                  : GR
NPHI .m3/m3               : NPHI
RM .ohm.m                 : RM
FACIES ._                 : FACIES
~Parameter
#==================================================================
~Ascii
# ...
 4431.9444000 2.5984618664 6.3120360374 4.4540457726  -999.250000 6.2005610466  -999.250000
 4432.0968000 2.5874209404 6.3017282486 4.3412828445  -999.250000 6.2294855118  -999.250000
 4432.2492000 2.5986447334 6.4165415764 5.6727738380  -999.250000 6.2493047714  -999.250000
 4432.4016000 2.6180553436 6.4461555481 6.7083783150  -999.250000 6.2437906265  -999.250000
 4432.5540000 2.6228346825 6.3786430359 7.3353357315  -999.250000 6.2163782120  -999.250000
 4432.7064000 2.5883710384 6.3525953293 7.4572005272  -999.250000 6.2464985847  -999.250000
 4432.8588000 2.5807847977 6.3940868378 7.9877152443  -999.250000 6.2623553276  -999.250000
 4433.0112000 2.5816152096 6.4247779846 8.7194623947  -999.250000 6.2826099396  -999.250000
 4433.1636000 2.6019175053 6.4810676575 8.5120458603  -999.250000 6.3269209862  -999.250000
 4433.3160000 2.5947039127 6.4614520073 8.9827423096  -999.250000 6.3380131721  -999.250000
 4433.4684000 2.6039628983 6.4083657265 9.6608552933  -999.250000 6.2882170677  -999.250000
 4433.6208000 2.6184761524 6.4296894073 9.7101097107  -999.250000 6.3178148270  -999.250000
 4433.7732000 2.6146476269 6.4532637596 9.0812520981  -999.250000 6.3275480270  -999.250000
 4433.9256000 2.6214611530 6.3866615295 8.6112985611  -999.250000 6.3124356270  -999.250000
 4434.0780000 2.6145999432 6.3607497215 8.7702045441  -999.250000 6.3221898079  -999.250000
 4434.2304000 2.6024987698 6.3966312408 7.8992652893  -999.250000 6.2931666374  -999.250000
 4434.3828000 2.5993902683 6.3526515961 6.8694200516  -999.250000 6.3021492958  -999.250000
 4434.5352000 2.6050908566 6.3176617622 5.3871884346  -999.250000 6.3262939453  -999.250000
 4434.6876000 2.6222131252 6.3487901688 4.9348011017  -999.250000 6.3037796021  -999.250000
 4434.8400000 2.6225852966 6.3537058830 4.5461316109  -999.250000 6.3110179901  -999.250000
 4434.9924000 2.6308174133 6.2826800346 4.7082157135  -999.250000 6.3017883301  -999.250000
 4435.1448000 2.6146967411 6.2607927322 4.8703002930  -999.250000 6.2803239822  -999.250000
 4435.2972000 2.6227111816 6.2894964218 5.9755120277  -999.250000 6.2594561577  -999.250000
 4435.4496000 2.6365339756 6.1887927055 6.9823579788  -999.250000 6.2422242165  -999.250000
 4435.6020000 2.6508035660 6.1887927055 7.6354875565  -999.250000 6.2422242165  -999.250000
 4435.7544000 2.6432082653 6.2309832573 7.2817716599  -999.250000 6.2582249641  -999.250000
 4435.9068000 2.6288747787 6.2321462631 6.8112707138  -999.250000 6.1674137115  -999.250000
 4436.0592000 2.6244554520 6.1294460297 6.6944842339  -999.250000 6.1501302719  -999.250000
 4436.2116000 2.6185166836 6.1439242363 6.3992891312  -999.250000 6.1507682800  -999.250000
 4436.3640000 2.6116249561 6.0910592079 6.2208795547  -999.250000 6.2257623672  -999.250000
 4436.5164000 2.6033871174 6.2168002129 7.4746360779  -999.250000 6.1215457916  -999.250000
 4436.6688000 2.5832772255 6.1544036865 8.9068021774  -999.250000 6.1568775177  -999.250000
 4436.8212000 2.5700786114 6.1526265144 9.3990621567  -999.250000 6.1754136086  -999.250000
 4436.9736000 2.5623757839 6.1915836334 8.4591550827  -999.250000 6.1636419296  -999.250000
 4437.1260000 2.5601601601 6.2746691704 7.9564790726  -999.250000 6.2653918266  -999.250000
 4437.2784000 2.5768249035 6.2242970467 7.9401178360  -999.250000 6.2604160309  -999.250000
 4437.4308000 2.5796971321 6.2137174606 7.4701647758  -999.250000 6.1617999077  -999.250000
 4437.5832000 2.5975522995 6.3338413239 6.9886174202  -999.250000 6.2842841148  -999.250000
 4437.7356000 2.6075050831 6.3085341454 6.9606609344  -999.250000 6.2824544907  -999.250000
 4437.8880000 2.6038680077 6.3492016792 6.8040099144  -999.250000 6.2057971954  -999.250000
 4438.0404000 2.5970520973 6.2393918037 6.2217235565  -999.250000 6.2403874397  -999.250000
 4438.1928000 2.6016676426 6.2933773994 7.3616981506  -999.250000 6.3619799614  -999.250000
 4438.3452000 2.6255319118 6.3351917267 9.0839586258  -999.250000 6.3642268181  -999.250000
 4438.4976000 2.6347322464 6.4812965393 9.4055662155  -999.250000 6.4283890724  -999.250000
 4438.6500000 2.6114132404 6.4478211403 8.0049133301  -999.250000 6.4248952866  -999.250000
 4438.8024000 2.5936970711 6.4698033333 7.5358600616  -999.250000 6.4377741814  -999.250000
 4438.9548000 2.5833983421 6.6357946396 8.4674615860  -999.250000 6.5730900764  -999.250000
 4439.1072000 2.5862598419 6.6005163193 9.5683031082  -999.250000 6.5599403381  -999.250000
 4439.2596000 2.5814678669 6.5991029739 9.7375431061  -999.250000 6.5723061562  -999.250000
 4439.4120000 2.5721149445 6.6254715919 9.4242420197  -999.250000 6.7631597519  -999.250000
 4439.5644000 2.5603787899 6.7820405960 8.9416990280  -999.250000 6.7186856270  -999.250000
 4439.7168000 2.5640132427 6.7191100121 10.651017189  -999.250000 6.7065949440  -999.250000
 4439.8692000 2.5687282085 6.7853188515 10.482081413  -999.250000 6.7701182365  -999.250000
 4440.0216000 2.5691940784 6.9441370964 10.313144684  -999.250000 6.9039888382  -999.250000
 4440.1740000 2.5686519146 6.9363522530 10.469757080  -999.250000 6.8976936340  -999.250000
 4440.3264000 2.5736293793 6.8778576851 12.987167358  -999.250000 6.8805689812  -999.250000
 4440.4788000 2.5809288025 6.9358210564 13.157232285  -999.250000 6.9306106567  -999.250000
 4440.6312000 2.5815441608 7.0493655205 10.809886932  -999.250000 6.9312334061  -999.250000
 4440.7836000 2.5908052921 6.9738707542 9.4013185501  -999.250000 6.9655833244  -999.250000
 4440.9360000 2.5933327675 7.0033149719 10.340097427  -999.250000 6.9690580368  -999.250000
 4441.0884000 2.5997149944 7.0987334251 10.952248573  -999.250000 6.9061169624  -999.250000
 4441.2408000 2.5899252892 7.0764045715 10.625622749  -999.250000 6.9311261177  -999.250000
 4441.3932000 2.5833854675 7.1445460320 10.422881126  -999.250000 6.9122800827  -999.250000
 4441.5456000 2.5831787586 7.0920429230 10.546764374  -999.250000 6.9096260071  -999.250000
 4441.6980000 2.5974378586 7.1099071503 10.872449875  -999.250000 6.9218468666  -999.250000
 4441.8504000 2.6174659729 7.0239467621 11.074252129  -999.250000 6.9292907715  -999.250000
 4442.0028000 2.6259181499 7.0846781731 10.743592262  -999.250000 6.8523774147  -999.250000
 4442.1552000 2.6100749969 7.0491542816 10.211130142  -999.250000 6.8551373482  -999.250000
 4442.3076000 2.5937681198 7.0177221298 9.5854654312  -999.250000 6.8453130722  -999.250000
 4442.4600000 2.5787158012 7.0347247124 9.4922637939  -999.250000 6.8103322983  -999.250000
 4442.6124000 2.5769348145 7.0673942566 10.091240883  -999.250000 6.8432250023  -999.250000
 4442.7648000 2.5875129700 6.9944853783 10.783420563  -999.250000 6.8163156509  -999.250000
 4442.9172000 2.5963656902 6.9899663925 11.024421692  -999.250000 6.7604265213  -999.250000
 4443.0696000 2.6063289642 7.0196170807 10.573244095  -999.250000 6.7747225761  -999.250000
 4443.2220000 2.6083006859 6.8793849945 9.7244148254  -999.250000 6.7752475739  -999.250000
 4443.3744000 2.6033155918 6.8922080994 9.4535369873  -999.250000 6.6877384186  -999.250000
 4443.5268000 2.5988059044 6.9402232170 9.3094329834  -999.250000 6.7075505257  -999.250000
 4443.6792000 2.5977745056 6.8738932610 9.9351358414  -999.250000 6.7123827934  -999.250000
 4443.8316000 2.6016407013 6.8834066391 10.434064865  -999.250000 6.7156791687  -999.250000
 4443.9840000 2.5884342194 6.9641232491 11.402500153  -999.250000 6.6927843094  -999.250000
 4444.1364000 2.5708911419 6.9574365616 11.998778343  -999.250000 6.7041959763  -999.250000
 4444.2888000 2.5670418739 6.9000520706 11.842166901  -999.250000 6.6282205582  -999.250000
 4444.4412000 2.5630860329 6.8230729103 11.089275360  -999.250000 6.5546188354  -999.250000
 4444.5936000 2.5781650543 6.8152360916 10.180594444  -999.250000 6.5731205940  -999.250000
 4444.7460000 2.5892584324 6.7675871849 10.024805069  -999.250000 6.5434818268  -999.250000
 4444.8984000 2.6169004440 6.6660280228 9.3802556992  -999.250000 6.4767265320  -999.250000
 4445.0508000 2.6164851189 6.6503062248 8.8914976120  -999.250000 6.4373054504  -999.250000
