# LAS format log file from PETREL
# Project units are specified as depth units
#==================================================================
~Version information
VERS.   2.0:
WRAP.   NO:
#==================================================================
~Well
STRT .m      189.89040000 :
STOP .m      3795.0648000 :
STEP .m     0.15240000 :
NULL .        -999.250000 :
COMP.           : COMPANY
WELL.  15_9-F-5   : WELL
FLD.            : FIELD
LOC.            : LOCATION
SRVC.           : SERVICE COMPANY
DATE.  2020-08-19 21:46:58   : Log Export Date {yyyy-MM-dd HH:mm:ss}
PROV.           : PROVINCE
UWI.   15_9-F-5   : UNIQUE WELL ID
API.            : API NUMBER
#==================================================================
~Curve
DEPT .m                   : DEPTH
RHOB .g/cm3               : RHOB
GR .gAPI                  : GR
RT .ohm.m                 : RT
NPHI .m3/m3               : NPHI
RM .ohm.m                 : RM
FACIES ._                 : FACIES
~Parameter
#==================================================================
~Ascii
# ...
 2921.2032000 1.9536989927 12.796270370  -999.250000 0.2672545016  -999.250000  -999.250000
 2921.3556000 1.9645329714 12.685480118  -999.250000 0.2517885864  -999.250000  -999.250000
 2921.5080000 1.9699889421 11.020019531  -999.250000 0.2554564178  -999.250000  -999.250000
 2921.6604000 1.9719419479 10.289139748 2.9126520157 0.2246192992 2.9567999840  -999.250000
 2921.8128000 1.9718199968 9.5347433090 2.9932770729 0.2274958938 3.0991499424  -999.250000
 2921.9652000 1.9767889977 9.9972047806 3.0897440910 0.2220249921 3.2197980881  -999.250000
 2922.1176000 1.9764339924 10.579270363 3.1238780022 0.2155083120 3.3076219559  -999.250000
 2922.2700000 1.9842510223 10.478690147 3.1787068844 0.2141072154 3.4154839516  -999.250000
 2922.4224000 1.9914449453 10.334360123 3.2887818813 0.2049146146 3.4673960209  -999.250000
 2922.5748000 1.9989019632 10.096559525 3.3670120239 0.2177504003 3.4981310368  -999.250000
 2922.7272000 2.0037229061 10.213219643 3.3168780804 0.2057130039 3.4242360592  -999.250000
 2922.8796000 2.0028240681 9.6870994568 3.2395920753 0.2108307034 3.3304340839  -999.250000
 2923.0320000 1.9936619997 9.1338768005 3.1008260250 0.2315471023 3.2252690792  -999.250000
 2923.1844000 1.9821170568 8.9246530533 2.8793470860 0.2261632979 3.0206120014  -999.250000
 2923.3368000 1.9656829834 8.7463245392 2.8056290150 0.2484244853 2.8544418812  -999.250000
 2923.4892000 1.9623119831 8.4796705246 2.6771929264 0.2412887961 2.7127380371  -999.250000
 2923.6416000 1.9656419754 8.8861675262 2.5207540989 0.2407634854 2.5756111145  -999.250000
 2923.7940000 1.9752899408 9.8624296188 2.3886129856 0.2418026030 2.4093379974  -999.250000
 2923.9464000 1.9985990524 10.626609802 2.2207779884 0.2292962074 2.2605669498  -999.250000
 2924.0988000 2.0015919209 9.9777040482 2.0799429417 0.2438835949 2.1349639893  -999.250000
 2924.2512000 2.0003681183 9.6236715317 1.9334130287 0.2225291133 2.0322229862  -999.250000
 2924.4036000 1.9955140352 10.198639870 1.9161620140 0.2149291933 1.9261679649  -999.250000
 2924.5560000 2.0050520897 10.900710106 1.7172189951 0.2367256880 1.8311890364  -999.250000
 2924.7084000 2.0215508938 11.486260414 1.6783319712 0.2325202972 1.7443970442  -999.250000
 2924.8608000 2.0376091003 11.195440292 1.5673719645 0.2239012867 1.6332650185  -999.250000
 2925.0132000 2.0423250198 10.830419540 1.4519629478 0.2382362932 1.5886499882  -999.250000
 2925.1656000 2.0431969166 9.3216400146 1.4810409546 0.2132086009 1.5218570232  -999.250000
 2925.3180000 2.0413980484 8.7479057312 1.3935730457 0.2369436026 1.4532129765  -999.250000
 2925.4704000 2.0389719009 8.6606750488 1.3479670286 0.2643090189 1.3899470568  -999.250000
 2925.6228000 2.0308830738 8.0602512360 1.2934139967 0.2458571941 1.3895980120  -999.250000
 2925.7752000 2.0211958885 8.1464262009 1.3011169434 0.2415757924 1.3469159603  -999.250000
 2925.9276000 2.0108399391 8.3218030930 1.3113889694 0.2156047970 1.3082859516  -999.250000
 2926.0800000 2.0002129078 9.7325363159 1.1886080503 0.2407917976 1.2796740532  -999.250000
 2926.2324000 2.0124208927 10.025639534 1.2496490479 0.2450513989 1.2758389711  -999.250000
 2926.3848000 2.0158660412 10.139719963 1.2627949715 0.2551378012 1.3234009743  -999.250000
 2926.5372000 2.0145180225 10.365150452 1.2871160507 0.2642086148 1.3034490347  -999.250000
 2926.6896000 1.9998580217 10.025429726 1.2617590427 0.2748642862 1.2927019596  -999.250000
 2926.8420000 1.9897429943 9.8016738892 1.2475789785 0.2784706056 1.2804700136  -999.250000
 2926.9944000 1.9818110466 9.9454278946 1.2557189465 0.2802720964 1.2338140011  -999.250000
 2927.1468000 1.9783730507 10.472749710 1.1562119722 0.2801882923 1.1741160154  -999.250000
 2927.2992000 1.9790860415 10.791359901 1.0640029907 0.2992269993 1.1054379940  -999.250000
 2927.4516000 1.9547300339 10.993060112 1.0372710228 0.3232480884 1.0859450102  -999.250000
 2927.6040000 1.9671969414 10.587129593 1.0559049845 0.3099581897 1.0322639942  -999.250000
 2927.7564000 1.9697710276 10.066040039 1.0524339676 0.3053451777 1.0346130133  -999.250000
 2927.9088000 2.0144250393 9.1322307587 1.0625679493 0.2814776897 1.0357379913  -999.250000
 2928.0612000 2.0201499462 9.6982870102 1.0487060547 0.2845944166 1.0230540037  -999.250000
 2928.2136000 2.0296270847 9.4962558746 1.0010859966 0.2820295990 1.0415960550  -999.250000
 2928.3660000 2.0765769482 9.0343971252 1.0324330330 0.2308012992 1.0186630487  -999.250000
 2928.5184000 2.1079890728 8.0370235443 0.9925333858 0.1901202053 0.9964420199  -999.250000
 2928.6708000 2.2430009842 7.6214451790 1.1047710180 0.2001677006 1.0206170082  -999.250000
 2928.8232000 2.3530519009 7.3969650269 1.1176730394 0.2225728035 1.0365380049  -999.250000
 2928.9756000 2.3718409538 6.6436309814 1.0867240429 0.2101213038 1.0613579750  -999.250000
 2929.1280000 2.3471748829 6.9383101463 1.0905779600 0.2100528926 1.0363370180  -999.250000
 2929.2804000 2.3218920231 7.1504449844 1.1086570024 0.2037877142 1.0862040520  -999.250000
 2929.4328000 2.3103930950 7.5860152245 1.1247129440 0.2007177919 1.1218279600  -999.250000
 2929.5852000 2.2890279293 7.2545709610 1.1456209421 0.2231543958 1.2159140110  -999.250000
 2929.7376000 2.2663760185 7.9281492233 1.2486799955 0.2205905914 1.3092449903  -999.250000
 2929.8900000 2.2635419369 8.5983648300 1.3731499910 0.1915580928 1.3811329603  -999.250000
 2930.0424000 2.2959089279 9.2895698547 1.4626740217 0.1707640141 1.5012279749  -999.250000
 2930.1948000 2.3361990452 8.7122097015 1.4808310270 0.1696573049 1.5001679659  -999.250000
 2930.3472000 2.3795449734 8.5630159378 1.4871809483 0.1551336050 1.5094449520  -999.250000
 2930.4996000 2.3997030258 8.0278568268 1.4314140081 0.1675581932 1.4746249914  -999.250000
 2930.6520000 2.3991789818 7.6475048065 1.4426850080 0.1717367023 1.5118000507  -999.250000
 2930.8044000 2.3891580105 7.5687270164 1.5089709759 0.1735333055 1.5508830547  -999.250000
 2930.9568000 2.3830060959 8.1108694077 1.5802030563 0.1829203963 1.5472840071  -999.250000
 2931.1092000 2.3799419403 9.5161247253 1.5821830034 0.1907150149 1.5666019917  -999.250000
 2931.2616000 2.3868019581 9.6881036758 1.6490850449 0.2002663016 1.5700429678  -999.250000
 2931.4140000 2.4015100002 8.8127899170 1.5891710520 0.1871581078 1.5877720118  -999.250000
 2931.5664000 2.4214129448 7.2305750847 1.6398990154 0.1841957122 1.6269119978  -999.250000
 2931.7188000 2.4306299686 6.6144151688 1.6350350380 0.1779935956 1.6297160387  -999.250000
 2931.8712000 2.4314250946 7.0700068474 1.6607040167 0.1779913008 1.6845730543  -999.250000
 2932.0236000 2.4414288998 7.5784578323 1.7502009869 0.1741802096 1.7247279882  -999.250000
 2932.1760000 2.4491798878 8.6655235291 1.8229689598 0.1718066037 1.7942980528  -999.250000
 2932.3284000 2.4579007626 8.7800712585 1.8645859957 0.1664049923 1.8127980232  -999.250000
 2932.4808000 2.4672219753 8.1394691467 1.8365969658 0.1503493041 1.8500449657  -999.250000
 2932.6332000 2.4768090248 7.0933570862 1.8922070265 0.1520400047 1.8555469513  -999.250000
 2932.7856000 2.4768180847 6.7871661186 1.9629529715 0.1464124918 1.8936959505  -999.250000
 2932.9380000 2.4842278957 6.8218588829 2.0242791176 0.1309904903 2.0017750263  -999.250000
 2933.0904000 2.4959800243 6.9431858063 2.0887188911 0.1290007979 2.0923418999  -999.250000
 2933.2428000 2.5141699314 7.3561801910 2.1455140114 0.1377000958 2.1539249420  -999.250000
 2933.3952000 2.5232560635 8.6610374451 2.2133369446 0.1401180029 2.2122418880  -999.250000
 2933.5476000 2.5214829445 9.5052442551 2.2219610214 0.1327347010 2.2771890163  -999.250000
 2933.7000000 2.5213069916 8.6661233902 2.2664179802 0.1132292002 2.2798259258  -999.250000
 2933.8524000 2.5308310986 7.5106358528 2.1994099617 0.1217406020 2.2853879929  -999.250000
 2934.0048000 2.5422201157 7.1920289993 2.1873281002 0.1187388003 2.2788410187  -999.250000
 2934.1572000 2.5522179604 8.2443847656 2.2100260258 0.1167377010 2.2768399715  -999.250000
 2934.3096000 2.5489699841 9.2275218964 2.2205998898 0.1225584000 2.2915439606  -999.250000
