# LAS format log file from PETREL
# Project units are specified as depth units
#==================================================================
~Version information
VERS.   2.0:
WRAP.   NO:
#==================================================================
~Well
STRT .m      175.86960000 :
STOP .m      5330.3424000 :
STEP .m     0.15240000 :
NULL .        -999.250000 :
COMP.           : COMPANY
WELL.  15_9-F-10   : WELL
FLD.            : FIELD
LOC.            : LOCATION
SRVC.           : SERVICE COMPANY
DATE.  2020-08-19 21:46:58   : Log Export Date {yyyy-MM-dd HH:mm:ss}
PROV.           : PROVINCE
UWI.   15_9-F-10   : UNIQUE WELL ID
API.            : API NUMBER
#==================================================================
~Curve
DEPT .m                   : DEPTH
RHOB .g/cm3               : RHOB
RT .ohm.m                 : RT
GR .gAPI                  : GR
NPHI .m3/m3               : NPHI
RM .ohm.m                 : RM
FACIES ._                 : FACIES
~Parameter
#==================================================================
~Ascii
# ...
 3689.4516000 2.5985455513 8.9405212402 8.2046737671  -999.250000 8.7544012070  -999.250000
 3689.6040000 2.5885422230 9.2536764145 7.3566346169  -999.250000 9.1453199387  -999.250000
 3689.7564000 2.5883929729 9.2655410767 6.2562279701  -999.250000 9.1424407959  -999.250000
 3689.9088000 2.5960526466 9.2278566360 6.1762366295  -999.250000 9.1871328354  -999.250000
 3690.0612000 2.6120531559 9.5082941055 7.1966528893  -999.250000 9.2371597290  -999.250000
 3690.2136000 2.5971820354 9.4854040146 7.0445556641  -999.250000 9.2130947113  -999.250000
 3690.3660000 2.5812242031 9.4956407547 5.8720440865  -999.250000 9.1491117477  -999.250000
 3690.5184000 2.5680615902 9.3742094040 4.8990077972  -999.250000 8.8950204849  -999.250000
 3690.6708000 2.5645506382 9.2579622269 5.0984840393  -999.250000 8.7402114868  -999.250000
 3690.8232000 2.5672757626 8.8878726959 5.3154768944  -999.250000 8.2863311768  -999.250000
 3690.9756000 2.5753421783 8.8870410919 5.3329925537  -999.250000 8.2861166000  -999.250000
 3691.1280000 2.5830562115 8.8001155853 6.0734229088  -999.250000 8.0355815887  -999.250000
 3691.2804000 2.5656769276 8.3392696381 6.7963366508  -999.250000 7.4030556679  -999.250000
 3691.4328000 2.5411725044 7.8267173767 7.8325524330  -999.250000 7.1946883202  -999.250000
 3691.5852000 2.5370004177 7.7447538376 8.1458539963  -999.250000 6.9573783875  -999.250000
 3691.7376000 2.5606493950 7.7679519653 8.2386245728  -999.250000 7.0267872810  -999.250000
 3691.8900000 2.5742616653 7.2286944389 7.5457611084  -999.250000 6.7031164169  -999.250000
 3692.0424000 2.5644469261 7.2332925797 6.8528971672  -999.250000 6.6972117424  -999.250000
 3692.1948000 2.5536229610 7.2346897125 5.8198280334  -999.250000 6.5618100166  -999.250000
 3692.3472000 2.5476970673 7.2697615623 5.2590923309  -999.250000 6.5943493843  -999.250000
 3692.4996000 2.5444030762 7.1421461105 5.0854921341  -999.250000 6.5147743225  -999.250000
 3692.6520000 2.5500342846 7.0976519585 5.4726285934  -999.250000 6.3322539330  -999.250000
 3692.8044000 2.5570604801 7.1057887077 7.5475401878  -999.250000 6.3306064606  -999.250000
 3692.9568000 2.5467903614 6.9956536293 9.2353172302  -999.250000 6.1889619827  -999.250000
 3693.1092000 2.5451908112 7.0689458847 9.0052242279  -999.250000 6.1534934044  -999.250000
 3693.2616000 2.5213305950 7.0393595695 7.0873541832  -999.250000 6.1948404312  -999.250000
 3693.4140000 2.5064907074 7.0435156822 4.7536935806  -999.250000 6.1943125725  -999.250000
 3693.5664000 2.4661488533 6.9209513664 4.3379030228  -999.250000 6.1554474831  -999.250000
 3693.7188000 2.4722537994 6.9488110542 4.5623674393  -999.250000 6.1629452705  -999.250000
 3693.8712000 2.4872379303 6.7399706841 5.2026214600  -999.250000 6.1480350494  -999.250000
 3694.0236000 2.5349912643 6.7399706841 6.2450156212  -999.250000 6.1480350494  -999.250000
 3694.1760000 2.5417993069 6.4731783867 6.6844544411  -999.250000 6.0236148834  -999.250000
 3694.3284000 2.5507035255 6.2461428642 7.1611900330  -999.250000 5.8798809052  -999.250000
 3694.4808000 2.5386507511 6.2476158142 6.9106011391  -999.250000 5.8704724312  -999.250000
 3694.6332000 2.5622525215 6.1145329475 7.0613102913  -999.250000 5.8298187256  -999.250000
 3694.7856000 2.5549938679 5.9028992653 7.6133189201  -999.250000 5.5590147972  -999.250000
 3694.9380000 2.5650079250 5.8967971802 7.8010196686  -999.250000 5.5806579590  -999.250000
 3695.0904000 2.5371739864 5.7553653717 7.3270783424  -999.250000 5.3562798500  -999.250000
 3695.2428000 2.5243196487 5.3773231506 6.1914968491  -999.250000 4.9760808945  -999.250000
 3695.3952000 2.5093808174 5.3983430862 5.3144793510  -999.250000 4.9756360054  -999.250000
 3695.5476000 2.5099930763 5.3363246918 4.8527035713  -999.250000 4.9192042351  -999.250000
 3695.7000000 2.6400878429 4.9788513184 4.6139707565  -999.250000 4.7083950043  -999.250000
 3695.8524000 2.5313699245 4.9545183182 4.8517694473  -999.250000 4.6916275024  -999.250000
 3696.0048000 2.5388536453 4.8642983437 4.6592197418  -999.250000 4.6421184540  -999.250000
 3696.1572000 2.5400931835 4.7839980125 4.4666709900  -999.250000 4.6184515953  -999.250000
 3696.3096000 2.5487880707 4.7827787399 4.5606551170  -999.250000 4.6088480949  -999.250000
 3696.4620000 2.5459060669 4.7640123367 5.2692470551  -999.250000 4.6430525780  -999.250000
 3696.6144000 2.5377373695 4.8523340225 4.4863443375  -999.250000 4.7183003426  -999.250000
 3696.7668000 2.5383920670 4.8566732407 5.1173229218  -999.250000 4.7130675316  -999.250000
 3696.9192000 2.5482530594 4.8783988953 5.6622920036  -999.250000 4.7773323059  -999.250000
 3697.0716000 2.5631232262 5.2451553345 6.7734594345  -999.250000 5.0329151154  -999.250000
 3697.2240000 2.5670626163 5.2571630478 6.7506046295  -999.250000 5.0475902557  -999.250000
 3697.3764000 2.5756728649 5.4158377647 7.6905102730  -999.250000 5.3554835320  -999.250000
 3697.5288000 2.5741989613 5.9387292862 9.5557126999  -999.250000 5.7439513206  -999.250000
 3697.6812000 2.5519747734 5.9017572403 9.7547121048  -999.250000 5.7552690506  -999.250000
 3697.8336000 2.5314693451 6.3552603722 8.7005043030  -999.250000 6.2597274780  -999.250000
 3697.9860000 2.5297155380 6.7834396362 6.1940875053  -999.250000 6.6085815430  -999.250000
 3698.1384000 2.5416564941 6.7542195320 4.7418794632  -999.250000 6.6149401665  -999.250000
 3698.2908000 2.5571920872 7.4625358582 4.5414123535  -999.250000 7.1958928108  -999.250000
 3698.4432000 2.5636622906 7.7852773666 5.7931532860  -999.250000 7.4401049614  -999.250000
 3698.5956000 2.5776801109 7.7671599388 6.8840427399  -999.250000 7.4280753136  -999.250000
 3698.7480000 2.5750193596 8.1537656784 6.7231917381  -999.250000 7.7107467651  -999.250000
 3698.9004000 2.5812828541 8.2682209015 6.0980553627  -999.250000 7.7825951576  -999.250000
 3699.0528000 2.5827069283 8.2658996582 5.6337699890  -999.250000 7.7276377678  -999.250000
 3699.2052000 2.5924270153 8.1896076202 5.4387049675  -999.250000 7.6994299889  -999.250000
 3699.3576000 2.5948843956 8.2530078888 5.7079253197  -999.250000 7.7038197517  -999.250000
 3699.5100000 2.5925545692 8.2261505127 6.0412263870  -999.250000 7.7136979103  -999.250000
 3699.6624000 2.5927484035 7.9643664360 6.1053071022  -999.250000 7.5754776001  -999.250000
 3699.8148000 2.5979421139 8.0385990143 6.1488795280  -999.250000 7.5087132454  -999.250000
 3699.9672000 2.5937850475 8.1192874908 6.1283717155  -999.250000 7.5228075981  -999.250000
 3700.1196000 2.5676834583 8.0313787460 6.1083726883  -999.250000 7.3505587578  -999.250000
 3700.2720000 2.5461299419 8.0004034042 6.1088819504  -999.250000 7.2751412392  -999.250000
 3700.4244000 2.5433275700 7.9601159096 6.3350362778  -999.250000 7.2517495155  -999.250000
 3700.5768000 2.5545554161 7.8447666168 6.5606808662  -999.250000 7.2093281746  -999.250000
 3700.7292000 2.5700323582 7.6718082428 5.4641237259  -999.250000 6.9743485451  -999.250000
 3700.8816000 2.5687277317 7.6420173645 4.1419210434  -999.250000 6.9302458763  -999.250000
 3701.0340000 2.5734717846 7.5433225632 3.1330208778  -999.250000 6.8743166924  -999.250000
 3701.1864000 2.5619792938 7.3179159164 3.4463229179  -999.250000 6.6897168159  -999.250000
 3701.3388000 2.5506348610 7.3769659996 3.3010952473  -999.250000 6.6658058167  -999.250000
 3701.4912000 2.5517892838 7.3437023163 2.8425657749  -999.250000 6.5864186287  -999.250000
 3701.6436000 2.5623579025 6.9284334183 4.8027124405  -999.250000 6.5641679764  -999.250000
 3701.7960000 2.5694451332 6.9500327110 7.1410546303  -999.250000 6.5513205528  -999.250000
 3701.9484000 2.5636398792 6.8980326653 9.4793958664  -999.250000 6.5186500549  -999.250000
 3702.1008000 2.5552499294 6.8810606003 8.7782011032  -999.250000 6.5305333138  -999.250000
 3702.2532000 2.5585558414 6.8625192642 8.1573381424  -999.250000 6.5830636024  -999.250000
 3702.4056000 2.5871732235 7.3131322861 8.7839422226  -999.250000 6.9191460609  -999.250000
 3702.5580000 2.6090531349 7.3186445236 10.031409264  -999.250000 6.9100646973  -999.250000
