# LAS format log file from PETREL
# Project units are specified as depth units
#==================================================================
~Version information
VERS.   2.0:
WRAP.   NO:
#==================================================================
~Well
STRT .m      -0.015270480 :
STOP .m      1245.8090095 :
STEP .m     0.04572000 :
NULL .        -999.250000 :
COMP.           : COMPANY
WELL.  15_9-19 A   : WELL
FLD.            : FIELD
LOC.            : LOCATION
SRVC.           : SERVICE COMPANY
DATE.  2020-08-19 21:46:58   : Log Export Date {yyyy-MM-dd HH:mm:ss}
PROV.           : PROVINCE
UWI.   15_9-19 A   : UNIQUE WELL ID
API.            : API NUMBER
#==================================================================
~Curve
DEPT .m                   : DEPTH
GR .gAPI                  : GR
NPHI .m3/m3               : NPHI
RHOB .g/cm3               : RHOB
RM .ohm.m                 : RM
RT .ohm.m                 : RT
FACIES ._                 : FACIES
~Parameter
#==================================================================
~Ascii
# ...
 1125.6568495 204.67999268 0.4599999785 2.2351999283 2.0999999046 2.0000000000  -999.250000
 1125.7025695 206.83000183 0.4099999964 2.2386000156 2.0999999046 2.0000000000  -999.250000
 1125.7482895 217.42999268 0.4599999785 2.2316000462 2.0999999046 2.0999999046  -999.250000
 1125.7940095 221.03999329 0.4199999869 2.2462999821 2.2999999523 2.4000000954  -999.250000
 1125.8397295 218.02999878 0.4900000095 2.2514998913 2.5999999046 3.0000000000  -999.250000
 1125.8854495 215.74000549 0.4399999976 2.2493000031 3.0999999046 3.9000000954  -999.250000
 1125.9311695 199.30000305 0.4599999785 2.3466999531 3.5000000000 4.9000000954  -999.250000
 1125.9768895 187.14999390 0.4599999785 2.7086000443 3.5000000000 4.8000001907  -999.250000
 1126.0226095 163.88999939 0.4000000060 2.5486001968 2.7999999523 3.4000000954  -999.250000
 1126.0683295 130.61000061 0.4199999869 2.3593001366 2.0000000000 2.2000000477  -999.250000
 1126.1140495 162.38000488 0.4000000060 2.3523001671 1.3999999762 1.5000000000  -999.250000
 1126.1597695 178.96000671 0.4099999964 2.2943000793 1.1000000238 1.1000000238  -999.250000
 1126.2054895 160.55000305 0.4399999976 2.3148999214 0.8999999762 0.8999999762  -999.250000
 1126.2512095 151.55999756 0.4699999690 2.3736000061 0.8000000119 0.8000000119  -999.250000
 1126.2969295 151.27999878 0.3799999952 2.2896001339 0.8999999762 0.8999999762  -999.250000
 1126.3426495 148.52000427 0.3900000155 2.3388998508 1.2000000477 1.1000000238  -999.250000
 1126.3883695 151.52000427 0.4000000060 2.2509999275 1.6000000238 1.5000000000  -999.250000
 1126.4340895 161.17999268 0.4000000060 2.2715001106 1.7999999523 1.7000000477  -999.250000
 1126.4798095 170.11000061 0.4399999976 2.2661001682 2.0999999046 2.0000000000  -999.250000
 1126.5255295 178.61999512 0.4099999964 2.2403998375 2.2999999523 2.0999999046  -999.250000
 1126.5712495 186.66000366 0.4499999881 2.2344999313 2.2999999523 2.2000000477  -999.250000
 1126.6169695 187.19000244 0.3900000155 2.1998000145 2.4000000954 2.4000000954  -999.250000
 1126.6626895 190.19000244 0.3599999845 2.2288000584 2.4000000954 2.5000000000  -999.250000
 1126.7084095 198.71000671 0.3299999833 2.2118999958 2.4000000954 2.5000000000  -999.250000
 1126.7541295 201.50999451 0.3900000155 2.2176001072 2.4000000954 2.4000000954  -999.250000
 1126.7998495 196.58999634 0.4499999881 2.2461001873 2.2999999523 2.2999999523  -999.250000
 1126.8455695 190.58000183 0.4699999690 2.2485001087 2.2999999523 2.2000000477  -999.250000
 1126.8912895 187.08000183 0.4800000191 2.2346999645 2.2999999523 2.0999999046  -999.250000
 1126.9370095  -999.250000  -999.250000  -999.250000  -999.250000  -999.250000  -999.250000
 1126.9827295 184.25000000 0.4300000072 2.2283000946 2.2999999523 2.0999999046  -999.250000
 1127.0284495 184.42999268 0.4399999976 2.2269999981 2.2999999523 2.0999999046  -999.250000
 1127.0741695 190.13999939 0.4399999976 2.2303998470 2.2999999523 2.0999999046  -999.250000
 1127.1198895 193.80000305 0.4599999785 2.2578001022 2.2999999523 2.2000000477  -999.250000
 1127.1656095 197.24000549 0.4300000072 2.2946999073 2.2000000477 2.2000000477  -999.250000
 1127.2113295 203.97000122 0.4099999964 2.3052999973 2.2000000477 2.2000000477  -999.250000
 1127.2570495 207.69000244 0.4499999881 2.2373001575 2.2000000477 2.2999999523  -999.250000
 1127.3027695 211.16999817 0.4599999785 2.2508997917 2.2999999523 2.2999999523  -999.250000
 1127.3484895 214.99000549 0.4300000072 2.2306001186 2.2999999523 2.4000000954  -999.250000
 1127.3942095 218.00000000 0.4699999690 2.2070000172 2.4000000954 2.5000000000  -999.250000
 1127.4399295 223.53999329 0.4699999690 2.2135000229 2.4000000954 2.4000000954  -999.250000
 1127.4856495 224.35000610 0.4300000072 2.2431001663 2.2000000477 2.2999999523  -999.250000
 1127.5313695 214.42999268 0.4900000095 2.3101999760 2.0999999046 2.0999999046  -999.250000
 1127.5770895 199.74000549 0.4900000095 2.3145000935 1.7999999523 1.8999999762  -999.250000
 1127.6228095 194.05000305 0.4599999785 2.2051999569 1.6000000238 1.7999999523  -999.250000
 1127.6685295 191.08999634 0.4499999881 2.2326998711 1.6000000238 1.7999999523  -999.250000
 1127.7142495 189.16999817 0.3900000155 2.2172000408 1.6000000238 2.0000000000  -999.250000
 1127.7599695 191.27000427 0.4499999881 2.2314000130 1.7999999523 2.5999999046  -999.250000
 1127.8056895 196.16999817 0.4300000072 2.2278001308 2.0000000000 3.4000000954  -999.250000
 1127.8514095 204.78999329 0.5300000310 2.2167999744 2.2000000477 4.0999999046  -999.250000
 1127.8971295 204.50999451 0.4800000191 2.2171001434 2.4000000954 4.5000000000  -999.250000
 1127.9428495 199.27999878 0.4399999976 2.2295000553 2.4000000954 3.9000000954  -999.250000
 1127.9885695 192.83000183 0.4900000095 2.2263000011 2.0000000000 2.5999999046  -999.250000
 1128.0342895 182.24000549 0.4499999881 2.2155001163 1.5000000000 1.7000000477  -999.250000
 1128.0800095 173.74000549 0.4399999976 2.2058999538 1.2000000477 1.2000000477  -999.250000
 1128.1257295 176.57000732 0.4399999976 2.1878998280 1.0000000000 0.8999999762  -999.250000
 1128.1714495 185.02999878 0.4399999976 2.1878998280 0.8999999762 0.8000000119  -999.250000
 1128.2171695 190.49000549 0.4300000072 2.2009999752 1.0000000000 0.8999999762  -999.250000
 1128.2628895 194.88000488 0.4300000072 2.2197999954 1.2000000477 1.2999999523  -999.250000
 1128.3086095 198.78999329 0.4199999869 2.0002999306 1.5000000000 3.7999999523  -999.250000
 1128.3543295 205.30999756 0.4699999690 2.2196998596 2.2999999523 7649.3999023  -999.250000
 1128.4000495 208.30999756 0.5099999905 2.2353000641 2388.5000000 10000.000000  -999.250000
 1128.4457695 210.77000427 0.5099999905 2.2232999802 10000.000000 10000.000000  -999.250000
 1128.4914895 215.77000427 0.5199999809 2.2121000290 10000.000000 10000.000000  -999.250000
 1128.5372095 217.00999451 0.4699999690 2.2321000099 10000.000000 10000.000000  -999.250000
 1128.5829295 220.16999817 0.5099999905 2.1944999695 10000.000000 10000.000000  -999.250000
 1128.6286495 241.55000305 0.5800000429 2.1588997841 7632.7001953 10000.000000  -999.250000
 1128.6743695 263.08999634 0.4900000095 2.2366001606 1.0000000000 2358.1000977  -999.250000
 1128.7200895 344.10000610 0.4300000072 2.2746000290 0.3000000119 0.3000000119  -999.250000
 1128.7658095 582.01000977 0.4499999881 2.6451001167 0.1000000015 0.1000000015  -999.250000
 1128.8115295 807.20001221 0.5600000024 2.5071001053 0.1000000015 0.1000000015  -999.250000
 1128.8572495 1148.8499756 0.4099999964 2.6413998604 0.1000000015 0.1000000015  -999.250000
 1128.9029695 1458.4699707 0.3799999952 2.6706998348 0.1000000015 0.1000000015  -999.250000
 1128.9486895 1342.0799561 0.4099999964 2.6145000458 0.2000000030 0.2000000030  -999.250000
 1128.9944095 876.33001709 0.3100000024 2.5822000504 0.5000000000 0.4000000060  -999.250000
 1129.0401295 475.29000854 0.3000000119 2.5931999683 0.6999999881 0.6999999881  -999.250000
 1129.0858495 387.51998901 0.2900000215 2.5303001404 4.4000000954 2374.8999023  -999.250000
 1129.1315695 360.67001343 0.3100000024 2.5586001873 7650.0000000 10000.000000  -999.250000
 1129.1772895 326.25000000 0.3000000119 2.5816998482 10000.000000 10000.000000  -999.250000
 1129.2230095 290.22000122 0.2700000107 2.5841999054 10000.000000 10000.000000  -999.250000
 1129.2687295 262.38000488 0.2500000000 2.4413998127 10000.000000 10000.000000  -999.250000
 1129.3144495 253.99000549 0.2299999893 2.4606001377 2423.1000977 7620.8999023  -999.250000
 1129.3601695 246.19999695 0.3799999952 2.3066999912 2.7000000477 3.9000000954  -999.250000
 1129.4058895 231.42999268 0.4300000072 2.3476998806 1.5000000000 1.2999999523  -999.250000
 1129.4516095 203.86000061 0.5000000000 2.4108998775 1.2999999523 1.0000000000  -999.250000
 1129.4973295 177.17999268 0.3499999940 2.4201998711 1.2999999523 1.0000000000  -999.250000
 1129.5430495 151.77000427 0.3000000119 2.5018000603 1.7999999523 1.5000000000  -999.250000
 1129.5887695 123.06999969 0.3100000024 2.5628998280 2.7999999523 2.5000000000  -999.250000
