# LAS format log file from PETREL
# Project units are specified as depth units
#==================================================================
~Version information
VERS.   2.0:
WRAP.   NO:
#==================================================================
~Well
STRT .m      189.89040000 :
STOP .m      3795.0648000 :
STEP .m     0.15240000 :
NULL .        -999.250000 :
COMP.           : COMPANY
WELL.  15_9-F-5   : WELL
FLD.            : FIELD
LOC.            : LOCATION
SRVC.           : SERVICE COMPANY
DATE.  2020-08-19 21:46:58   : Log Export Date {yyyy-MM-dd HH:mm:ss}
PROV.           : PROVINCE
UWI.   15_9-F-5   : UNIQUE WELL ID
API.            : API NUMBER
#==================================================================
~Curve
DEPT .m                   : DEPTH
RHOB .g/cm3               : RHOB
GR .gAPI                  : GR
RT .ohm.m                 : RT
NPHI .m3/m3               : NPHI
RM .ohm.m                 : RM
FACIES ._                 : FACIES
~Parameter
#==================================================================
~Ascii
# ...
 3372.0024000 2.4775590897 107.68509674 2.4580209255 0.2907638848 2.3745551109  -999.250000
 3372.1548000 2.4803769588 107.97660065 2.3402669430 0.2958703935 2.3637290001  -999.250000
 3372.3072000 2.4813020229 109.71089935 2.3990120888 0.2822829187 2.3242280483  -999.250000
 3372.4596000 2.4832820892 113.62570190 2.2516429424 0.2744965851 2.3231000900  -999.250000
 3372.6120000 2.4812049866 114.42520142 2.2967479229 0.2907932103 2.2619550228  -999.250000
 3372.7644000 2.4759080410 114.51560211 2.2096068859 0.2939122915 2.2245619297  -999.250000
 3372.9168000 2.4672119617 113.73690033 2.4217650890 0.3041301966 2.2145059109  -999.250000
 3373.0692000 2.4650290012 115.92870331 2.1449699402 0.3518112898 2.2130029202  -999.250000
 3373.2216000 2.4688370228 116.76380157 2.0800058842 0.3231815100 2.1294910908  -999.250000
 3373.3740000 2.4650690556 117.49939728 2.0971410275 0.3204962015 2.0694179535  -999.250000
 3373.5264000 2.4634859562 115.77459717 2.1188359261 0.2950139046 2.0002539158  -999.250000
 3373.6788000 2.4621539116 114.21360016 2.0440330505 0.2956672907 2.0558519363  -999.250000
 3373.8312000 2.4669559002 114.69779968 2.0042259693 0.3117396832 2.0634889603  -999.250000
 3373.9836000 2.4581899643 115.24349976 1.8471620083 0.3171814978 1.8733750582  -999.250000
 3374.1360000 2.4510049820 114.52829742 2.0252358913 0.3083252907 1.9504309893  -999.250000
 3374.2884000 2.4439520836 111.55719757 1.8826930523 0.3095247149 1.9073179960  -999.250000
 3374.4408000 2.4574120045 113.86039734 1.8837950230 0.3083262146 1.9101279974  -999.250000
 3374.5932000 2.4697649479 118.94139862 1.9257580042 0.2885912061 1.8696260452  -999.250000
 3374.7456000 2.4762489796 123.06439972 1.8916770220 0.3287577033 1.8141800165  -999.250000
 3374.8980000 2.4728260040 122.00060272 2.0703139305 0.3156858981 1.8981560469  -999.250000
 3375.0504000 2.4669289589 119.32369995 1.9522420168 0.3244954944 1.8886259794  -999.250000
 3375.2028000 2.4648499489 118.35890198 1.8785090446 0.3101981878 1.8327419758  -999.250000
 3375.3552000 2.4603860378 117.85849762 1.8032219410 0.3063547015 1.8267159462  -999.250000
 3375.5076000 2.4609789848 118.54579926 1.8298310041 0.2982428968 1.8483330011  -999.250000
 3375.6600000 2.4625880718 119.19599915 2.0282421112 0.2970764041 2.0109620094  -999.250000
 3375.8124000 2.4610459805 119.25820160 1.8677289486 0.2876754999 1.8487269878  -999.250000
 3375.9648000 2.4503901005 117.59470367 1.8540420532 0.2793425024 1.8863639832  -999.250000
 3376.1172000 2.4438641071 115.07119751 1.8189549446 0.2818751037 1.8467659950  -999.250000
 3376.2696000 2.4464199543 114.91790009 1.9587160349 0.3008344173 1.9158660173  -999.250000
 3376.4220000 2.4504179955 113.61589813 1.8940600157 0.2913281918 1.9096200466  -999.250000
 3376.5744000 2.4460220337 118.83039856 1.8667980433 0.3226123750 1.8245060444  -999.250000
 3376.7268000 2.4378800392 119.42680359 1.8580440283 0.2746790051 1.9003510475  -999.250000
 3376.8792000 2.4330470562 121.94789886 1.9443449974 0.2830342948 1.9351660013  -999.250000
 3377.0316000 2.4409670830 118.19969940 1.8861730099 0.3430916965 1.8471659422  -999.250000
 3377.1840000 2.4445528984 116.62110138 2.0076370239 0.3060584068 1.9527750015  -999.250000
 3377.3364000 2.4525029659 115.04689789 1.9328680038 0.2942497134 1.8946260214  -999.250000
 3377.4888000 2.4566030502 115.97760010 1.7909350395 0.2793692052 1.8295619488  -999.250000
 3377.6412000 2.4665760994 117.57479858 1.9319959879 0.3061023951 1.9538999796  -999.250000
 3377.7936000 2.4658119678 117.00569916 1.8867100477 0.2744818926 1.9335930347  -999.250000
 3377.9460000 2.4646630287 115.73329926 1.8907419443 0.2935270071 1.8515490294  -999.250000
 3378.0984000 2.4515750408 113.26180267 1.9213919640 0.3579365909 1.8859649897  -999.250000
 3378.2508000 2.4450430870 111.02149963 1.8903260231 0.3226295710 1.9256290197  -999.250000
 3378.4032000 2.4361670017 110.71299744 1.9293470383 0.2985323966 1.9109699726  -999.250000
 3378.5556000 2.4331269264 112.64289856 1.9693770409 0.3021354973 1.8893009424  -999.250000
 3378.7080000 2.4397349358 112.91280365 1.8300800323 0.2937242985 1.8953089714  -999.250000
 3378.8604000 2.4473190308 111.43930054 1.8395420313 0.3114172816 1.9148540497  -999.250000
 3379.0128000 2.4604079723 109.57749939 1.8856949806 0.3032619059 1.9008920193  -999.250000
 3379.1652000 2.4639859200 109.46790314 1.8847160339 0.2948783040 1.8219699860  -999.250000
 3379.3176000 2.4679720402 108.36250305 1.9447059631 0.2922824025 1.8429739475  -999.250000
 3379.4700000 2.4663259983 109.14569855 1.9528850317 0.2996720970 1.8479650021  -999.250000
 3379.6224000 2.4639010429 110.29879761 1.9150400162 0.3254914880 1.8199830055  -999.250000
 3379.7748000 2.4547460079 108.39640045 1.8219900131 0.3020690978 1.7532399893  -999.250000
 3379.9272000 2.4525249004 109.79620361 1.8065819740 0.3102664948 1.8289510012  -999.250000
 3380.0796000 2.4528999329 110.44149780 1.9865330458 0.3095422983 1.9684859514  -999.250000
 3380.2320000 2.4619860649 114.30400085 1.7604720592 0.2849180102 1.7514350414  -999.250000
 3380.3844000 2.4718980789 114.63249969 1.7305890322 0.3152135015 1.7457330227  -999.250000
 3380.5368000 2.4720630646 113.43340302 1.8435349464 0.3081230819 1.7786090374  -999.250000
 3380.6892000 2.4722020626 114.69249725 1.9347259998 0.3405221999 1.8890949488  -999.250000
 3380.8416000 2.4666039944 113.35150146 1.8418190479 0.2821373940 1.8313430548  -999.250000
 3380.9940000 2.4721539021 114.96240234 1.8112419844 0.3099257052 1.8272730112  -999.250000
 3381.1464000 2.4717519283 114.58860016 1.8547860384 0.3380981088 1.8652520180  -999.250000
 3381.2988000 2.4692699909 111.88310242 1.8822430372 0.3130120933 1.8850320578  -999.250000
 3381.4512000 2.4642980099 110.60179901 2.0912899971 0.3196036816 1.9863070250  -999.250000
 3381.6036000 2.4639649391 109.42720032 2.0387690067 0.2821646929 1.9624069929  -999.250000
 3381.7560000 2.4734489918 110.39749908 1.8559670448 0.2947925031 1.8392659426  -999.250000
 3381.9084000 2.4763779640 110.55979919 1.9213249683 0.3069252968 1.9235210419  -999.250000
 3382.0608000 2.4811539650 111.66870117 1.9249960184 0.2901954055 1.9285110235  -999.250000
 3382.2132000 2.4805519581 114.13690186 1.9180330038 0.3172734082 1.8705949783  -999.250000
 3382.3656000 2.4864718914 114.15370178 1.9085539579 0.2982789874 1.8779059649  -999.250000
 3382.5180000 2.4900600910 112.08470154 2.0345981121 0.2954244912 1.9401199818  -999.250000
 3382.6704000 2.4865970612 108.77680206 1.9693640471 0.2904492021 1.9163550138  -999.250000
 3382.8228000 2.4835989475 110.46880341 1.8988980055 0.2768450975 1.8477770090  -999.250000
 3382.9752000 2.4784760475 113.38539886 1.9175120592 0.2787874937 1.8745789528  -999.250000
 3383.1276000 2.4765920639 118.01979828 1.8857259750 0.3209685981 1.8967570066  -999.250000
 3383.2800000 2.4708778858 119.09249878 1.8757660389 0.3299179077 1.9208290577  -999.250000
 3383.4324000 2.4666390419 116.87110138 1.8618659973 0.2875453830 1.8730410337  -999.250000
 3383.5848000 2.4652209282 115.27880096 1.8792409897 0.2900401950 1.8349150419  -999.250000
 3383.7372000 2.4707438946 114.52300262 1.9270119667 0.2938891053 1.8494989872  -999.250000
 3383.8896000 2.4697239399 117.06289673 1.9375000000 0.3074879050 1.9493160248  -999.250000
 3384.0420000 2.4722690582 119.11699677 1.8568840027 0.3213728070 1.8544230461  -999.250000
 3384.1944000 2.4662349224 118.07569885 1.8326770067 0.3040100932 1.8127479553  -999.250000
 3384.3468000 2.4688920975 117.98819733 1.8944269419 0.3043442965 1.8455840349  -999.250000
 3384.4992000 2.4644949436 117.21399689 1.8783309460 0.2932654917 1.8328950405  -999.250000
 3384.6516000 2.4636969566 119.08010101 1.8440580368 0.2811877131 1.8386629820  -999.250000
 3384.8040000 2.4701960087 116.07170105 1.7283120155 0.2739731073 1.7810449600  -999.250000
 3384.9564000 2.4816460609 112.37169647 2.1232829094 0.2981727123 1.9818810225  -999.250000
 3385.1088000 2.4918560982 110.31860352 2.0359439850 0.2982003987 1.9804079533  -999.250000
