# LAS format log file from PETREL
# Project units are specified as depth units
#==================================================================
~Version information
VERS.   2.0:
WRAP.   NO:
#==================================================================
~Well
STRT .m      189.89040000 :
STOP .m      3795.0648000 :
STEP .m     0.15240000 :
NULL .        -999.250000 :
COMP.           : COMPANY
WELL.  15_9-F-5   : WELL
FLD.            : FIELD
LOC.            : LOCATION
SRVC.           : SERVICE COMPANY
DATE.  2020-08-19 21:46:58   : Log Export Date {yyyy-MM-dd HH:mm:ss}
PROV.           : PROVINCE
UWI.   15_9-F-5   : UNIQUE WELL ID
API.            : API NUMBER
#==================================================================
~Curve
DEPT .m                   : DEPTH
RHOB .g/cm3               : RHOB
GR .gAPI                  : GR
RT .ohm.m                 : RT
NPHI .m3/m3               : NPHI
RM .ohm.m                 : RM
FACIES ._                 : FACIES
~Parameter
#==================================================================
~Ascii
# ...
 3650.4372000 2.2388200760 38.617160797 8.1132993698 0.2210687101 8.0064725876  -999.250000
 3650.5896000 2.2343320847 36.848350525 8.2104539871 0.2418754995 7.9148402214  -999.250000
 3650.7420000 2.2336208820 36.220638275 8.0556869507 0.2481209040 8.0837831497  -999.250000
 3650.8944000 2.2295930386 35.857231140 8.0695581436 0.2203190923 8.1104240417  -999.250000
 3651.0468000 2.2253170013 35.960491180 8.1596956253 0.2434408963 8.0476322174  -999.250000
 3651.1992000 2.2137680054 37.287590027 8.0385408401 0.2497578114 8.1020393372  -999.250000
 3651.3516000 2.2540929317 38.014968872 8.2254791260 0.2429904044 8.1251783371  -999.250000
 3651.5040000 2.2600750923 38.800041199 8.1697263718 0.2368211001 8.1988620758  -999.250000
 3651.6564000 2.2719919682 38.035499573 8.2577323914 0.2292329967 8.0775823593  -999.250000
 3651.8088000 2.2378480434 38.209178925 8.1874465942 0.2205546051 8.1123151779  -999.250000
 3651.9612000 2.2398309708 37.322608948 8.1664237976 0.2451262027 8.1136894226  -999.250000
 3652.1136000 2.2416000366 36.496791840 8.1438713074 0.2476094961 8.1628484726  -999.250000
 3652.2660000 2.2393000126 35.527671814 8.0901861191 0.2363069952 8.0959711075  -999.250000
 3652.4184000 2.2395660877 34.853691101 8.3136873245 0.2348762006 8.0976648331  -999.250000
 3652.5708000 2.2447988987 37.367790222 8.3320693970 0.2170830965 8.0170421600  -999.250000
 3652.7232000 2.2500500679 39.742630005 8.1854038239 0.2330771089 7.9806180000  -999.250000
 3652.8756000 2.2605888844 42.324771881 8.0240306854 0.2469169050 7.9776449203  -999.250000
 3653.0280000 2.2670679092 40.355339050 8.2014951706 0.2259314954 7.9885268211  -999.250000
 3653.1804000 2.2724969387 40.703960419 8.1956615448 0.2068302929 8.0799007416  -999.250000
 3653.3328000 2.2676720619 42.206020355 8.3024835587 0.2129680961 8.0335798264  -999.250000
 3653.4852000 2.2577838898 44.240451813 8.3190650940 0.2149930000 8.0102872849  -999.250000
 3653.6376000 2.2504570484 44.855388641 8.1522684097 0.2249172926 8.0196151733  -999.250000
 3653.7900000 2.2530310154 43.402229309 8.0787019730 0.2248086035 8.0813341141  -999.250000
 3653.9424000 2.2569632530 42.641399384 8.1721868515 0.2133098096 8.1631889343  -999.250000
 3654.0948000 2.2656569481 41.513690948 8.1910619736 0.1994979978 8.1935205460  -999.250000
 3654.2472000 2.2707390785 44.635780334 8.2940816879 0.2101107091 8.2798767090  -999.250000
 3654.3996000 2.2798490524 44.499019623 8.2267913818 0.2174482942 8.3903369904  -999.250000
 3654.5520000 2.2857139111 43.820770264 8.1449460983 0.1970895976 8.4454956055  -999.250000
 3654.7044000 2.2892129421 40.292881012 8.2968978882 0.1928533912 8.6079225540  -999.250000
 3654.8568000 2.2907357216 41.739261627 8.3817281723 0.1804735065 8.7319078445  -999.250000
 3655.0092000 2.2909960747 39.043849945 8.3852376938 0.1797905862 8.7558326721  -999.250000
 3655.1616000 2.2919850349 37.492938995 8.4280309677 0.1788311005 8.8869581223  -999.250000
 3655.3140000 2.2946920395 35.237670898 8.4993009567 0.1715262979 8.8599376678  -999.250000
 3655.4664000 2.2940349579 35.729061127 8.7072172165 0.1779921949 8.8691234589  -999.250000
 3655.6188000 2.2947549820 36.369400024 8.5310821533 0.1861006916 8.8318548203  -999.250000
 3655.7712000 2.2973930836 33.952491760 8.8058719635 0.1641521007 8.7501287460  -999.250000
 3655.9236000 2.2945330143 33.859821320 8.6428155899 0.1813879907 8.7354059219  -999.250000
 3656.0760000 2.2699079514 30.491090775 8.6846513748 0.1971787959 8.5120868683  -999.250000
 3656.2284000 2.2453999519 29.405029297 8.3484296799 0.1885804981 8.3816127777  -999.250000
 3656.3808000 2.2209138870 27.068569183 7.7860531807 0.2084243000 7.7798190117  -999.250000
 3656.5332000 2.2240569592 26.711299896 7.5039949417 0.2127050906 7.6403379440  -999.250000
 3656.6856000 2.2267410755 25.338239670 7.4190440178 0.2265926003 7.1224460602  -999.250000
 3656.8380000 2.2439050674 22.894910812 7.1274662018 0.1982941031 6.7193827629  -999.250000
 3656.9904000 2.2502601147 21.797779083 6.7527999878 0.1999768019 6.5002908707  -999.250000
 3657.1428000 2.2528150082 20.142290115 6.7861318588 0.2097440958 6.2519087791  -999.250000
 3657.2952000 2.2497920990 20.737060547 6.6285247803 0.1999480128 6.1514258385  -999.250000
 3657.4476000 2.2505559921 20.707330704 6.5312399864 0.1869814992 5.9379639626  -999.250000
 3657.6000000 2.2595450878 22.697389603 6.5294761658 0.1951934993 5.9413681030  -999.250000
 3657.7524000 2.2679870129 24.091949463 6.3748908043 0.1801642925 5.8021931648  -999.250000
 3657.9048000 2.2734971046 23.649709702 6.0766701698 0.1825577021 5.6316242218  -999.250000
 3658.0572000 2.2641930580 22.669689178 5.9149022102 0.1883700043 5.5540318489  -999.250000
 3658.2096000 2.2573370934 22.137449265 5.7637667656 0.1954355091 5.4350719452  -999.250000
 3658.3620000 2.2455780506 22.794839859 5.4741439819 0.1822915971 5.3513288498  -999.250000
 3658.5144000 2.2459020615 22.183090210 5.5338602066 0.1888975948 5.3323760033  -999.250000
 3658.6668000 2.2347030640 22.583219528 5.3706560135 0.1816157848 5.3008069992  -999.250000
 3658.8192000 2.2357430458 20.806280136 5.3685050011 0.2096232027 5.3138098717  -999.250000
 3658.9716000 2.2319130898 21.986249924 5.3755378723 0.1906072050 5.3538990021  -999.250000
 3659.1240000 2.2448730469 20.262399673 5.5470128059 0.1861346960 5.4823808670  -999.250000
 3659.2764000 2.2464621067 21.951549530 5.5203800201 0.1926371902 5.5849118233  -999.250000
 3659.4288000 2.2477068901 22.353120804 5.7615590096 0.1897085011 5.7357640266  -999.250000
 3659.5812000 2.2450759411 24.604230881 5.7982158661 0.1967291981 5.8202471733  -999.250000
 3659.7336000 2.2440490723 26.248350143 5.9568629265 0.1977729946 5.9518117905  -999.250000
 3659.8860000 2.2462730408 27.092979431 5.9330391884 0.1979541928 6.0896029472  -999.250000
 3660.0384000 2.2461369038 27.118919373 6.0350317955 0.1830427945 6.1685600281  -999.250000
 3660.1908000 2.2547729015 28.040220261 6.2192192078 0.1890350878 6.1437520981  -999.250000
 3660.3432000 2.2600030899 27.802289963 6.2529630661 0.1925657094 6.2179670334  -999.250000
 3660.4956000 2.2642140388 29.637170792 6.2455787659 0.1898888052 6.2332210541  -999.250000
 3660.6480000 2.2643640041 30.374839783 6.4361281395 0.1841192991 6.2701101303  -999.250000
 3660.8004000 2.2667620182 32.196098328 6.3973221779 0.1730106026 6.2231788635  -999.250000
 3660.9528000 2.2799360752 32.025661469 6.2930130959 0.1814979911 6.0474610329  -999.250000
 3661.1052000 2.2855529785 31.689540863 6.0904908180 0.1948677003 5.8309469223  -999.250000
 3661.2576000 2.2885890007 31.470869064 5.9820809364 0.1858616024 5.7358078957  -999.250000
 3661.4100000 2.2828021049 30.168970108 5.8344359398 0.1818932891 5.6366500854  -999.250000
 3661.5624000 2.2781310081 28.950660706 5.7779488564 0.1831220090 5.5008540154  -999.250000
 3661.7148000 2.2790379524 27.917629242 5.7500600815 0.1828605980 5.4113688469  -999.250000
 3661.8672000 2.2806980610 27.553499222 5.5217080116 0.1862867922 5.2744369507  -999.250000
 3662.0196000 2.2858769894 27.463850021 5.4227790833 0.1810390055 5.1651282310  -999.250000
 3662.1720000 2.2902929783 29.101020813 5.2553968430 0.1903396100 5.0067148209  -999.250000
 3662.3244000 2.2910048962 31.125560760 5.2254099846 0.1779730916 4.9037570953  -999.250000
 3662.4768000 2.2912549973 31.307229996 5.1005158424 0.1743683070 4.8656039238  -999.250000
 3662.6292000 2.2887461185 30.215040207 4.9438657761 0.1759413928 4.7451128960  -999.250000
 3662.7816000 2.2868409157 29.771129608 4.8420171738 0.1720521897 4.6889619827  -999.250000
 3662.9340000 2.2829918861 31.671819687 4.8627309799 0.1844352931 4.5837860107  -999.250000
 3663.0864000 2.2792549133 31.742750168 4.7290878296 0.1772949100 4.5266451836  -999.250000
 3663.2388000 2.2830960751 31.890260696 4.6397008896 0.1764267981 4.4487500191  -999.250000
 3663.3912000 2.2858400345 31.916370392 4.6173591614 0.1824066043 4.4206352234  -999.250000
 3663.5436000 2.2930569649 33.776168823 4.5200428963 0.1825089008 4.3591217995  -999.250000
