# LAS format log file from PETREL
# Project units are specified as depth units
#==================================================================
~Version information
VERS.   2.0:
WRAP.   NO:
#==================================================================
~Well
STRT .m      -0.015270480 :
STOP .m      1245.8090095 :
STEP .m     0.04572000 :
NULL .        -999.250000 :
COMP.           : COMPANY
WELL.  15_9-19 A   : WELL
FLD.            : FIELD
LOC.            : LOCATION
SRVC.           : SERVICE COMPANY
DATE.  2020-08-19 21:46:58   : Log Export Date {yyyy-MM-dd HH:mm:ss}
PROV.           : PROVINCE
UWI.   15_9-19 A   : UNIQUE WELL ID
API.            : API NUMBER
#==================================================================
~Curve
DEPT .m                   : DEPTH
GR .gAPI                  : GR
NPHI .m3/m3               : NPHI
RHOB .g/cm3               : RHOB
RM .ohm.m                 : RM
RT .ohm.m                 : RT
FACIES ._                 : FACIES
~Parameter
#==================================================================
~Ascii
# ...
 974.50652952 56.459999084 0.3299999833 2.2381999493 1.1000000238 1.1000000238  -999.250000
 974.55224952 54.520000458 0.3299999833 2.2626001835 1.1000000238 1.1000000238  -999.250000
 974.59796952 57.400001526 0.3100000024 2.3058998585 1.1000000238 1.1000000238  -999.250000
 974.64368952 57.189998627 0.3000000119 2.3523998260 1.2000000477 1.1000000238  -999.250000
 974.68940952 54.270000458 0.3499999940 2.3363997936 1.2000000477 1.1000000238  -999.250000
 974.73512952 50.590000153 0.4099999964 2.2980999947 1.2000000477 1.2000000477  -999.250000
 974.78084952 43.400001526 0.3900000155 2.3183000088 1.2000000477 1.1000000238  -999.250000
 974.82656952 38.299999237 0.3900000155 2.3264999390 1.2000000477 1.1000000238  -999.250000
 974.87228952 37.330001831 0.3700000048 2.2853999138 1.1000000238 1.1000000238  -999.250000
 974.91800952 40.970001221 0.3299999833 2.2756001949 1.1000000238 1.1000000238  -999.250000
 974.96372952 46.479999542 0.3400000036 2.2786002159 1.1000000238 1.1000000238  -999.250000
 975.00944952 48.979999542 0.3799999952 2.2776999474 1.1000000238 1.1000000238  -999.250000
 975.05516952 52.500000000 0.4199999869 2.2592999935 1.0000000000 1.0000000000  -999.250000
 975.10088952 52.590000153 0.4300000072 2.2449998856 1.0000000000 1.0000000000  -999.250000
 975.14660952 46.139999390 0.4099999964 2.2616000175 0.8999999762 1.0000000000  -999.250000
 975.19232952 47.209999084 0.4199999869 2.2537000179 0.8999999762 1.0000000000  -999.250000
 975.23804952 49.020000458 0.4199999869 2.2596001625 0.8999999762 1.0000000000  -999.250000
 975.28376952 47.810001373 0.4199999869 2.3001999855 0.8999999762 1.0000000000  -999.250000
 975.32948952 44.209999084 0.4099999964 2.3363001347 0.8999999762 1.0000000000  -999.250000
 975.37520952 44.709999084 0.3700000048 2.3706998825 1.0000000000 1.0000000000  -999.250000
 975.42092952 51.819999695 0.3499999940 2.3918001652 1.0000000000 1.0000000000  -999.250000
 975.46664952 54.409999847 0.4099999964 2.3748998642 1.1000000238 1.1000000238  -999.250000
 975.51236952 52.330001831 0.4499999881 2.3656001091 1.1000000238 1.1000000238  -999.250000
 975.55808952 52.630001068 0.4099999964 2.3611998558 1.1000000238 1.1000000238  -999.250000
 975.60380952 48.959999084 0.3400000036 2.3278000355 1.1000000238 1.1000000238  -999.250000
 975.64952952 48.830001831 0.3199999928 2.2883999348 1.1000000238 1.1000000238  -999.250000
 975.69524952 53.900001526 0.3400000036 2.2513999939 1.1000000238 1.1000000238  -999.250000
 975.74096952 55.990001678 0.3900000155 2.2128000259 1.0000000000 1.0000000000  -999.250000
 975.78668952 57.759998322 0.4199999869 2.1414999962 1.0000000000 1.0000000000  -999.250000
 975.83240952 55.349998474 0.4099999964 2.0508000851 0.8999999762 1.0000000000  -999.250000
 975.87812952 52.520000458 0.3799999952 2.0200998783 0.8999999762 0.8999999762  -999.250000
 975.92384952 54.369998932 0.3499999940 2.0383000374 0.8000000119 0.8999999762  -999.250000
 975.96956952  -999.250000  -999.250000  -999.250000  -999.250000  -999.250000  -999.250000
 976.01528952 50.720001221 0.3400000036 2.0945000648 0.8000000119 0.8999999762  -999.250000
 976.06100952 49.830001831 0.3400000036 2.1991999149 0.8000000119 0.8999999762  -999.250000
 976.10672952 53.119998932 0.3199999928 2.2780001163 0.8000000119 0.8999999762  -999.250000
 976.15244952 54.610000610 0.3100000024 2.2764999866 0.8999999762 0.8999999762  -999.250000
 976.19816952 48.909999847 0.3400000036 2.2904999256 0.8999999762 0.8999999762  -999.250000
 976.24388952 46.259998322 0.4099999964 2.3387000561 0.8999999762 0.8999999762  -999.250000
 976.28960952 52.970001221 0.4900000095 2.3271000385 1.0000000000 1.0000000000  -999.250000
 976.33532952 58.069999695 0.4800000191 2.2892999649 1.0000000000 1.0000000000  -999.250000
 976.38104952 56.049999237 0.4199999869 2.2955000401 1.0000000000 1.0000000000  -999.250000
 976.42676952 53.740001678 0.4099999964 2.3276998997 1.0000000000 1.0000000000  -999.250000
 976.47248952 52.500000000 0.3799999952 2.3428001404 1.0000000000 1.0000000000  -999.250000
 976.51820952 53.229999542 0.3499999940 2.3531000614 1.0000000000 1.0000000000  -999.250000
 976.56392952 57.139999390 0.3599999845 2.3341000080 1.0000000000 1.0000000000  -999.250000
 976.60964952 60.659999847 0.4000000060 2.2744998932 1.0000000000 1.0000000000  -999.250000
 976.65536952 62.470001221 0.5000000000 2.2372000217 1.0000000000 1.0000000000  -999.250000
 976.70108952 64.050003052 0.5699999928 2.2321000099 1.0000000000 1.0000000000  -999.250000
 976.74680952 60.959999084 0.4599999785 2.2764999866 0.8999999762 1.0000000000  -999.250000
 976.79252952 58.930000305 0.3900000155 2.3092000484 0.8999999762 1.0000000000  -999.250000
 976.83824952 58.319999695 0.3700000048 2.3045001030 0.8999999762 1.0000000000  -999.250000
 976.88396952 60.689998627 0.3599999845 2.2891001701 0.8999999762 0.8999999762  -999.250000
 976.92968952 63.169998169 0.3599999845 2.2943999767 0.8999999762 0.8999999762  -999.250000
 976.97540952 58.880001068 0.3599999845 2.2818999290 0.8999999762 0.8999999762  -999.250000
 977.02112952 53.419998169 0.3599999845 2.2909998894 0.8999999762 0.8999999762  -999.250000
 977.06684952 52.139999390 0.3400000036 2.3603999615 0.8999999762 0.8999999762  -999.250000
 977.11256952 53.130001068 0.3599999845 2.3863000870 0.8999999762 0.8999999762  -999.250000
 977.15828952 59.669998169 0.4300000072 2.2867000103 0.8999999762 0.8999999762  -999.250000
 977.20400952 61.360000610 0.4599999785 2.2258000374 1.0000000000 0.8999999762  -999.250000
 977.24972952 54.689998627 0.4699999690 2.2398998737 1.0000000000 0.8999999762  -999.250000
 977.29544952 53.569999695 0.4099999964 2.2513000965 1.0000000000 0.8999999762  -999.250000
 977.34116952 54.419998169 0.4000000060 2.2651000023 0.8999999762 0.8999999762  -999.250000
 977.38688952 56.430000305 0.4000000060 2.2939000130 0.8999999762 0.8999999762  -999.250000
 977.43260952 57.509998322 0.3900000155 2.2318999767 0.8999999762 0.8999999762  -999.250000
 977.47832952 55.340000153 0.3799999952 2.1535000801 0.8999999762 0.8999999762  -999.250000
 977.52404952 55.040000916 0.3400000036 2.1768999100 0.8999999762 0.8999999762  -999.250000
 977.56976952 52.740001678 0.3100000024 2.2184000015 0.8999999762 0.8999999762  -999.250000
 977.61548952 47.740001678 0.3299999833 2.2637000084 0.8999999762 0.8000000119  -999.250000
 977.66120952 47.610000610 0.3400000036 2.2513999939 0.8000000119 0.8000000119  -999.250000
 977.70692952 54.200000763 0.3499999940 2.2411000729 0.8000000119 0.8000000119  -999.250000
 977.75264952 53.209999084 0.3799999952 2.2211000919 0.8000000119 0.8000000119  -999.250000
 977.79836952 46.200000763 0.4000000060 2.2041001320 0.8000000119 0.8000000119  -999.250000
 977.84408952 34.909999847 0.3499999940 2.1947000027 0.8000000119 0.8000000119  -999.250000
 977.88980952 27.170000076 0.2500000000 2.1948001385 0.6999999881 0.6999999881  -999.250000
 977.93552952 26.299999237 0.2299999893 2.2031998634 0.6999999881 0.6999999881  -999.250000
 977.98124952 26.239999771 0.2400000095 2.2046000957 0.6999999881 0.6999999881  -999.250000
 978.02696952 25.510000229 0.2299999893 2.2121999264 0.6999999881 0.6000000238  -999.250000
 978.07268952 26.739999771 0.2199999988 2.2144999504 0.6000000238 0.6000000238  -999.250000
 978.11840952 26.450000763 0.2199999988 2.2144999504 0.6000000238 0.6000000238  -999.250000
 978.16412952 24.729999542 0.2199999988 2.2143998146 0.6000000238 0.6000000238  -999.250000
 978.20984952 22.780000687 0.2199999988 2.2133998871 0.6000000238 0.6000000238  -999.250000
 978.25556952 23.670000076 0.2199999988 2.2156000137 0.6999999881 0.6000000238  -999.250000
 978.30128952 26.409999847 0.2099999934 2.2225999832 0.6999999881 0.6000000238  -999.250000
 978.34700952 25.790000916 0.2099999934 2.2306001186 0.6999999881 0.6000000238  -999.250000
 978.39272952 25.590000153 0.2099999934 2.2256000042 0.6999999881 0.6000000238  -999.250000
 978.43844952 24.270000458 0.2099999934 2.2218000889 0.6000000238 0.6000000238  -999.250000
