# LAS format log file from PETREL
# Project units are specified as depth units
#==================================================================
~Version information
VERS.   2.0:
WRAP.   NO:
#==================================================================
~Well
STRT .m      -0.015270480 :
STOP .m      1245.8090095 :
STEP .m     0.04572000 :
NULL .        -999.250000 :
COMP.           : COMPANY
WELL.  15_9-19 A   : WELL
FLD.            : FIELD
LOC.            : LOCATION
SRVC.           : SERVICE COMPANY
DATE.  2020-08-19 21:46:58   : Log Export Date {yyyy-MM-dd HH:mm:ss}
PROV.           : PROVINCE
UWI.   15_9-19 A   : UNIQUE WELL ID
API.            : API NUMBER
#==================================================================
~Curve
DEPT .m                   : DEPTH
GR .gAPI                  : GR
NPHI .m3/m3               : NPHI
RHOB .g/cm3               : RHOB
RM .ohm.m                 : RM
RT .ohm.m                 : RT
FACIES ._                 : FACIES
~Parameter
#==================================================================
~Ascii
# ...
 938.70776952 66.419998169 0.3100000024 2.3222999573 0.8000000119 0.8000000119  -999.250000
 938.75348952 68.750000000 0.3199999928 2.3043999672 0.8000000119 0.8000000119  -999.250000
 938.79920952 68.400001526 0.3400000036 2.2911999226 0.8000000119 0.8000000119  -999.250000
 938.84492952 64.860000610 0.3400000036 2.3013000488 0.8000000119 0.8000000119  -999.250000
 938.89064952 60.709999084 0.3100000024 2.3608999252 0.8000000119 0.8000000119  -999.250000
 938.93636952 62.909999847 0.2900000215 2.4265000820 0.8000000119 0.8000000119  -999.250000
 938.98208952 63.400001526 0.2900000215 2.2858998775 0.8000000119 0.8000000119  -999.250000
 939.02780952 63.459999084 0.3000000119 2.1093001366 0.8000000119 0.8000000119  -999.250000
 939.07352952 64.910003662 0.3000000119 2.2409999371 0.8000000119 0.8000000119  -999.250000
 939.11924952 64.419998169 0.3000000119 2.3986999989 0.8000000119 0.8000000119  -999.250000
 939.16496952 64.589996338 0.3000000119 2.3566000462 0.8000000119 0.8000000119  -999.250000
 939.21068952 65.970001221 0.3100000024 2.3133997917 0.8000000119 0.8000000119  -999.250000
 939.25640952 65.080001831 0.3199999928 2.3127999306 0.8000000119 0.8000000119  -999.250000
 939.30212952 66.379997253 0.3199999928 2.3191001415 0.8000000119 0.8000000119  -999.250000
 939.34784952 65.790000916 0.3199999928 2.3220000267 0.8000000119 0.8000000119  -999.250000
 939.39356952 62.150001526 0.3199999928 2.3139998913 0.8000000119 0.8000000119  -999.250000
 939.43928952 60.950000763 0.3100000024 2.3133001328 0.8000000119 0.8000000119  -999.250000
 939.48500952 61.029998779 0.2800000012 2.3262000084 0.8000000119 0.8000000119  -999.250000
 939.53072952 62.869998932 0.2900000215 2.3326001167 0.8000000119 0.8000000119  -999.250000
 939.57644952 63.779998779 0.3100000024 2.3262000084 0.8000000119 0.8000000119  -999.250000
 939.62216952 64.389999390 0.3000000119 2.3169999123 0.8000000119 0.8000000119  -999.250000
 939.66788952 64.089996338 0.2800000012 2.3126001358 0.8000000119 0.8000000119  -999.250000
 939.71360952 66.290000916 0.2500000000 2.3069999218 0.8000000119 0.8000000119  -999.250000
 939.75932952 72.230003357 0.5300000310 2.3069999218 0.8000000119 0.8000000119  -999.250000
 939.80504952 75.559997559 1.8700001240 2.3148000240 0.8000000119 0.8000000119  -999.250000
 939.85076952 82.040000916 2.7500000000 2.3104999065 0.8000000119 0.8000000119  -999.250000
 939.89648952 83.980003357 1.1800000668 2.3076000214 0.8000000119 0.8000000119  -999.250000
 939.94220952 74.889999390 0.4499999881 2.3094999790 0.8000000119 0.8000000119  -999.250000
 939.98792952 65.959999084 1.0199999809 2.3068001270 0.8000000119 0.8000000119  -999.250000
 940.03364952 64.019996643 1.3700000048 2.3073000908 0.8000000119 0.8000000119  -999.250000
 940.07936952 67.370002747 0.6899999976 2.3087999821 0.8000000119 0.8000000119  -999.250000
 940.12508952 67.620002747 0.3000000119 2.3178000450 0.8000000119 0.8000000119  -999.250000
 940.17080952 61.180000305 0.5099999905 2.3266999722 0.8000000119 0.8000000119  -999.250000
 940.21652952 59.139999390 0.7900000215 2.3151001930 0.8000000119 0.8000000119  -999.250000
 940.26224952 66.819999695 0.4900000095 2.2992999554 0.8000000119 0.8000000119  -999.250000
 940.30796952 69.160003662 0.3499999940 2.2888000011 0.8000000119 0.8000000119  -999.250000
 940.35368952 65.059997559 0.7099999785 2.2967000008 0.8000000119 0.8000000119  -999.250000
 940.39940952 70.900001526 0.9300000072 2.3168001175 0.8000000119 0.8000000119  -999.250000
 940.44512952 71.209999084 0.4900000095 2.3203999996 0.8000000119 0.8000000119  -999.250000
 940.49084952 66.849998474 0.2900000215 2.3162000179 0.8000000119 0.8000000119  -999.250000
 940.53656952 75.379997253 0.3100000024 2.3127999306 0.8000000119 0.8000000119  -999.250000
 940.58228952 77.500000000 0.3100000024 2.2998998165 0.8000000119 0.8000000119  -999.250000
 940.62800952 77.480003357 0.3100000024 2.3023998737 0.8000000119 0.8000000119  -999.250000
 940.67372952 80.449996948 0.3299999833 2.3245000839 0.8000000119 0.8000000119  -999.250000
 940.71944952 83.120002747 0.3400000036 2.3413999081 0.8000000119 0.8000000119  -999.250000
 940.76516952 91.360000610 0.3400000036 2.3371999264 0.8000000119 0.8000000119  -999.250000
 940.81088952 89.389999390 0.3299999833 2.3331000805 0.8000000119 0.8000000119  -999.250000
 940.85660952 82.569999695 0.3400000036 2.3280000687 0.8000000119 0.8000000119  -999.250000
 940.90232952 77.389999390 0.3400000036 2.3328001499 0.8000000119 0.8000000119  -999.250000
 940.94804952 72.809997559 0.3299999833 2.3529999256 0.8000000119 0.8000000119  -999.250000
 940.99376952 67.639999390 0.3100000024 2.3216998577 0.8000000119 0.8000000119  -999.250000
 941.03948952 62.430000305 0.3000000119 2.2862999439 0.8000000119 0.8000000119  -999.250000
 941.08520952 59.840000153 0.2900000215 2.3493001461 0.8000000119 0.8999999762  -999.250000
 941.13092952  -999.250000  -999.250000  -999.250000  -999.250000  -999.250000  -999.250000
 941.17664952 59.150001526 0.2900000215 2.3501999378 0.8999999762 0.8999999762  -999.250000
 941.22236952 59.799999237 0.2800000012 2.3538999557 0.8999999762 0.8999999762  -999.250000
 941.26808952 59.229999542 0.2800000012 2.3587999344 0.8999999762 0.8999999762  -999.250000
 941.31380952 55.029998779 0.2800000012 2.3528001308 0.8999999762 0.8999999762  -999.250000
 941.35952952 51.150001526 0.2800000012 2.4491999149 0.8999999762 0.8999999762  -999.250000
 941.40524952 56.560001373 0.2800000012 2.5458998680 0.8999999762 0.8999999762  -999.250000
 941.45096952 65.029998779 0.2900000215 2.8258998394 0.8999999762 0.8999999762  -999.250000
 941.49668952 67.180000305 0.2800000012 2.0563001633 0.8999999762 0.8999999762  -999.250000
 941.54240952 65.309997559 0.3100000024 2.5268998146 0.8999999762 0.8999999762  -999.250000
 941.58812952 62.500000000 0.3299999833 2.4832999706 0.8999999762 0.8999999762  -999.250000
 941.63384952 60.619998932 0.3100000024 2.0859999657 0.8999999762 0.8999999762  -999.250000
 941.67956952 61.150001526 0.3000000119 2.0539000034 0.8999999762 0.8999999762  -999.250000
 941.72528952 59.909999847 0.2800000012 2.2948999405 0.8000000119 0.8999999762  -999.250000
 941.77100952 59.830001831 0.2900000215 2.5541999340 0.8000000119 0.8999999762  -999.250000
 941.81672952 60.310001373 0.2900000215 2.5156998634 0.8000000119 0.8999999762  -999.250000
 941.86244952 59.610000610 0.2900000215 2.1863000393 0.8999999762 0.8999999762  -999.250000
 941.90816952 59.380001068 0.3000000119 2.4165000916 0.8999999762 0.8999999762  -999.250000
 941.95388952 60.599998474 0.3000000119 2.5171000957 0.8999999762 0.8999999762  -999.250000
 941.99960952 60.990001678 0.3100000024 2.1459000111 0.8999999762 0.8999999762  -999.250000
 942.04532952 57.840000153 0.3100000024 2.1187000275 0.8999999762 0.8999999762  -999.250000
 942.09104952 55.500000000 0.3000000119 2.3628001213 0.8999999762 0.8999999762  -999.250000
 942.13676952 57.130001068 0.2800000012 2.3643999100 0.8999999762 0.8999999762  -999.250000
 942.18248952 56.360000610 0.2900000215 2.3104000092 0.8999999762 0.8999999762  -999.250000
 942.22820952 55.020000458 0.3100000024 2.3008000851 0.8999999762 0.8999999762  -999.250000
 942.27392952 55.750000000 0.3000000119 2.3013999462 0.8999999762 0.8999999762  -999.250000
 942.31964952 54.490001678 0.2900000215 2.3027000427 0.8999999762 0.8999999762  -999.250000
 942.36536952 58.080001831 0.2800000012 2.3036999702 0.8999999762 0.8999999762  -999.250000
 942.41108952 61.779998779 0.2900000215 2.3062000275 0.8999999762 0.8999999762  -999.250000
 942.45680952 60.400001526 0.3000000119 2.3143000603 0.8999999762 0.8999999762  -999.250000
 942.50252952 58.229999542 0.3000000119 2.3222999573 0.8999999762 0.8999999762  -999.250000
 942.54824952 60.270000458 0.3100000024 2.3210000992 0.8999999762 0.8999999762  -999.250000
 942.59396952 63.849998474 0.3100000024 2.3183000088 0.8999999762 0.8999999762  -999.250000
 942.63968952 64.980003357 0.3100000024 2.3213999271 0.8999999762 0.8999999762  -999.250000
