# LAS format log file from PETREL
# Project units are specified as depth units
#==================================================================
~Version information
VERS.   2.0:
WRAP.   NO:
#==================================================================
~Well
STRT .m      189.89040000 :
STOP .m      3795.0648000 :
STEP .m     0.15240000 :
NULL .        -999.250000 :
COMP.           : COMPANY
WELL.  15_9-F-5   : WELL
FLD.            : FIELD
LOC.            : LOCATION
SRVC.           : SERVICE COMPANY
DATE.  2020-08-19 21:46:58   : Log Export Date {yyyy-MM-dd HH:mm:ss}
PROV.           : PROVINCE
UWI.   15_9-F-5   : UNIQUE WELL ID
API.            : API NUMBER
#==================================================================
~Curve
DEPT .m                   : DEPTH
RHOB .g/cm3               : RHOB
GR .gAPI                  : GR
RT .ohm.m                 : RT
NPHI .m3/m3               : NPHI
RM .ohm.m                 : RM
FACIES ._                 : FACIES
~Parameter
#==================================================================
~Ascii
# ...
 3491.3316000 2.1606910229 28.787380219 21.232830048 0.2504023015 11.726900101  -999.250000
 3491.4840000 2.1597259045 29.034410477 32.495079041 0.2380106896 12.101220131  -999.250000
 3491.6364000 2.1659560204 29.964279175 41.559608459 0.2373595983 13.003179550  -999.250000
 3491.7888000 2.1697599888 32.413150787 49.596721649 0.2241828889 13.506299973  -999.250000
 3491.9412000 2.1773838997 36.222370148 25.493049622 0.2204512954 14.729410172  -999.250000
 3492.0936000 2.1817340851 38.653919220 21.336929321 0.2436203063 17.698650360  -999.250000
 3492.2460000 2.1995460987 40.528018951 18.540559769 0.2263146937 18.100410461  -999.250000
 3492.3984000 2.2342441082 42.181240082 17.545259476 0.2211978883 16.460170746  -999.250000
 3492.5508000 2.2841560841 46.472759247 10.814499855 0.2302936018 17.233480453  -999.250000
 3492.7032000 2.3353731632 52.100570679 9.9436855316 0.2322777957 12.834230423  -999.250000
 3492.8556000 2.3852269650 55.709590912 20.998130798 0.2158996016 9.1085424423  -999.250000
 3493.0080000 2.4343678951 61.232891083 15.842530251 0.2044396996 11.419130325  -999.250000
 3493.1604000 2.5011639595 66.383613586 10.173709869 0.1970552057 10.768250465  -999.250000
 3493.3128000 2.5445930958 68.617446899 7.2044010162 0.1972498000 7.3743419647  -999.250000
 3493.4652000 2.5659737587 66.062423706 10.675000191 0.2136601955 12.955539703  -999.250000
 3493.6176000 2.5820419788 58.822471619 22.815540314 0.2021306008 15.330180168  -999.250000
 3493.7700000 2.5959889889 54.276878357 11.080200195 0.1850820929 6.7745862007  -999.250000
 3493.9224000 2.6177010536 50.390541077 8.8535404205 0.1682671905 5.8170118332  -999.250000
 3494.0748000 2.6267290115 47.724380493 7.4039998055 0.1502925009 5.0549211502  -999.250000
 3494.2272000 2.6368529797 44.341930389 6.3638429642 0.1422331929 4.6815848351  -999.250000
 3494.3796000 2.6429359913 41.274391174 6.3582701683 0.1377502978 4.7891798019  -999.250000
 3494.5320000 2.6406240463 38.388160706 6.5110559464 0.1314470917 5.1097431183  -999.250000
 3494.6844000 2.6334900856 36.290370941 6.0371251106 0.1259101033 5.0586009026  -999.250000
 3494.8368000 2.6347620487 34.935398102 5.6150918007 0.1275672019 5.1654958725  -999.250000
 3494.9892000 2.6325230598 34.946830750 5.7127017975 0.1223668978 5.3230271339  -999.250000
 3495.1416000 2.6303870678 34.652538300 5.8511829376 0.1207359955 5.6986641884  -999.250000
 3495.2940000 2.6161060333 35.086898804 6.0620160103 0.1350035071 5.9877591133  -999.250000
 3495.4464000 2.6059360504 35.390819550 6.2289581299 0.1342049986 6.2359628677  -999.250000
 3495.5988000 2.5923810005 36.063041687 6.4554948807 0.1372770965 6.5398960114  -999.250000
 3495.7512000 2.5802431107 36.153999329 6.5200672150 0.1344324946 6.7735271454  -999.250000
 3495.9036000 2.5646541119 35.043319702 6.7549161911 0.1420764029 6.8225779533  -999.250000
 3496.0560000 2.5493600368 33.894981384 6.8431468010 0.1332824081 6.8839478493  -999.250000
 3496.2084000 2.5321660042 33.189750671 7.0968689919 0.1293563992 6.8997879028  -999.250000
 3496.3608000 2.5232119560 33.920299530 7.3285031319 0.1392665058 6.9842071533  -999.250000
 3496.5132000 2.5156469345 33.959171295 7.5798449516 0.1261456907 7.0320830345  -999.250000
 3496.6656000 2.5116190910 33.177211761 7.6762638092 0.1304154992 7.1490378380  -999.250000
 3496.8180000 2.5115940571 32.581878662 8.0707006454 0.1215824038 7.2630739212  -999.250000
 3496.9704000 2.5109319687 32.244750977 9.1185426712 0.1320853084 7.1916208267  -999.250000
 3497.1228000 2.5093870163 34.264610291 9.4429731369 0.1321773976 7.3735342026  -999.250000
 3497.2752000 2.4985060692 35.675651550 9.6171789169 0.1337810010 7.4819011688  -999.250000
 3497.4276000 2.4920089245 37.941528320 10.553039551 0.1333788037 7.5444869995  -999.250000
 3497.5800000 2.4795420170 38.660499573 9.8533039093 0.1439093053 7.4333620071  -999.250000
 3497.7324000 2.4757230282 39.864051819 9.1758708954 0.1608039141 7.5142221451  -999.250000
 3497.8848000 2.4791109562 43.150360107 8.6124362946 0.1641099006 7.2310547829  -999.250000
 3498.0372000 2.4868669510 46.232151031 7.9299187660 0.1682875007 6.9205169678  -999.250000
 3498.1896000 2.4930472374 52.744068146 6.9814648628 0.1720737964 6.5634870529  -999.250000
 3498.3420000 2.4980559349 57.341789246 6.6059122086 0.1795877069 6.3648080826  -999.250000
 3498.4944000 2.5086519718 63.606609344 6.2960357666 0.1915002018 6.0505242348  -999.250000
 3498.6468000 2.5294070244 66.701843262 6.0786509514 0.1810939014 5.9373478889  -999.250000
 3498.7992000 2.5525488853 70.328659058 5.5388569832 0.1858996898 5.6541008949  -999.250000
 3498.9516000 2.5707390308 70.619239807 7.5773000717 0.1829989105 5.6062312126  -999.250000
 3499.1040000 2.5775890350 72.400917053 6.6030712128 0.2019713968 5.4438500404  -999.250000
 3499.2564000 2.5754969120 70.932807922 5.1451377869 0.1965315044 4.8335070610  -999.250000
 3499.4088000 2.5787310600 73.310852051 6.9351739883 0.1972970963 6.5520210266  -999.250000
 3499.5612000 2.5839219093 70.643081665 6.0748791695 0.1803292036 5.7805051804  -999.250000
 3499.7136000 2.5912818909 66.388603210 7.3434028625 0.1617104858 6.5849299431  -999.250000
 3499.8660000 2.6057460308 56.965560913 7.8924388885 0.1374412030 7.1958208084  -999.250000
 3500.0184000 2.5952661037 45.871398926 7.8546547890 0.1156399995 6.8425040245  -999.250000
 3500.1708000 2.5595118999 39.681880951 8.3597249985 0.1370944977 7.5947661400  -999.250000
 3500.3232000 2.4687609673 32.849338531 8.7808589935 0.1757465005 7.9688258171  -999.250000
 3500.4756000 2.3778901100 29.235450745 8.9806404114 0.1640022993 8.6721649170  -999.250000
 3500.6280000 2.3057630062 26.993139267 9.7585191727 0.1764228940 9.3496522903  -999.250000
 3500.7804000 2.2675950527 26.909040451 10.358579636 0.2020871937 10.122360229  -999.250000
 3500.9328000 2.2525870800 29.485139847 11.282879829 0.1959423125 11.261960030  -999.250000
 3501.0852000 2.2446649075 30.603300095 12.791250229 0.2057451010 12.395540237  -999.250000
 3501.2376000 2.2455949783 30.995229721 13.862480164 0.2015759051 13.469730377  -999.250000
 3501.3900000 2.2495219707 31.363689423 14.413760185 0.2175126970 14.215689659  -999.250000
 3501.5424000 2.2565739155 29.447269440 14.989029884 0.1999453008 14.846260071  -999.250000
 3501.6948000 2.2641029358 29.763029099 15.641289711 0.2058559954 15.797220230  -999.250000
 3501.8472000 2.2677071095 29.275939941 16.189950943 0.1916469038 16.372669220  -999.250000
 3501.9996000 2.2725389004 30.019489288 16.751089096 0.1906897873 17.154350281  -999.250000
 3502.1520000 2.2689421177 28.935600281 17.366510391 0.1955710053 17.860460281  -999.250000
 3502.3044000 2.2677409649 30.455549240 17.784950256 0.2052313089 18.461360931  -999.250000
 3502.4568000 2.2618849277 31.629009247 18.186559677 0.1924728006 18.835020065  -999.250000
 3502.6092000 2.2575519085 32.149101257 18.328889847 0.1965966076 18.851509094  -999.250000
 3502.7616000 2.2458689213 31.283660889 18.746290207 0.2058469951 19.149770737  -999.250000
 3502.9140000 2.2345850468 31.178939819 18.447689056 0.2173929065 19.155780792  -999.250000
 3503.0664000 2.2168040276 32.770118713 18.645160675 0.2230706066 19.248340607  -999.250000
 3503.2188000 2.2086679935 30.756050110 18.508310318 0.2075595111 19.181200027  -999.250000
 3503.3712000 2.2059080601 30.447010040 18.429330826 0.2153632939 18.986730576  -999.250000
 3503.5236000 2.2077860832 28.643920898 18.178789139 0.2170064002 18.965909958  -999.250000
 3503.6760000 2.2080650330 29.413299561 18.057529449 0.2160500884 18.618179321  -999.250000
 3503.8284000 2.2048621178 27.224689484 17.958900452 0.2184794992 18.571750641  -999.250000
 3503.9808000 2.2057518959 27.824579239 17.773780823 0.2221121043 18.232189178  -999.250000
 3504.1332000 2.2115280628 27.989000320 17.384840012 0.2206144929 18.107629776  -999.250000
 3504.2856000 2.2148900032 28.876310349 17.497800827 0.2159688026 17.777399063  -999.250000
 3504.4380000 2.2155311108 28.964359283 17.292949677 0.2085475028 17.722600937  -999.250000
