# LAS format log file from PETREL
# Project units are specified as depth units
#==================================================================
~Version information
VERS.   2.0:
WRAP.   NO:
#==================================================================
~Well
STRT .m      175.86960000 :
STOP .m      5330.3424000 :
STEP .m     0.15240000 :
NULL .        -999.250000 :
COMP.           : COMPANY
WELL.  15_9-F-10   : WELL
FLD.            : FIELD
LOC.            : LOCATION
SRVC.           : SERVICE COMPANY
DATE.  2020-08-19 21:46:58   : Log Export Date {yyyy-MM-dd HH:mm:ss}
PROV.           : PROVINCE
UWI.   15_9-F-10   : UNIQUE WELL ID
API.            : API NUMBER
#==================================================================
~Curve
DEPT .m                   : DEPTH
RHOB .g/cm3               : RHOB
RT .ohm.m                 : RT
GR .gAPI                  : GR
NPHI .m3/m3               : NPHI
RM .ohm.m                 : RM
FACIES ._                 : FACIES
~Parameter
#==================================================================
~Ascii
# ...
 5055.1080000 2.6475980282 2.5424766541 55.038433075 0.1653078943 2.4870033264  -999.250000
 5055.2604000 2.6390116215 2.5076723099 57.956027985 0.1804401428 2.3887650967  -999.250000
 5055.4128000 2.6341695786 2.4004874229 62.057094574 0.1775903702 2.3397095203  -999.250000
 5055.5652000 2.6313948631 2.3272182941 68.380569458 0.1762161553 2.2674942017  -999.250000
 5055.7176000 2.6340386868 2.4638550282 70.832450867 0.1941266358 2.2077689171  -999.250000
 5055.8700000 2.6359808445 2.4745919704 78.079521179 0.2106867135 2.2393434048  -999.250000
 5056.0224000 2.6317067146 2.4293229580 85.436424255 0.1985542029 2.1910665035  -999.250000
 5056.1748000 2.6277184486 2.1963841915 99.959259033 0.2066175789 2.0615627766  -999.250000
 5056.3272000 2.5927731991 1.9352689981 116.69521332 0.2409643680 1.9136699438  -999.250000
 5056.4796000 2.5458266735 2.2441263199 149.52403259 0.2982512712 2.0799610615  -999.250000
 5056.6320000 2.4677245617 2.1777391434 190.13558960 0.3764351606 2.1447887421  -999.250000
 5056.7844000 2.4054012299 2.1282143593 229.16052246 0.4779986143 1.9864990711  -999.250000
 5056.9368000 2.3491833210 2.0649471283 251.27398682 0.5098037720 2.0006663799  -999.250000
 5057.0892000 2.3200976849 2.0591094494 266.21365356 0.5144652724 2.1199688911  -999.250000
 5057.2416000 2.2994403839 2.0891330242 277.27770996 0.5624193549 2.0365073681  -999.250000
 5057.3940000 2.2951226234 1.9643627405 283.07839966 0.5560546517 2.0907716751  -999.250000
 5057.5464000 2.2912487984 1.9474668503 285.16406250 0.4905431569 1.9920107126  -999.250000
 5057.6988000 2.2950727940 2.1620829105 287.09265137 0.5745000243 1.9939893484  -999.250000
 5057.8512000 2.3016965389 1.9130518436 289.21017456 0.5550231338 1.9554741383  -999.250000
 5058.0036000 2.3146579266 1.8590137959 284.44937134 0.5482364297 1.9436023235  -999.250000
 5058.1560000 2.3228244781 2.0069818497 278.05990601 0.5337113738 1.9146807194  -999.250000
 5058.3084000 2.3319551945 2.1914312840 275.88211060 0.5472763181 1.9663736820  -999.250000
 5058.4608000 2.3376059532 1.9531385899 277.34020996 0.4650808573 1.9449893236  -999.250000
 5058.6132000 2.3308231831 2.0920834541 272.09182739 0.4919107258 2.0480747223  -999.250000
 5058.7656000 2.3262863159 2.1656856537 256.53808594 0.5348600149 1.9784456491  -999.250000
 5058.9180000 2.3140404224 2.1062242985 241.25630188 0.5046049356 1.9320174456  -999.250000
 5059.0704000 2.3151080608 2.0544795990 232.40420532 0.4773618281 2.0611829758  -999.250000
 5059.2228000 2.3080196381 2.1565389633 236.25038147 0.4923164546 1.9805423021  -999.250000
 5059.3752000 2.3107149601 2.1692094803 243.42784119 0.5068292618 1.8851120472  -999.250000
 5059.5276000 2.3152585030 2.1029570103 250.46072388 0.4949998260 1.8996423483  -999.250000
 5059.6800000 2.3304357529 2.1578226089 257.08465576 0.4978390634 2.0226850510  -999.250000
 5059.8324000 2.3417508602 1.9444166422 265.91567993 0.4841410220 1.7375972271  -999.250000
 5059.9848000 2.3447089195 2.3124129772 282.02398682 0.4848687947 2.2786786556  -999.250000
 5060.1372000 2.3409943581 1.7251056433 300.87103271 0.4375833273 2.3019566536  -999.250000
 5060.2896000 2.3514907360 0.9538117647 324.22842407 0.5078347921 1.2963302135  -999.250000
 5060.4420000 2.3710989952 1.4501219988 351.07525635 0.4363881350 1.4761180878  -999.250000
 5060.5944000 2.4136314392 2.9966907501 397.19674683 0.4542885125 4.0971407890  -999.250000
 5060.7468000 2.4503490925 1.3704441786 475.56265259 0.4177339077 1.5219532251  -999.250000
 5060.8992000 2.4834961891 1.1286451817 585.84313965 0.4097621441 1.4034155607  -999.250000
 5061.0516000 2.4807739258 1.5713877678 699.47326660 0.4831031263 2.5636124611  -999.250000
 5061.2040000 2.4801454544 4.3130793571 789.62969971 0.4271385968 9.2239885330  -999.250000
 5061.3564000 2.4821245670 1.4426491261 814.49243164 0.3404968679 1.3378323317  -999.250000
 5061.5088000 2.5128047466 0.8245404363 808.00866699 0.3248015046 0.8971106410  -999.250000
 5061.6612000 2.5489904881 0.9073060155 790.26660156 0.3292597830 1.0706293583  -999.250000
 5061.8136000 2.5772554874 4.1317553520 781.88232422 0.3481989205 9.4677400589  -999.250000
 5061.9660000 2.5691528320 1.0828233957 749.30902100 0.3460008502 1.5956118107  -999.250000
 5062.1184000 2.5231561661 1.8484619856 674.98974609 0.3853059709 2.2362854481  -999.250000
 5062.2708000 2.4559719563 1.9313538074 576.08587646 0.4415412843 1.7367737293  -999.250000
 5062.4232000 2.3991093636 1.8840079308 481.77185059 0.4074378610 1.4323922396  -999.250000
 5062.5756000 2.3599824905 1.3411680460 419.25109863 0.4577552378 1.3115702868  -999.250000
 5062.7280000 2.3543713093 1.6347830296 391.78900146 0.4070101380 1.7321929932  -999.250000
 5062.8804000 2.3537476063 3.0543427467 380.37646484 0.4372486472 2.1618878841  -999.250000
 5063.0328000 2.3683671951 3.0474784374 349.70443726 0.4102498293 2.5362491608  -999.250000
 5063.1852000 2.3805096149 2.1786196232 298.39300537 0.3578206599 2.0356271267  -999.250000
 5063.3376000 2.3957841396 2.0967910290 244.21415710 0.3235420585 1.8878310919  -999.250000
 5063.4900000 2.3811092377 2.5929520130 222.49137878 0.3796498775 2.1862409115  -999.250000
 5063.6424000 2.3443422318 3.6027259827 226.47857666 0.3992408216 2.9958627224  -999.250000
 5063.7948000 2.3228189945 2.2978899479 243.79067993 0.4016761780 2.4013757706  -999.250000
 5063.9472000 2.3159058094 2.3050692081 260.43161011 0.4515367448 2.3217673302  -999.250000
 5064.0996000 2.3238599300 2.5117015839 280.19818115 0.4835277796 2.4228973389  -999.250000
 5064.2520000 2.3251216412 3.0061852932 299.15176392 0.4532784522 2.6544148922  -999.250000
 5064.4044000 2.3213734627 2.4678156376 309.38858032 0.4994069934 2.2791504860  -999.250000
 5064.5568000 2.3137063980 2.5825595856 316.12377930 0.5045465827 2.5842602253  -999.250000
 5064.7092000 2.3027918339 2.3288457394 323.47277832 0.4665632546 2.5093402863  -999.250000
 5064.8616000 2.2873623371 2.6030287743 336.57528687 0.5204344988 2.7879664898  -999.250000
 5065.0140000 2.2620100975 3.0503735542 350.15478516 0.5180444121 2.9193162918  -999.250000
 5065.1664000 2.2126324177 3.4533183575 363.04910278 0.5210230947 2.9484341145  -999.250000
 5065.3188000 2.1727070808 2.9940483570 359.22015381 0.5794417858 2.8862230778  -999.250000
 5065.4712000 2.1489796638 2.5643415451 350.34689331 0.5641527176 2.7272028923  -999.250000
 5065.6236000 2.1609089375 2.7898428440 346.28869629 0.5061880946 2.7272899151  -999.250000
 5065.7760000 2.1891133785 3.8045673370 356.31799316 0.4844965339 3.2658557892  -999.250000
 5065.9284000 2.2204136848 4.3674564362 369.95007324 0.4961143434 3.8148257732  -999.250000
 5066.0808000 2.2398402691 3.9551486969 371.55087280 0.5145076513 3.1515860558  -999.250000
 5066.2332000 2.2300276756 3.7797057629 367.68591309 0.5288071036 3.3368508816  -999.250000
 5066.3856000 2.2163529396 4.0049848557 380.17776489 0.5153436065 4.1467518806  -999.250000
 5066.5380000 2.1977500916 2.2077708244 398.00479126 0.5431025028 3.4240591526  -999.250000
 5066.6904000 2.2018134594 1.9486451149 420.45657349 0.5427665114 2.6307001114  -999.250000
 5066.8428000 2.2251040936 2.7479190826 431.29544067 0.5216159821 2.7585179806  -999.250000
 5066.9952000 2.2768473625 2.2977185249 456.61355591 0.4382160604 2.3963296413  -999.250000
 5067.1476000 2.3549640179 2.3032941818 500.74395752 0.4278747141 2.4857580662  -999.250000
 5067.3000000 2.4236252308 2.2934114933 555.06750488 0.3876141906 2.6441633701  -999.250000
 5067.4524000 2.4687285423 2.2084250450 575.98089600 0.3949530721 2.4845249653  -999.250000
 5067.6048000 2.4156568050 2.6453633308 544.72448730 0.4225193262 2.9223163128  -999.250000
 5067.7572000 2.3763983250 1.9053632021 461.75607300 0.3965868354 1.7553960085  -999.250000
 5067.9096000 2.3429818153 2.1379373074 374.86569214 0.4151288271 2.0485062599  -999.250000
 5068.0620000 2.3604173660 2.3357474804 308.43551636 0.4209545553 2.2490243912  -999.250000
 5068.2144000 2.3647863865 2.3764657974 270.25650024 0.4195964038 2.4037821293  -999.250000
