# LAS format log file from PETREL
# Project units are specified as depth units
#==================================================================
~Version information
VERS.   2.0:
WRAP.   NO:
#==================================================================
~Well
STRT .m      189.89040000 :
STOP .m      3795.0648000 :
STEP .m     0.15240000 :
NULL .        -999.250000 :
COMP.           : COMPANY
WELL.  15_9-F-5   : WELL
FLD.            : FIELD
LOC.            : LOCATION
SRVC.           : SERVICE COMPANY
DATE.  2020-08-19 21:46:58   : Log Export Date {yyyy-MM-dd HH:mm:ss}
PROV.           : PROVINCE
UWI.   15_9-F-5   : UNIQUE WELL ID
API.            : API NUMBER
#==================================================================
~Curve
DEPT .m                   : DEPTH
RHOB .g/cm3               : RHOB
GR .gAPI                  : GR
RT .ohm.m                 : RT
NPHI .m3/m3               : NPHI
RM .ohm.m                 : RM
FACIES ._                 : FACIES
~Parameter
#==================================================================
~Ascii
# ...
 3040.5324000 2.5910050869 12.928509712 4.8794059753 0.1102427021 4.6536250114  -999.250000
 3040.6848000 2.5943109989 12.763710022 4.4616818428 0.1193976030 4.4106068611  -999.250000
 3040.8372000 2.5944650173 12.239419937 4.8403301239 0.0932260826 4.5344867706  -999.250000
 3040.9896000 2.6040329933 11.930890083 4.6821208000 0.0937965959 4.5554289818  -999.250000
 3041.1420000 2.6054320335 12.225500107 4.7342572212 0.0944347605 4.5931110382  -999.250000
 3041.2944000 2.6055989265 11.570949554 4.7665472031 0.0840281844 4.6874608994  -999.250000
 3041.4468000 2.6024920940 11.617830276 4.8267869949 0.0778256431 4.8440341949  -999.250000
 3041.5992000 2.6067531109 10.302069664 4.9666438103 0.0812957883 4.9779729843  -999.250000
 3041.7516000 2.6159501076 9.8395109177 5.0072679520 0.0736015588 5.0856080055  -999.250000
 3041.9040000 2.6234769821 9.7107849121 5.1069178581 0.0693817362 5.2656311989  -999.250000
 3042.0564000 2.6164498329 10.022879601 5.1710381508 0.0795237422 5.3558559418  -999.250000
 3042.2088000 2.6160140038 10.762639999 5.2466859818 0.0698025823 5.4466328621  -999.250000
 3042.3612000 2.6158840656 10.001939774 5.3454580307 0.0584217198 5.4654598236  -999.250000
 3042.5136000 2.6278836727 8.9365501404 5.4898509979 0.0723518804 5.5270972252  -999.250000
 3042.6660000 2.6222169399 8.8742675781 5.5875167847 0.0725852102 5.3630781174  -999.250000
 3042.8184000 2.6261320114 10.172479630 5.4415659904 0.0694017410 5.3846168518  -999.250000
 3042.9708000 2.6172540188 11.438429832 5.3819727898 0.0703702420 5.3120489120  -999.250000
 3043.1232000 2.6209399700 13.859889984 5.4240517616 0.0793799013 5.1018509865  -999.250000
 3043.2756000 2.6067039967 14.170720100 5.2424521446 0.0816115662 5.0826640129  -999.250000
 3043.4280000 2.6057310104 15.055029869 5.3687000275 0.0820681825 4.9831938744  -999.250000
 3043.5804000 2.6081900597 12.791669846 5.4404330254 0.0924481377 4.9926080704  -999.250000
 3043.7328000 2.6116700172 11.443810463 5.3088979721 0.0831258669 4.9966220856  -999.250000
 3043.8852000 2.6166410446 10.479579926 5.0075879097 0.0820829123 4.8553161621  -999.250000
 3044.0376000 2.6062960625 10.674139977 5.4002470970 0.0857189968 5.1223177910  -999.250000
 3044.1900000 2.6010279655 13.082759857 5.5433640480 0.0983287320 5.2765779495  -999.250000
 3044.3424000 2.5979640484 15.202690125 5.5510520935 0.0883491337 5.2469811440  -999.250000
 3044.4948000 2.6018319130 17.079650879 5.4372057915 0.0898852125 5.3522329330  -999.250000
 3044.6472000 2.6138370037 16.376050949 5.4527912140 0.0907056257 5.4099950790  -999.250000
 3044.7996000 2.6135430336 15.045350075 5.6563148499 0.0879267380 5.5115990639  -999.250000
 3044.9520000 2.6202459335 11.840740204 5.6229457855 0.0745999739 5.6688928604  -999.250000
 3045.1044000 2.6264188290 9.8846626282 5.7028908730 0.0703561530 5.8735461235  -999.250000
 3045.2568000 2.6344180107 8.5165958405 5.8009681702 0.0673701614 5.9790301323  -999.250000
 3045.4092000 2.6420919895 8.6288948059 5.9314069748 0.0605459698 6.0994200706  -999.250000
 3045.5616000 2.6430630684 8.5008172989 6.0470361710 0.0580720380 6.1988520622  -999.250000
 3045.7140000 2.6318860054 9.0356550217 6.1183781624 0.0582558289 6.2381458282  -999.250000
 3045.8664000 2.6179420948 9.7236375809 5.9938631058 0.0581763797 6.1250171661  -999.250000
 3046.0188000 2.6074829102 9.6566162109 6.0448679924 0.0589633435 6.1598057747  -999.250000
 3046.1712000 2.6095540524 10.449020386 6.0526161194 0.0643075407 6.0676121712  -999.250000
 3046.3236000 2.6074309349 11.276160240 6.0612068176 0.0724614263 5.9480428696  -999.250000
 3046.4760000 2.6032741070 13.134880066 6.0806159973 0.0751775950 5.8305139542  -999.250000
 3046.6284000 2.6047871113 13.983619690 5.8777718544 0.0768674612 5.7418880463  -999.250000
 3046.7808000 2.6032800674 12.354069710 5.7184791565 0.0782359540 5.5495181084  -999.250000
 3046.9332000 2.6030580997 12.237859726 5.6506509781 0.0814894512 5.5125131607  -999.250000
 3047.0856000 2.6022291183 11.430259705 5.3786230087 0.0775347278 5.3163290024  -999.250000
 3047.2380000 2.6071751118 12.738109589 5.3044309616 0.0786487162 5.2377409935  -999.250000
 3047.3904000 2.6069910526 12.401160240 5.3663477898 0.0741342008 5.1986818314  -999.250000
 3047.5428000 2.6129980087 11.313739777 5.1663160324 0.0727812499 5.1328802109  -999.250000
 3047.6952000 2.6191089153 10.919939995 5.2100501060 0.0821785331 5.1218261719  -999.250000
 3047.8476000 2.6199309826 10.294119835 5.3413901329 0.0767871514 5.0690560341  -999.250000
 3048.0000000 2.6182560921 10.812060356 5.0875720978 0.0690378994 5.0158967972  -999.250000
 3048.1524000 2.6169679165 10.737310410 5.0809898376 0.0743216276 4.9876351357  -999.250000
 3048.3048000 2.6244609356 10.792340279 5.0882120132 0.0744033977 5.0382728577  -999.250000
 3048.4572000 2.6219599247 11.635669708 5.0392208099 0.0767565295 5.0800428391  -999.250000
 3048.6096000 2.6183300018 12.165029526 5.1271729469 0.0831111148 4.9871768951  -999.250000
 3048.7620000 2.6199829578 12.940879822 5.2389721870 0.0785161182 4.9497680664  -999.250000
 3048.9144000 2.6252570152 12.047109604 4.9672241211 0.0713296905 4.9884028435  -999.250000
 3049.0668000 2.6299369335 11.145319939 5.0490760803 0.0675732121 4.9050607681  -999.250000
 3049.2192000 2.6265480518 10.686770439 4.8749070168 0.0729032829 4.8200922012  -999.250000
 3049.3716000 2.6175858974 11.060910225 5.1571650505 0.0738889575 4.9194240570  -999.250000
 3049.5240000 2.6119799614 12.956009865 5.1066021919 0.0834050477 5.0095310211  -999.250000
 3049.6764000 2.6049098969 13.889630318 5.2641439438 0.0874510929 5.1754899025  -999.250000
 3049.8288000 2.6085929871 13.554820061 5.3007860184 0.0819853991 5.1384630203  -999.250000
 3049.9812000 2.6107740402 13.112019539 5.1434960365 0.0856308714 5.0982661247  -999.250000
 3050.1336000 2.6182250977 13.762249947 5.3327507973 0.0724608302 5.3343091011  -999.250000
 3050.2860000 2.6233468056 14.847539902 5.4667878151 0.0710601807 5.4398469925  -999.250000
 3050.4384000 2.6305561066 15.084859848 5.4014668465 0.0650224388 5.4901728630  -999.250000
 3050.5908000 2.6394779682 12.784000397 5.4849781990 0.0566342585 5.5230488777  -999.250000
 3050.7432000 2.6471109390 11.689370155 5.4983282089 0.0628376305 5.6277270317  -999.250000
 3050.8956000 2.6417911053 9.6418867111 5.5081768036 0.0650890395 5.6412777901  -999.250000
 3051.0480000 2.6391210556 10.472860336 5.5193171501 0.0662392676 5.6290769577  -999.250000
 3051.2004000 2.6264040470 10.800299644 5.5216112137 0.0673990175 5.5921220779  -999.250000
 3051.3528000 2.6247110367 12.979169846 5.5564470291 0.0762630180 5.5302219391  -999.250000
 3051.5052000 2.6171960831 12.677840233 5.4741759300 0.0818137676 5.4239377975  -999.250000
 3051.6576000 2.6203479767 11.967800140 5.2376179695 0.0724734813 5.2172899246  -999.250000
 3051.8100000 2.6239130497 11.097649574 5.0412111282 0.0774296373 5.0345911980  -999.250000
 3051.9624000 2.6198179722 11.682669640 4.9432740211 0.0746358931 4.8971309662  -999.250000
 3052.1148000 2.6137180328 12.183360100 4.8291249275 0.0803941414 4.7888641357  -999.250000
 3052.2672000 2.6125190258 11.532039642 4.6972451210 0.0828949511 4.7316207886  -999.250000
 3052.4196000 2.6116890907 12.663109779 4.5530948639 0.0851900503 4.5520958900  -999.250000
 3052.5720000 2.6204509735 13.534629822 4.4479742050 0.0848957226 4.4074168205  -999.250000
 3052.7244000 2.6123399734 14.051170349 4.2939062119 0.0929709896 4.3025579453  -999.250000
 3052.8768000 2.6054329872 12.861490250 4.1757459641 0.0866871923 4.1524701118  -999.250000
 3053.0292000 2.5885159969 12.843850136 3.9020340443 0.0943263620 3.9326789379  -999.250000
 3053.1816000 2.5752890110 13.601289749 3.7662560940 0.0915426239 3.8372769356  -999.250000
 3053.3340000 2.5683979988 14.414090157 3.6788320541 0.1032244936 3.7136080265  -999.250000
 3053.4864000 2.5673220158 13.638400078 3.5309040546 0.1162160039 3.5238230228  -999.250000
 3053.6388000 2.5641531944 13.160940170 3.3725039959 0.1004279032 3.3703598976  -999.250000
