# LAS format log file from PETREL
# Project units are specified as depth units
#==================================================================
~Version information
VERS.   2.0:
WRAP.   NO:
#==================================================================
~Well
STRT .m      189.89040000 :
STOP .m      3795.0648000 :
STEP .m     0.15240000 :
NULL .        -999.250000 :
COMP.           : COMPANY
WELL.  15_9-F-5   : WELL
FLD.            : FIELD
LOC.            : LOCATION
SRVC.           : SERVICE COMPANY
DATE.  2020-08-19 21:46:58   : Log Export Date {yyyy-MM-dd HH:mm:ss}
PROV.           : PROVINCE
UWI.   15_9-F-5   : UNIQUE WELL ID
API.            : API NUMBER
#==================================================================
~Curve
DEPT .m                   : DEPTH
RHOB .g/cm3               : RHOB
GR .gAPI                  : GR
RT .ohm.m                 : RT
NPHI .m3/m3               : NPHI
RM .ohm.m                 : RM
FACIES ._                 : FACIES
~Parameter
#==================================================================
~Ascii
# ...
 3425.0376000 2.5422770977 107.21140289 2.3590779305 0.2539735138 2.2471499443  -999.250000
 3425.1900000 2.5302529335 107.99880219 2.2822670937 0.2818298936 2.1541569233  -999.250000
 3425.3424000 2.5292379856 103.73840332 2.3246140480 0.2717993855 2.1519579887  -999.250000
 3425.4948000 2.5293960571 99.197937012 2.1174800396 0.2525455058 2.0719621181  -999.250000
 3425.6472000 2.5231800079 101.23899841 1.9985320568 0.2669897974 2.0097789764  -999.250000
 3425.7996000 2.5264730453 103.60310364 2.0137979984 0.3114429116 2.0133869648  -999.250000
 3425.9520000 2.5283229351 106.10030365 2.0278639793 0.2795993090 2.0406970978  -999.250000
 3426.1044000 2.5290019512 100.77290344 2.1042311192 0.2726314962 2.0903730392  -999.250000
 3426.2568000 2.5328500271 100.41539764 2.1285688877 0.2659252882 2.1098499298  -999.250000
 3426.4092000 2.5338530540 96.825813293 2.1161708832 0.2526277900 2.1456069946  -999.250000
 3426.5616000 2.5373020172 97.403709412 2.1468780041 0.2427934110 2.1561820507  -999.250000
 3426.7140000 2.5378038883 94.940826416 2.1153740883 0.2230640054 2.1397349834  -999.250000
 3426.8664000 2.5409250259 96.038780212 2.1471560001 0.2477273047 2.1172170639  -999.250000
 3427.0188000 2.5368349552 94.241821289 2.1490690708 0.2623184919 2.1202960014  -999.250000
 3427.1712000 2.5240058899 94.221740723 2.0928940773 0.2644943893 2.0961229801  -999.250000
 3427.3236000 2.5087978840 97.345573425 2.0845379829 0.2801268101 2.0617210865  -999.250000
 3427.4760000 2.5013329983 100.37909698 2.0335690975 0.3079762161 2.0386989117  -999.250000
 3427.6284000 2.4988551140 100.43550110 1.9684820175 0.2923980057 1.9385659695  -999.250000
 3427.7808000 2.5028789043 100.22389984 1.8370180130 0.2996816933 1.9190020561  -999.250000
 3427.9332000 2.5071890354 99.453948975 1.7928450108 0.2836236060 1.8839600086  -999.250000
 3428.0856000 2.5064299107 98.547988892 1.7604629993 0.2855372131 1.8476610184  -999.250000
 3428.2380000 2.5018320084 94.324722290 1.6690759659 0.2698166072 1.8203669786  -999.250000
 3428.3904000 2.4986500740 90.228660583 1.7240790129 0.2674942017 1.7435619831  -999.250000
 3428.5428000 2.4982919693 87.965118408 1.7104330063 0.2623226047 1.6590420008  -999.250000
 3428.6952000 2.5154650211 87.395393372 1.6421760321 0.2580747008 1.6186790466  -999.250000
 3428.8476000 2.5350921154 82.736511230 1.5093950033 0.2102022022 1.4911090136  -999.250000
 3429.0000000 2.5886878967 72.256530762 1.1598329544 0.2338328958 1.2294780016  -999.250000
 3429.1524000 2.6146049500 61.073490143 1.9224230051 0.2248988897 1.5889580250  -999.250000
 3429.3048000 2.6200060844 54.271110535 1.6022180319 0.1942937970 1.4276390076  -999.250000
 3429.4572000 2.5766460896 50.760890961 1.2596590519 0.2004258931 1.1918050051  -999.250000
 3429.6096000 2.5463631153 47.844421387 1.2769290209 0.1918029934 1.1598500013  -999.250000
 3429.7620000 2.5382430553 46.211021423 1.2559050322 0.1975978017 1.1579060555  -999.250000
 3429.9144000 2.5336530209 48.157348633 1.2088279724 0.1805421114 1.0518620014  -999.250000
 3430.0668000 2.5235910416 48.720958710 1.0954220295 0.1965889931 0.9962136745  -999.250000
 3430.2192000 2.5041019917 50.802608490 0.9907451868 0.2269862890 0.9404941201  -999.250000
 3430.3716000 2.4885010719 50.585578918 0.9237301946 0.2007949054 0.9253615141  -999.250000
 3430.5240000 2.4821949005 50.965270996 0.9914863110 0.1922582090 0.9482846856  -999.250000
 3430.6764000 2.4693241119 48.138679504 1.0001280308 0.2024698108 0.9701437950  -999.250000
 3430.8288000 2.4536230564 45.266670227 1.0199509859 0.1969297081 0.9997239709  -999.250000
 3430.9812000 2.4446399212 43.177219391 1.0040580034 0.1845492870 0.9728221893  -999.250000
 3431.1336000 2.4477169514 41.529228210 0.9326435924 0.1813237071 0.9669470191  -999.250000
 3431.2860000 2.4543049335 41.432041168 1.0594170094 0.1877961904 0.9704527259  -999.250000
 3431.4384000 2.4527239799 42.633300781 1.0403350592 0.1853177100 0.9655069113  -999.250000
 3431.5908000 2.4441630840 43.653488159 0.9057319760 0.1884458959 0.9347794056  -999.250000
 3431.7432000 2.4358830452 42.871109009 0.9376022220 0.1855164915 0.9347344041  -999.250000
 3431.8956000 2.4441869259 43.492618561 0.9693428278 0.1812455952 0.9226269126  -999.250000
 3432.0480000 2.4527630806 41.821960449 0.9701827168 0.1526580006 0.9516304731  -999.250000
 3432.2004000 2.4623219967 41.259918213 0.9956638813 0.1565546989 0.9209269285  -999.250000
 3432.3528000 2.4521191120 37.611629486 0.8872374892 0.1848077923 0.9089487195  -999.250000
 3432.5052000 2.4370980263 39.117401123 0.9293339252 0.2008510977 0.9025595188  -999.250000
 3432.6576000 2.4261848927 39.253028870 0.9979699850 0.1836190969 0.9312723875  -999.250000
 3432.8100000 2.4201540947 41.048271179 0.9812325239 0.1817966998 0.9070566297  -999.250000
 3432.9624000 2.4498219490 37.841609955 0.8404601812 0.1968800873 0.7972657084  -999.250000
 3433.1148000 2.4808330536 38.392219543 0.9056562185 0.1976944953 0.9030190706  -999.250000
 3433.2672000 2.5218279362 38.656421661 1.0202850103 0.1898410916 0.9233264923  -999.250000
 3433.4196000 2.5284628868 39.619148254 0.8877850175 0.1964396983 0.8830673099  -999.250000
 3433.5720000 2.5177650452 38.572669983 1.0269110203 0.2186657935 0.9424766898  -999.250000
 3433.7244000 2.5317881107 38.066520691 1.0333540440 0.2089347094 1.0307159424  -999.250000
 3433.8768000 2.5237350464 37.272369385 1.0298340321 0.2037741095 1.0517699718  -999.250000
 3434.0292000 2.5173339844 35.319179535 1.0800069571 0.2258937955 1.1121929884  -999.250000
 3434.1816000 2.4962899685 31.987560272 1.1413609982 0.2048019916 1.2221419811  -999.250000
 3434.3340000 2.4864749908 31.381509781 1.2155590057 0.1849316061 1.2102750540  -999.250000
 3434.4864000 2.4829409122 29.201650620 1.2581139803 0.1571082026 1.3042240143  -999.250000
 3434.6388000 2.4823539257 30.327390671 1.2922420502 0.1483950019 1.3179869652  -999.250000
 3434.7912000 2.4896199703 29.847530365 1.2313580513 0.1428606063 1.3134030104  -999.250000
 3434.9436000 2.4980831146 32.629638672 1.2273169756 0.1279485971 1.2562819719  -999.250000
 3435.0960000 2.5082221031 32.147048950 1.2488650084 0.1295569986 1.2445939779  -999.250000
 3435.2484000 2.5085508823 30.701179504 1.2726440430 0.1405405104 1.2487399578  -999.250000
 3435.4008000 2.5079760551 28.239530563 1.3639019728 0.1400932968 1.2701929808  -999.250000
 3435.5532000 2.5211939812 27.221839905 1.4040999413 0.1391099989 1.2938799858  -999.250000
 3435.7056000 2.5323579311 28.555309296 1.4361499548 0.1337146014 1.3651889563  -999.250000
 3435.8580000 2.5270619392 30.162099838 1.3719780445 0.1359860003 1.3446439505  -999.250000
 3436.0104000 2.5235099792 29.765750885 1.4226200581 0.1534180045 1.3696559668  -999.250000
 3436.1628000 2.5059099197 29.232519150 1.4484970570 0.1544582993 1.4311250448  -999.250000
 3436.3152000 2.5347890854 28.519100189 1.6268630028 0.1402577907 1.5098999739  -999.250000
 3436.4676000 2.5531098843 29.497690201 1.5552849770 0.1407577991 1.5082689524  -999.250000
 3436.6200000 2.5941250324 30.859689713 1.4353979826 0.1415062100 1.4505280256  -999.250000
 3436.7724000 2.6264340878 31.388170242 1.3784500360 0.1426389962 1.3778829575  -999.250000
 3436.9248000 2.6363940239 31.966939926 1.2807680368 0.1601700038 1.2946679592  -999.250000
 3437.0772000 2.6225819588 32.009899139 1.2847609520 0.1790584922 1.2465319633  -999.250000
 3437.2296000 2.5952100754 34.358951569 1.3844530582 0.1977231055 1.2564109564  -999.250000
 3437.3820000 2.5565969944 34.811359406 1.3089189529 0.1992910951 1.2641299963  -999.250000
 3437.5344000 2.4991919994 36.326969147 1.2607200146 0.2060611844 1.2449799776  -999.250000
 3437.6868000 2.4451546669 39.241600037 1.3089489937 0.2322407961 1.2420170307  -999.250000
 3437.8392000 2.4137480259 41.897140503 1.3520560265 0.1979248077 1.1796900034  -999.250000
 3437.9916000 2.4075529575 42.879760742 1.2995220423 0.1920059919 1.1278909445  -999.250000
 3438.1440000 2.4125161171 40.089519501 1.1383659840 0.1937533915 1.0532120466  -999.250000
