# LAS format log file from PETREL
# Project units are specified as depth units
#==================================================================
~Version information
VERS.   2.0:
WRAP.   NO:
#==================================================================
~Well
STRT .m      -0.015270480 :
STOP .m      1245.8090095 :
STEP .m     0.04572000 :
NULL .        -999.250000 :
COMP.           : COMPANY
WELL.  15_9-19 A   : WELL
FLD.            : FIELD
LOC.            : LOCATION
SRVC.           : SERVICE COMPANY
DATE.  2020-08-19 21:46:58   : Log Export Date {yyyy-MM-dd HH:mm:ss}
PROV.           : PROVINCE
UWI.   15_9-19 A   : UNIQUE WELL ID
API.            : API NUMBER
#==================================================================
~Curve
DEPT .m                   : DEPTH
GR .gAPI                  : GR
NPHI .m3/m3               : NPHI
RHOB .g/cm3               : RHOB
RM .ohm.m                 : RM
RT .ohm.m                 : RT
FACIES ._                 : FACIES
~Parameter
#==================================================================
~Ascii
# ...
 711.98228952 47.389999390 0.5500000119 2.1473999023 1.0000000000 1.0000000000  -999.250000
 712.02800952 50.049999237 0.5400000215 2.1423997879 1.0000000000 1.0000000000  -999.250000
 712.07372952 50.779998779 0.5300000310 2.1375000477 1.0000000000 1.0000000000  -999.250000
 712.11944952 48.580001831 0.6800000072 2.1245000362 1.0000000000 1.0000000000  -999.250000
 712.16516952 48.560001373 1.0800000429 2.1126000881 1.0000000000 1.0000000000  -999.250000
 712.21088952 50.360000610 1.3500000238 2.1108999252 1.1000000238 1.1000000238  -999.250000
 712.25660952 55.680000305 1.1499999762 2.1073000431 1.1000000238 1.1000000238  -999.250000
 712.30232952 60.040000916 0.7800000310 2.1013998985 1.0000000000 1.0000000000  -999.250000
 712.34804952 58.069999695 0.4900000095 2.1031000614 1.0000000000 1.0000000000  -999.250000
 712.39376952 57.419998169 0.4300000072 2.1159999371 1.0000000000 1.0000000000  -999.250000
 712.43948952 57.770000458 0.4599999785 2.1236999035 1.0000000000 1.0000000000  -999.250000
 712.48520952 58.819999695 0.4699999690 2.1317999363 1.0000000000 1.0000000000  -999.250000
 712.53092952 55.139999390 0.4699999690 2.1494998932 1.0000000000 1.0000000000  -999.250000
 712.57664952 52.599998474 0.4900000095 2.1568999290 1.0000000000 1.0000000000  -999.250000
 712.62236952 55.569999695 0.4800000191 2.1115000248 0.8999999762 1.0000000000  -999.250000
 712.66808952 56.479999542 0.4499999881 2.0330998898 0.8999999762 1.0000000000  -999.250000
 712.71380952 59.290000916 0.4300000072 2.0409998894 0.8999999762 1.0000000000  -999.250000
 712.75952952 58.580001831 0.4099999964 2.1094999313 1.0000000000 1.0000000000  -999.250000
 712.80524952 55.430000305 0.3799999952 2.1023001671 1.0000000000 1.0000000000  -999.250000
 712.85096952 56.340000153 0.4000000060 2.0933001041 1.0000000000 1.0000000000  -999.250000
 712.89668952 57.810001373 0.4300000072 2.1019999981 1.0000000000 1.0000000000  -999.250000
 712.94240952 55.450000763 0.4399999976 2.1098001003 1.0000000000 1.0000000000  -999.250000
 712.98812952 54.099998474 0.4599999785 2.1176998615 1.0000000000 1.0000000000  -999.250000
 713.03384952 51.500000000 0.4800000191 2.1291999817 1.0000000000 1.0000000000  -999.250000
 713.07956952 52.409999847 0.4499999881 2.1405000687 1.0000000000 1.0000000000  -999.250000
 713.12528952 55.400001526 0.4499999881 2.1542999744 1.0000000000 1.0000000000  -999.250000
 713.17100952 55.689998627 0.4399999976 2.1651000977 1.0000000000 1.0000000000  -999.250000
 713.21672952 53.930000305 0.4699999690 2.1618001461 0.8999999762 1.0000000000  -999.250000
 713.26244952 51.770000458 0.5199999809 2.1514999866 0.8999999762 1.0000000000  -999.250000
 713.30816952 53.000000000 0.5000000000 2.1408998966 0.8999999762 1.0000000000  -999.250000
 713.35388952 55.060001373 0.4499999881 2.1336998940 0.8999999762 1.0000000000  -999.250000
 713.39960952 56.779998779 0.4399999976 2.1301999092 0.8999999762 1.0000000000  -999.250000
 713.44532952 55.419998169 0.4699999690 2.1311001778 0.8999999762 1.0000000000  -999.250000
 713.49104952 54.250000000 0.4800000191 2.1347000599 0.8999999762 1.0000000000  -999.250000
 713.53676952 57.240001678 0.4599999785 2.1333000660 0.8999999762 1.0000000000  -999.250000
 713.58248952 58.229999542 0.4800000191 2.1248998642 0.8999999762 1.0000000000  -999.250000
 713.62820952 55.799999237 0.4599999785 2.1531999111 0.8999999762 1.0000000000  -999.250000
 713.67392952 56.099998474 0.4499999881 2.1931998730 0.8999999762 1.0000000000  -999.250000
 713.71964952 55.000000000 0.6000000238 2.1638998985 0.8999999762 1.0000000000  -999.250000
 713.76536952 55.619998932 0.6999999881 2.0975000858 0.8999999762 1.0000000000  -999.250000
 713.81108952 56.799999237 0.5199999809 2.0311000347 0.8999999762 1.0000000000  -999.250000
 713.85680952 54.720001221 0.3799999952 2.0283000469 0.8999999762 1.0000000000  -999.250000
 713.90252952 51.750000000 0.3799999952 2.1371998787 0.8999999762 1.0000000000  -999.250000
 713.94824952 51.689998627 0.4300000072 2.2023000717 1.0000000000 1.0000000000  -999.250000
 713.99396952 55.099998474 0.4699999690 2.1448998451 1.0000000000 1.0000000000  -999.250000
 714.03968952 51.189998627 0.4599999785 2.1229000092 1.0000000000 1.0000000000  -999.250000
 714.08540952 45.080001831 0.4699999690 2.1480000019 0.8999999762 1.0000000000  -999.250000
 714.13112952 46.790000916 0.4699999690 2.1611001492 0.8999999762 1.0000000000  -999.250000
 714.17684952 52.799999237 0.4699999690 2.1377999783 0.8999999762 1.0000000000  -999.250000
 714.22256952 54.290000916 0.4300000072 2.1282999516 0.8999999762 1.0000000000  -999.250000
 714.26828952 53.680000305 0.4300000072 2.1311001778 0.8999999762 0.8999999762  -999.250000
 714.31400952 52.740001678 0.4599999785 2.1377999783 0.8999999762 0.8999999762  -999.250000
 714.35972952 52.639999390 0.5000000000 2.1387000084 0.8999999762 0.8999999762  -999.250000
 714.40544952 54.709999084 0.4900000095 2.1393001080 0.8999999762 0.8999999762  -999.250000
 714.45116952 55.369998932 0.4599999785 2.1461000443 0.8999999762 0.8999999762  -999.250000
 714.49688952 52.090000153 0.4499999881 2.1438999176 0.8999999762 0.8999999762  -999.250000
 714.54260952 52.580001831 0.4300000072 2.1322000027 0.8999999762 0.8999999762  -999.250000
 714.58832952 52.099998474 0.4300000072 2.1318998337 0.8999999762 0.8999999762  -999.250000
 714.63404952 52.560001373 0.4300000072 2.1417000294 0.8999999762 1.0000000000  -999.250000
 714.67976952  -999.250000  -999.250000  -999.250000  -999.250000  -999.250000  -999.250000
 714.72548952 55.860000610 0.4199999869 2.1447999477 0.8999999762 1.0000000000  -999.250000
 714.77120952 55.909999847 0.4099999964 2.1428999901 0.8999999762 1.0000000000  -999.250000
 714.81692952 57.250000000 0.4099999964 2.1342999935 0.8999999762 1.0000000000  -999.250000
 714.86264952 58.970001221 0.4099999964 2.1308999062 0.8999999762 1.0000000000  -999.250000
 714.90836952 55.240001678 0.4399999976 2.1412999630 0.8999999762 1.0000000000  -999.250000
 714.95408952 53.369998932 0.4599999785 2.1441998482 0.8999999762 1.0000000000  -999.250000
 714.99980952 53.970001221 0.4499999881 2.1323001385 0.8999999762 1.0000000000  -999.250000
 715.04552952 55.810001373 0.4199999869 2.1254999638 0.8999999762 1.0000000000  -999.250000
 715.09124952 57.500000000 0.4099999964 2.1308000088 0.8999999762 0.8999999762  -999.250000
 715.13696952 59.909999847 0.4199999869 2.1386001110 0.8999999762 0.8999999762  -999.250000
 715.18268952 57.380001068 0.4300000072 2.1412000656 0.8999999762 0.8999999762  -999.250000
 715.22840952 53.040000916 0.4499999881 2.1398999691 0.8999999762 0.8999999762  -999.250000
 715.27412952 57.270000458 0.4499999881 2.1828999519 0.8999999762 0.8999999762  -999.250000
 715.31984952 58.900001526 0.4499999881 2.1973998547 0.8999999762 0.8999999762  -999.250000
 715.36556952 52.250000000 0.4499999881 2.0888998508 0.8999999762 0.8999999762  -999.250000
 715.41128952 50.180000305 0.4399999976 2.0441000462 0.8999999762 0.8999999762  -999.250000
 715.45700952 54.729999542 0.4199999869 2.1588001251 0.8999999762 0.8999999762  -999.250000
 715.50272952 56.819999695 0.4300000072 2.2168998718 0.8999999762 0.8999999762  -999.250000
 715.54844952 56.810001373 0.4699999690 2.1619999409 0.8999999762 0.8999999762  -999.250000
 715.59416952 54.779998779 0.4599999785 2.0722000599 0.8999999762 0.8999999762  -999.250000
 715.63988952 52.950000763 0.4199999869 2.0680000782 0.8999999762 0.8999999762  -999.250000
 715.68560952 50.639999390 0.4099999964 2.1266000271 0.8999999762 0.8999999762  -999.250000
 715.73132952 49.369998932 0.4300000072 2.1303000450 0.8999999762 0.8999999762  -999.250000
 715.77704952 51.500000000 0.4300000072 2.1138000488 0.8999999762 0.8999999762  -999.250000
 715.82276952 54.560001373 0.4199999869 2.1099998951 0.8999999762 0.8999999762  -999.250000
 715.86848952 55.740001678 0.4300000072 2.1148998737 0.8999999762 0.8999999762  -999.250000
 715.91420952 52.700000763 0.4099999964 2.1240000725 0.8999999762 0.8999999762  -999.250000
