# LAS format log file from PETREL
# Project units are specified as depth units
#==================================================================
~Version information
VERS.   2.0:
WRAP.   NO:
#==================================================================
~Well
STRT .m      175.86960000 :
STOP .m      5330.3424000 :
STEP .m     0.15240000 :
NULL .        -999.250000 :
COMP.           : COMPANY
WELL.  15_9-F-10   : WELL
FLD.            : FIELD
LOC.            : LOCATION
SRVC.           : SERVICE COMPANY
DATE.  2020-08-19 21:46:58   : Log Export Date {yyyy-MM-dd HH:mm:ss}
PROV.           : PROVINCE
UWI.   15_9-F-10   : UNIQUE WELL ID
API.            : API NUMBER
#==================================================================
~Curve
DEPT .m                   : DEPTH
RHOB .g/cm3               : RHOB
RT .ohm.m                 : RT
GR .gAPI                  : GR
NPHI .m3/m3               : NPHI
RM .ohm.m                 : RM
FACIES ._                 : FACIES
~Parameter
#==================================================================
~Ascii
# ...
 4060.6980000 2.5765042305 6.1782426834 4.8937888145  -999.250000 6.1427149773  -999.250000
 4060.8504000 2.5801012516 6.1679229736 4.1732630730  -999.250000 6.1234612465  -999.250000
 4061.0028000 2.5916850567 6.2588248253 4.2987213135  -999.250000 6.1654844284  -999.250000
 4061.1552000 2.6075417995 6.2293004990 4.7560725212  -999.250000 6.1808199883  -999.250000
 4061.3076000 2.6022980213 6.2387299538 4.7560725212  -999.250000 6.2212519646  -999.250000
 4061.4600000 2.5809628963 6.2325992584 5.0693750381  -999.250000 6.2193250656  -999.250000
 4061.6124000 2.5747566223 6.3157448769 5.1886768341  -999.250000 6.2365808487  -999.250000
 4061.7648000 2.5966207981 6.3435916901 5.8379316330  -999.250000 6.2300257683  -999.250000
 4061.9172000 2.6232223511 6.3089308739 6.0822553635  -999.250000 6.1927013397  -999.250000
 4062.0696000 2.6301741600 6.3352351189 6.5323896408  -999.250000 6.2415089607  -999.250000
 4062.2220000 2.6059668064 6.3282446861 6.9647440910  -999.250000 6.2124514580  -999.250000
 4062.3744000 2.5778160095 6.1729350090 7.4887251854  -999.250000 6.2451734543  -999.250000
 4062.5268000 2.5622611046 6.3040618896 7.1760497093  -999.250000 6.2346301079  -999.250000
 4062.6792000 2.5655703545 6.3931198120 6.8776969910  -999.250000 6.2500791550  -999.250000
 4062.8316000 2.5758981705 6.1392731667 7.6759014130  -999.250000 6.2426400185  -999.250000
 4062.9840000 2.5833671093 6.3409938812 8.7724580765  -999.250000 6.2357115746  -999.250000
 4063.1364000 2.5768327713 6.3805670738 7.6757640839  -999.250000 6.2370924950  -999.250000
 4063.2888000 2.5712423325 6.3924102783 5.4825124741  -999.250000 6.1478161812  -999.250000
 4063.4412000 2.5727245808 6.2567043304 4.3859553337  -999.250000 6.1094980240  -999.250000
 4063.5936000 2.5796883106 6.2920236588 5.4826493263  -999.250000 6.1036062241  -999.250000
 4063.7460000 2.5746767521 6.4473080635 7.6623644829  -999.250000 6.1912145615  -999.250000
 4063.8984000 2.5714879036 6.3485784531 8.7453861237  -999.250000 6.2041535378  -999.250000
 4064.0508000 2.5786035061 6.4117093086 8.9864730835  -999.250000 6.1910228729  -999.250000
 4064.2032000 2.6042008400 6.4575881958 8.1445398331  -999.250000 6.2705855370  -999.250000
 4064.3556000 2.6107368469 6.4561548233 6.7477459908  -999.250000 6.3382487297  -999.250000
 4064.5080000 2.5983276367 6.5995306969 6.1928868294  -999.250000 6.3985805511  -999.250000
 4064.6604000 2.5952875614 6.4875450134 4.8833594322  -999.250000 6.4154391289  -999.250000
 4064.8128000 2.6007454395 6.6768269539 4.1286907196  -999.250000 6.5747799873  -999.250000
 4064.9652000 2.6221501827 6.7496962547 4.0591807365  -999.250000 6.6246185303  -999.250000
 4065.1176000 2.6168105602 6.8900289536 4.7443385124  -999.250000 6.8119778633  -999.250000
 4065.2700000 2.6080224514 7.0564393997 7.0659875870  -999.250000 6.8780331612  -999.250000
 4065.4224000 2.6085853577 7.2134213448 8.7024784088  -999.250000 6.8863363266  -999.250000
 4065.5748000 2.6171646118 7.3269200325 10.689096451  -999.250000 7.1846013069  -999.250000
 4065.7272000 2.6049654484 7.4885444641 11.039223671  -999.250000 7.2700686455  -999.250000
 4065.8796000 2.5878386497 7.3509654999 10.068092346  -999.250000 7.3068456650  -999.250000
 4066.0320000 2.5813820362 7.7852492332 7.9948039055  -999.250000 7.6450142860  -999.250000
 4066.1844000 2.5888724327 7.8057966232 5.9215135574  -999.250000 7.6881914139  -999.250000
 4066.3368000 2.5914816856 7.7816352844 6.6432824135  -999.250000 7.7389035225  -999.250000
 4066.4892000 2.5900676250 7.8716349602 8.1170806885  -999.250000 7.8300280571  -999.250000
 4066.6416000 2.5803203583 8.0942726135 8.4303836823  -999.250000 7.9347081184  -999.250000
 4066.7940000 2.5698645115 8.1874074936 7.2698869705  -999.250000 7.9871258736  -999.250000
 4066.9464000 2.5715899467 8.0179872513 7.2059483528  -999.250000 8.0348129272  -999.250000
 4067.0988000 2.5770614147 8.1718530655 8.3025054932  -999.250000 8.0710821152  -999.250000
 4067.2512000 2.6006121635 8.1263818741 7.8483757973  -999.250000 7.9764046669  -999.250000
 4067.4036000 2.6139843464 8.2303953171 6.2976880074  -999.250000 7.9394531250  -999.250000
 4067.5560000 2.6226034164 8.0942926407 5.3577818871  -999.250000 7.9524221420  -999.250000
 4067.7084000 2.6172540188 8.0004224777 5.9685626030  -999.250000 7.9530563354  -999.250000
 4067.8608000 2.5932629108 7.8445215225 6.1093897820  -999.250000 7.8592309952  -999.250000
 4068.0132000 2.5768053532 7.9376101494 5.6394371986  -999.250000 7.7680916786  -999.250000
 4068.1656000 2.5684895515 7.8520164490 5.7990293503  -999.250000 7.7329216003  -999.250000
 4068.3180000 2.5782098770 7.6080789566 6.4285745621  -999.250000 7.5913157463  -999.250000
 4068.4704000 2.5894923210 7.5238180161 7.0551786423  -999.250000 7.4690890312  -999.250000
 4068.6228000 2.5928151608 7.5669069290 7.0522375107  -999.250000 7.4646100998  -999.250000
 4068.7752000 2.5906078815 7.4222941399 7.2053217888  -999.250000 7.3908648491  -999.250000
 4068.9276000 2.5840902328 7.2794666290 7.3613462448  -999.250000 7.2931413651  -999.250000
 4069.0800000 2.5839824677 7.3769216537 8.3906393051  -999.250000 7.2809720039  -999.250000
 4069.2324000 2.5907583237 7.3349761963 9.2639074326  -999.250000 7.2975177765  -999.250000
 4069.3848000 2.5854911804 7.1667633057 9.7344875336  -999.250000 7.1444377899  -999.250000
 4069.5372000 2.5818839073 7.0711598396 9.3317985535  -999.250000 7.0075588226  -999.250000
 4069.6896000 2.5861375332 7.1017827988 8.3025054932  -999.250000 7.0166978836  -999.250000
 4069.8420000 2.5994818211 7.0497465134 7.6759014130  -999.250000 7.0040264130  -999.250000
 4069.9944000 2.5903735161 7.0938892365 6.4251861572  -999.250000 6.9538450241  -999.250000
 4070.1468000 2.5821115971 7.0909452438 5.8010735512  -999.250000 6.8414764404  -999.250000
 4070.2992000 2.5722517967 7.0399761200 5.8010735512  -999.250000 6.8217968941  -999.250000
 4070.4516000 2.5788502693 6.8943953514 6.4251861572  -999.250000 6.8049659729  -999.250000
 4070.6040000 2.5867679119 6.9237117767 6.6881771088  -999.250000 6.6770267487  -999.250000
 4070.7564000 2.5557270050 6.8761892319 6.3270568848  -999.250000 6.6780815125  -999.250000
 4070.9088000 2.5899488926 6.8857731819 6.2980475426  -999.250000 6.6803679466  -999.250000
 4071.0612000 2.5310010910 6.7481122017 6.6301574707  -999.250000 6.5702605247  -999.250000
 4071.2136000 2.5112614632 6.7077417374 7.4612307549  -999.250000 6.4707007408  -999.250000
 4071.3660000 2.5197317600 6.7173810005 7.9601931572  -999.250000 6.4551663399  -999.250000
 4071.5184000 2.5098063946 6.6114296913 7.3746490479  -999.250000 6.4580459595  -999.250000
 4071.6708000 2.5545182228 6.5754089355 6.2901415825  -999.250000 6.4480719566  -999.250000
 4071.8232000 2.5808093548 6.5918731689 5.1935844421  -999.250000 6.4340462685  -999.250000
 4071.9756000 2.6067543030 6.5956425667 5.1815342903  -999.250000 6.4280800819  -999.250000
 4072.1280000 2.6190123558 6.5143508911 6.6596775055  -999.250000 6.3550271988  -999.250000
 4072.2804000 2.5933303833 6.5124316216 8.1498708725  -999.250000 6.3672041893  -999.250000
 4072.4328000 2.5697433949 6.4972572327 8.8062181473  -999.250000 6.3641180992  -999.250000
 4072.5852000 2.5656411648 6.3995156288 7.9723734856  -999.250000 6.3329696655  -999.250000
 4072.7376000 2.5649664402 6.4764857292 8.6780157089  -999.250000 6.3424811363  -999.250000
 4072.8900000 2.5758142471 6.4647278786 10.217503548  -999.250000 6.3514556885  -999.250000
 4073.0424000 2.5676958561 6.3554286957 11.207695961  -999.250000 6.3236198425  -999.250000
 4073.1948000 2.5601046085 6.3502244949 10.658401489  -999.250000 6.3041405678  -999.250000
 4073.3472000 2.5478737354 6.3442521095 11.072988510  -999.250000 6.3101773262  -999.250000
 4073.4996000 2.5524418354 6.4821496010 12.036869049  -999.250000 6.3030667305  -999.250000
 4073.6520000 2.5655398369 6.3805732727 11.391533852  -999.250000 6.2965593338  -999.250000
 4073.8044000 2.5976550579 6.3725938797 9.7823152542  -999.250000 6.3037600517  -999.250000
