# LAS format log file from PETREL
# Project units are specified as depth units
#==================================================================
~Version information
VERS.   2.0:
WRAP.   NO:
#==================================================================
~Well
STRT .m      175.86960000 :
STOP .m      5330.3424000 :
STEP .m     0.15240000 :
NULL .        -999.250000 :
COMP.           : COMPANY
WELL.  15_9-F-10   : WELL
FLD.            : FIELD
LOC.            : LOCATION
SRVC.           : SERVICE COMPANY
DATE.  2020-08-19 21:46:58   : Log Export Date {yyyy-MM-dd HH:mm:ss}
PROV.           : PROVINCE
UWI.   15_9-F-10   : UNIQUE WELL ID
API.            : API NUMBER
#==================================================================
~Curve
DEPT .m                   : DEPTH
RHOB .g/cm3               : RHOB
RT .ohm.m                 : RT
GR .gAPI                  : GR
NPHI .m3/m3               : NPHI
RM .ohm.m                 : RM
FACIES ._                 : FACIES
~Parameter
#==================================================================
~Ascii
# ...
 4935.7788000 2.5773472786 9.4442873001 12.928439140 0.0621506572 9.2766199112  -999.250000
 4935.9312000 2.5749926567 9.3004665375 10.123600960 0.0570623688 9.2900505066  -999.250000
 4936.0836000 2.5767266750 9.3735685349 9.6391410828 0.0523530096 9.2986078262  -999.250000
 4936.2360000 2.5819725990 9.6753435135 8.1015853882 0.0480058789 9.4890470505  -999.250000
 4936.3884000 2.5909283161 9.5205993652 7.8453545570 0.0484267063 9.4926967621  -999.250000
 4936.5408000 2.5929377079 9.6795930862 7.1478652954 0.0488164239 9.4675884247  -999.250000
 4936.6932000 2.5946745872 9.7158927917 7.1288013458 0.0490534864 9.5940656662  -999.250000
 4936.8456000 2.5963282585 9.5939464569 6.7709565163 0.0515473410 9.6690387726  -999.250000
 4936.9980000 2.5927116871 9.7633905411 6.9419908524 0.0543287322 9.8784751892  -999.250000
 4937.1504000 2.5998067856 9.9081401825 6.8613677025 0.0597057864 9.9909896851  -999.250000
 4937.3028000 2.6039595604 10.358834267 7.2789616585 0.0578444004 10.341373444  -999.250000
 4937.4552000 2.6069097519 10.707144737 7.3639450073 0.0575789213 10.429315567  -999.250000
 4937.6076000 2.6014678478 10.793887138 6.0680742264 0.0578365177 10.642333031  -999.250000
 4937.7600000 2.5979788303 10.857432365 6.2365169525 0.0573365428 10.781848907  -999.250000
 4937.9124000 2.6036634445 11.213412285 5.6243667603 0.0561353490 10.832730293  -999.250000
 4938.0648000 2.6076881886 11.078463554 6.8915066719 0.0548030175 10.817188263  -999.250000
 4938.2172000 2.6194009781 11.237765312 6.2503352165 0.0530606583 10.872830391  -999.250000
 4938.3696000 2.6209280491 11.277153969 6.9480223656 0.0526247695 10.878870010  -999.250000
 4938.5220000 2.6241984367 11.244753838 5.9798407555 0.0505206622 10.895975113  -999.250000
 4938.6744000 2.6229267120 11.287447929 5.2673482895 0.0506520718 11.017396927  -999.250000
 4938.8268000 2.6229271889 11.144370079 3.9859642982 0.0492353141 11.094095230  -999.250000
 4938.9792000 2.6280958652 11.199170113 4.6266064644 0.0484559014 11.114158630  -999.250000
 4939.1316000 2.6263062954 11.155693054 4.7836027145 0.0473446399 11.023218155  -999.250000
 4939.2840000 2.6287488937 11.241068840 5.1959972382 0.0471188165 11.191166878  -999.250000
 4939.4364000 2.6317415237 11.344347954 6.3922276497 0.0462530851 11.212164879  -999.250000
 4939.5888000 2.6381781101 11.389768600 7.7740283012 0.0472280532 11.156781197  -999.250000
 4939.7412000 2.6367781162 11.355751038 9.3267278671 0.0473317169 11.237432480  -999.250000
 4939.8936000 2.6333851814 11.450882912 8.6861143112 0.0461074635 11.273471832  -999.250000
 4940.0460000 2.6260693073 11.656378746 7.4040837288 0.0468403175 11.258852959  -999.250000
 4940.1984000 2.6277120113 11.629972458 6.6493844986 0.0497874916 11.318636894  -999.250000
 4940.3508000 2.6293051243 11.705101967 7.9452977180 0.0485871062 11.481191635  -999.250000
 4940.5032000 2.6282706261 11.595077515 9.5941514969 0.0476159379 11.446163177  -999.250000
 4940.6556000 2.6264047623 11.906326294 11.829402924 0.0496406220 11.422344208  -999.250000
 4940.8080000 2.6251120567 11.525121689 11.672684669 0.0486516878 11.475905418  -999.250000
 4940.9604000 2.6342816353 11.803433418 10.650362968 0.0508713424 11.313057899  -999.250000
 4941.1128000 2.6388051510 11.809882164 8.0021762848 0.0474527664 11.253517151  -999.250000
 4941.2652000 2.6388616562 11.657921791 7.9740800858 0.0460508093 11.250864983  -999.250000
 4941.4176000 2.6371250153 11.446919441 9.1707372665 0.0465288088 11.236489296  -999.250000
 4941.5700000 2.6326346397 11.167044640 10.409511566 0.0479530767 11.189893723  -999.250000
 4941.7224000 2.6313006878 11.450689316 9.7688159943 0.0486871004 11.151614189  -999.250000
 4941.8748000 2.6278278828 11.254549980 9.5408172607 0.0514302999 10.893113136  -999.250000
 4942.0272000 2.6295456886 10.620266914 8.6433067322 0.0473657176 10.719672203  -999.250000
 4942.1796000 2.6347260475 10.460492134 8.4855365753 0.0481091961 10.354435921  -999.250000
 4942.3320000 2.6323256493 10.123210907 8.2857580185 0.0475059487 10.245286942  -999.250000
 4942.4844000 2.6324379444 9.8777685165 9.6817474365 0.0459514782 9.9276752472  -999.250000
 4942.6368000 2.6260018349 9.7693548203 10.480061531 0.0440479219 9.7604761124  -999.250000
 4942.7892000 2.6231508255 9.1291608810 10.679400444 0.0429549813 9.5818367004  -999.250000
 4942.9416000 2.6223623753 9.0646610260 10.337424278 0.0430762656 9.3045396805  -999.250000
 4943.0940000 2.6210374832 8.9930830002 10.066452980 0.0455171391 8.8831157684  -999.250000
 4943.2464000 2.6213545799 8.5007896423 10.137828827 0.0503404699 8.6613349915  -999.250000
 4943.3988000 2.6152620316 8.4335432053 10.750576973 0.0549469888 8.3857069016  -999.250000
 4943.5512000 2.6170921326 7.9218559265 11.776349068 0.0569511205 8.0817213058  -999.250000
 4943.7036000 2.6133148670 7.4512457848 12.699047089 0.0572408959 7.8061432838  -999.250000
 4943.8560000 2.6093304157 7.5304374695 12.655611992 0.0611070804 7.4710688591  -999.250000
 4944.0084000 2.6001992226 7.1631183624 12.926218033 0.0623709224 7.1524295807  -999.250000
 4944.1608000 2.5982103348 6.6219973564 12.772617340 0.0632562563 6.8912444115  -999.250000
 4944.3132000 2.5898885727 6.5376448631 12.303273201 0.0716957003 6.6056752205  -999.250000
 4944.4656000 2.5795459747 7.1473922729 12.758649826 0.0686366037 6.3632607460  -999.250000
 4944.6180000 2.5679960251 6.7147421837 13.542235374 0.0737796873 6.3191943169  -999.250000
 4944.7704000 2.5681946278 6.4695806503 16.418867111 0.0989511833 5.7250256538  -999.250000
 4944.9228000 2.5681951046 6.2257404327 18.255401611 0.1004234254 5.3930215836  -999.250000
 4945.0752000 2.5681142807 4.7872004509 18.938343048 0.0944525525 4.7688798904  -999.250000
 4945.2276000 2.5743823051 4.4588885307 18.468822479 0.0949171558 4.5229501724  -999.250000
 4945.3800000 2.5841460228 4.2224144936 17.757171631 0.0942075402 4.4347014427  -999.250000
 4945.5324000 2.5896713734 3.8890566826 19.536748886 0.0971854776 4.2062034607  -999.250000
 4945.6848000 2.5866777897 3.6012475491 22.014226913 0.1092806980 3.8879842758  -999.250000
 4945.8372000 2.5748672485 3.8335683346 26.956590652 0.1252920926 3.6273252964  -999.250000
 4945.9896000 2.5675048828 4.0527935028 35.060466766 0.1388406456 3.6632688046  -999.250000
 4946.1420000 2.5513999462 3.9723398685 42.634468079 0.1603618562 3.8074264526  -999.250000
 4946.2944000 2.5449714661 3.5351567268 48.100818634 0.1758151054 3.3596615791  -999.250000
 4946.4468000 2.5320804119 3.5099453926 44.908912659 0.1683035642 3.4323444366  -999.250000
 4946.5992000 2.5165157318 3.7304067612 41.962768555 0.1656640917 3.4997735023  -999.250000
 4946.7516000 2.5342400074 3.2567169666 36.424320221 0.1577929407 3.1313703060  -999.250000
 4946.9040000 2.5466604233 2.8134303093 32.679950714 0.1317371577 2.7722735405  -999.250000
 4947.0564000 2.5687019825 2.8618414402 28.822984695 0.1313874871 2.7645335197  -999.250000
 4947.2088000 2.5592381954 2.8838074207 27.099740982 0.1204608530 2.7366228104  -999.250000
 4947.3612000 2.5626053810 2.7836065292 26.999670029 0.1163425222 2.7679703236  -999.250000
 4947.5136000 2.5607495308 2.7873699665 25.544713974 0.1108124405 2.7678442001  -999.250000
 4947.6660000 2.5569949150 2.7896330357 23.537303925 0.1082103699 2.8031396866  -999.250000
 4947.8184000 2.5544292927 2.8668766022 21.445220947 0.1059629545 2.8484675884  -999.250000
 4947.9708000 2.5571696758 2.9476521015 21.890357971 0.0985386446 2.8620295525  -999.250000
 4948.1232000 2.5595386028 2.9290568829 22.670925140 0.0985372588 2.8837230206  -999.250000
 4948.2756000 2.5619452000 2.9231095314 24.504022598 0.0979001224 2.9009754658  -999.250000
 4948.4280000 2.5679798126 2.8982083797 23.918531418 0.0944792852 2.9185893536  -999.250000
 4948.5804000 2.5744168758 2.9267573357 23.838649750 0.0986399800 2.9883458614  -999.250000
 4948.7328000 2.5723636150 3.0246644020 24.287414551 0.0987917334 3.0325808525  -999.250000
 4948.8852000 2.5717449188 3.1072285175 24.276180267 0.1025720835 3.0302731991  -999.250000
