# LAS format log file from PETREL
# Project units are specified as depth units
#==================================================================
~Version information
VERS.   2.0:
WRAP.   NO:
#==================================================================
~Well
STRT .m      175.86960000 :
STOP .m      5330.3424000 :
STEP .m     0.15240000 :
NULL .        -999.250000 :
COMP.           : COMPANY
WELL.  15_9-F-10   : WELL
FLD.            : FIELD
LOC.            : LOCATION
SRVC.           : SERVICE COMPANY
DATE.  2020-08-19 21:46:58   : Log Export Date {yyyy-MM-dd HH:mm:ss}
PROV.           : PROVINCE
UWI.   15_9-F-10   : UNIQUE WELL ID
API.            : API NUMBER
#==================================================================
~Curve
DEPT .m                   : DEPTH
RHOB .g/cm3               : RHOB
RT .ohm.m                 : RT
GR .gAPI                  : GR
NPHI .m3/m3               : NPHI
RM .ohm.m                 : RM
FACIES ._                 : FACIES
~Parameter
#==================================================================
~Ascii
# ...
 3941.3688000 2.6484436989 11.647755623 8.2565183640  -999.250000 11.025636673  -999.250000
 3941.5212000 2.6401150227 11.586517334 8.0538816452  -999.250000 11.064592361  -999.250000
 3941.6736000 2.6345210075 11.609287262 8.6804866791  -999.250000 10.881640434  -999.250000
 3941.8260000 2.6396157742 11.516383171 9.5097274780  -999.250000 10.907167435  -999.250000
 3941.9784000 2.6438448429 11.667575836 10.024883270  -999.250000 10.956769943  -999.250000
 3942.1308000 2.6357281208 11.391678810 9.7107973099  -999.250000 10.778403282  -999.250000
 3942.2832000 2.6293613911 11.581633568 8.4680061340  -999.250000 10.883910179  -999.250000
 3942.4356000 2.6331789494 11.438627243 7.5392999649  -999.250000 10.760082245  -999.250000
 3942.5880000 2.6470067501 11.293093681 7.4597487450  -999.250000 10.762064934  -999.250000
 3942.7404000 2.6553914547 11.171685219 8.3089046478  -999.250000 10.632075310  -999.250000
 3942.8928000 2.6512713432 11.055509567 8.7684412003  -999.250000 10.632478714  -999.250000
 3943.0452000 2.6342558861 11.051903725 8.3788213730  -999.250000 10.496999741  -999.250000
 3943.1976000 2.6238834858 11.143187523 6.5147609711  -999.250000 10.470191002  -999.250000
 3943.3500000 2.6405000687 10.969787598 5.0403199196  -999.250000 10.485261917  -999.250000
 3943.5024000 2.6584448814 10.986408234 4.4611244202  -999.250000 10.269850731  -999.250000
 3943.6548000 2.6451654434 11.074475288 5.3563694954  -999.250000 10.374594688  -999.250000
 3943.8072000 2.6154477596 11.075668335 7.1433691978  -999.250000 10.159749985  -999.250000
 3943.9596000 2.6036736965 10.856412888 8.0351228714  -999.250000 10.231724739  -999.250000
 3944.1120000 2.6195657253 10.840188980 9.1949386597  -999.250000 10.154577255  -999.250000
 3944.2644000 2.6396219730 10.817429543 8.5787696838  -999.250000 10.163383484  -999.250000
 3944.4168000 2.6435647011 10.711198807 7.9625992775  -999.250000 10.078147888  -999.250000
 3944.5692000 2.6347546577 10.696343422 7.5386300087  -999.250000 10.134049416  -999.250000
 3944.7216000 2.6188886166 10.788008690 7.9988923073  -999.250000 10.054450989  -999.250000
 3944.8740000 2.6047873497 10.718337059 7.4525270462  -999.250000 10.179116249  -999.250000
 3945.0264000 2.6006662846 10.711330414 6.4458990097  -999.250000 10.058210373  -999.250000
 3945.1788000 2.5904428959 10.452849388 4.5973591805  -999.250000 10.110167503  -999.250000
 3945.3312000 2.5766475201 10.534807205 3.7554466724  -999.250000 10.045222282  -999.250000
 3945.4836000 2.5821452141 10.628816605 4.2915344238  -999.250000 10.000342369  -999.250000
 3945.6360000 2.6053330898 10.565942764 5.6695346832  -999.250000 9.9938964844  -999.250000
 3945.7884000 2.6167833805 10.542445183 6.7343106270  -999.250000 9.9902124405  -999.250000
 3945.9408000 2.6091403961 10.632759094 6.4210872650  -999.250000 9.9554920197  -999.250000
 3946.0932000 2.5865292549 10.598230362 5.8622064590  -999.250000 9.9881029129  -999.250000
 3946.2456000 2.5789108276 10.574335098 5.6165494919  -999.250000 9.9097871780  -999.250000
 3946.3980000 2.5655412674 10.474970818 4.9901013374  -999.250000 9.8711547852  -999.250000
 3946.5504000 2.5641279221 10.465740204 4.6093106270  -999.250000 9.8421812057  -999.250000
 3946.7028000 2.5804195404 10.336750984 5.0121273994  -999.250000 9.8194351196  -999.250000
 3946.8552000 2.5971219540 10.340394020 5.7957353592  -999.250000 9.7886629105  -999.250000
 3947.0076000 2.5948781967 10.074311256 6.0656323433  -999.250000 9.6701374054  -999.250000
 3947.1600000 2.5893180370 10.102313995 5.5519218445  -999.250000 9.6667070389  -999.250000
 3947.3124000 2.5873854160 9.9870853424 5.5513734818  -999.250000 9.5937213898  -999.250000
 3947.4648000 2.6011056900 10.034506798 6.0645356178  -999.250000 9.5687274933  -999.250000
 3947.6172000 2.6045238972 9.9398937225 6.4525637627  -999.250000 9.5147619247  -999.250000
 3947.7696000 2.6039159298 9.8992052078 6.3274302483  -999.250000 9.5162973404  -999.250000
 3947.9220000 2.6005735397 9.8694171906 5.6659679413  -999.250000 9.4345531464  -999.250000
 3948.0744000 2.6074607372 9.9495935440 5.1296391487  -999.250000 9.5128278732  -999.250000
 3948.2268000 2.6182217598 9.8506441116 4.9420194626  -999.250000 9.5318422318  -999.250000
 3948.3792000 2.6181943417 9.9844141006 6.0733180046  -999.250000 9.5238294601  -999.250000
 3948.5316000 2.6073219776 9.9207839966 7.2046165466  -999.250000 9.4752330780  -999.250000
 3948.6840000 2.6041388512 10.015441895 7.9091482162  -999.250000 9.5406417847  -999.250000
 3948.8364000 2.6079909801 9.9920225143 7.8310909271  -999.250000 9.5896501541  -999.250000
 3948.9888000 2.6083679199 10.004798889 6.8918499947  -999.250000 9.5852746964  -999.250000
 3949.1412000 2.6043636799 9.9451065063 6.0306668282  -999.250000 9.5550642014  -999.250000
 3949.2936000 2.6125137806 9.9616327286 5.1694841385  -999.250000 9.6193370819  -999.250000
 3949.4460000 2.6210024357 9.9487819672 5.1694841385  -999.250000 9.5931482315  -999.250000
 3949.5984000 2.6176064014 9.9468841553 6.2544074059  -999.250000 9.6630668640  -999.250000
 3949.7508000 2.5960440636 10.070405960 7.3393311501  -999.250000 9.7355518341  -999.250000
 3949.9032000 2.5934660435 10.119784355 7.0260300636  -999.250000 9.7090663910  -999.250000
 3950.0556000 2.6061980724 10.135850906 5.6278038025  -999.250000 9.7778615952  -999.250000
 3950.2080000 2.6304910183 10.274798393 5.6394371986  -999.250000 9.8131361008  -999.250000
 3950.3604000 2.6353881359 10.190283775 7.0492968559  -999.250000 9.8194942474  -999.250000
 3950.5128000 2.6388967037 10.274988174 8.9827346802  -999.250000 9.9179658890  -999.250000
 3950.6652000 2.6303365231 10.342271805 9.5063114166  -999.250000 9.9263305664  -999.250000
 3950.8176000 2.6318910122 10.274814606 9.5063104630  -999.250000 9.9129667282  -999.250000
 3950.9700000 2.6431326866 10.280649185 8.9827327728  -999.250000 9.9424257278  -999.250000
 3951.1224000 2.6240286827 10.234123230 7.8320026398  -999.250000 9.9111690521  -999.250000
 3951.2748000 2.6097726822 10.444232941 7.2048501968  -999.250000 9.9372167587  -999.250000
 3951.4272000 2.5974957943 10.369055748 7.3574614525  -999.250000 9.9276752472  -999.250000
 3951.5796000 2.6141443253 10.232154846 8.1372241974  -999.250000 9.9769029617  -999.250000
 3951.7320000 2.6207399368 10.350708961 8.0206518173  -999.250000 9.9475193024  -999.250000
 3951.8844000 2.6129071712 10.363473892 7.1243166924  -999.250000 9.9340085983  -999.250000
 3952.0368000 2.5975215435 10.155082703 7.2850084305  -999.250000 9.9094114304  -999.250000
 3952.1892000 2.6032619476 10.190064430 8.3420352936  -999.250000 9.8951044083  -999.250000
 3952.3416000 2.6221823692 10.215511322 9.0885829926  -999.250000 9.8545455933  -999.250000
 3952.4940000 2.6480515003 10.182478905 8.6830911636  -999.250000 9.8196706772  -999.250000
 3952.6464000 2.6562390327 10.124706268 8.2775974274  -999.250000 9.8118457794  -999.250000
 3952.7988000 2.6505250931 10.070808411 8.2747745514  -999.250000 9.8079938889  -999.250000
 3952.9512000 2.6386356354 10.050870895 8.3669662476  -999.250000 9.7549734116  -999.250000
 3953.1036000 2.6173298359 10.172754288 7.4848580360  -999.250000 9.8376712799  -999.250000
 3953.2560000 2.6055865288 10.245923996 6.5105595589  -999.250000 9.7949466705  -999.250000
 3953.4084000 2.5952334404 9.9405612946 6.7624301910  -999.250000 9.7133235931  -999.250000
 3953.5608000 2.6021683216 10.132310867 7.9885978699  -999.250000 9.7534952164  -999.250000
 3953.7132000 2.6092514992 10.054892540 9.7461509705  -999.250000 9.6998987198  -999.250000
 3953.8656000 2.6108655930 10.043883324 10.277535439  -999.250000 9.7410249710  -999.250000
 3954.0180000 2.6089046001 10.105267525 9.0857591629  -999.250000 9.7423448563  -999.250000
 3954.1704000 2.6148037910 9.9987621307 7.3625984192  -999.250000 9.7319631577  -999.250000
 3954.3228000 2.6381108761 9.9926099777 5.7916555405  -999.250000 9.6570224762  -999.250000
 3954.4752000 2.6765058041 9.9986419678 5.9438724518  -999.250000 9.6773080826  -999.250000
