# LAS format log file from PETREL
# Project units are specified as depth units
#==================================================================
~Version information
VERS.   2.0:
WRAP.   NO:
#==================================================================
~Well
STRT .m      -0.015270480 :
STOP .m      1245.8090095 :
STEP .m     0.04572000 :
NULL .        -999.250000 :
COMP.           : COMPANY
WELL.  15_9-19 A   : WELL
FLD.            : FIELD
LOC.            : LOCATION
SRVC.           : SERVICE COMPANY
DATE.  2020-08-19 21:46:58   : Log Export Date {yyyy-MM-dd HH:mm:ss}
PROV.           : PROVINCE
UWI.   15_9-19 A   : UNIQUE WELL ID
API.            : API NUMBER
#==================================================================
~Curve
DEPT .m                   : DEPTH
GR .gAPI                  : GR
NPHI .m3/m3               : NPHI
RHOB .g/cm3               : RHOB
RM .ohm.m                 : RM
RT .ohm.m                 : RT
FACIES ._                 : FACIES
~Parameter
#==================================================================
~Ascii
# ...
 823.35620952 36.409999847 0.5099999905 2.1860001087 0.6000000238 0.6000000238  -999.250000
 823.40192952 33.500000000 0.4699999690 2.1653001308 0.6000000238 0.6000000238  -999.250000
 823.44764952 34.669998169 0.4599999785 2.1681001186 0.6000000238 0.6000000238  -999.250000
 823.49336952 37.250000000 0.4699999690 2.1763000488 0.6000000238 0.6000000238  -999.250000
 823.53908952 37.520000458 0.5199999809 2.1988000870 0.6000000238 0.6000000238  -999.250000
 823.58480952 39.279998779 0.5600000024 2.2028999329 0.5000000000 0.5000000000  -999.250000
 823.63052952 34.840000153 0.5500000119 2.1371998787 0.5000000000 0.5000000000  -999.250000
 823.67624952 28.510000229 0.5000000000 2.0381999016 0.5000000000 0.5000000000  -999.250000
 823.72196952 27.469999313 0.5600000024 1.9724000692 0.6000000238 0.6000000238  -999.250000
 823.76768952 26.020000458 0.6000000238 1.9798001051 0.6000000238 0.6000000238  -999.250000
 823.81340952 25.559999466 0.5300000310 2.0246000290 0.6000000238 0.6000000238  -999.250000
 823.85912952 30.979999542 0.5000000000 2.0771000385 0.6000000238 0.6000000238  -999.250000
 823.90484952 36.639999390 0.5199999809 2.1446001530 0.6000000238 0.6000000238  -999.250000
 823.95056952 35.310001373 0.5300000310 2.1893000603 0.6000000238 0.6000000238  -999.250000
 823.99628952 31.770000458 0.6000000238 2.1763000488 0.6000000238 0.6000000238  -999.250000
 824.04200952 30.969999313 0.6100000143 2.1333999634 0.6000000238 0.6000000238  -999.250000
 824.08772952 32.310001373 0.6200000048 2.1356999874 0.6000000238 0.6000000238  -999.250000
 824.13344952 37.400001526 0.7900000215 2.1613998413 0.5000000000 0.6000000238  -999.250000
 824.17916952 42.959999084 0.6999999881 2.1813001633 0.5000000000 0.6000000238  -999.250000
 824.22488952 44.830001831 0.5199999809 2.1847000122 0.5000000000 0.5000000000  -999.250000
 824.27060952 40.549999237 0.4800000191 2.1912000179 0.5000000000 0.5000000000  -999.250000
 824.31632952 37.900001526 0.5000000000 2.1878998280 0.5000000000 0.5000000000  -999.250000
 824.36204952 40.459999084 0.5199999809 2.2008998394 0.5000000000 0.5000000000  -999.250000
 824.40776952 37.049999237 0.6200000048 2.2396001816 0.5000000000 0.5000000000  -999.250000
 824.45348952 30.309999466 0.6100000143 2.1809999943 0.5000000000 0.5000000000  -999.250000
 824.49920952 32.720001221 0.5300000310 2.0561001301 0.5000000000 0.5000000000  -999.250000
 824.54492952 34.750000000 0.5600000024 2.0170998573 0.5000000000 0.5000000000  -999.250000
 824.59064952 37.650001526 0.6800000072 2.1011002064 0.5000000000 0.5000000000  -999.250000
 824.63636952 38.040000916 0.6800000072 2.1138999462 0.5000000000 0.5000000000  -999.250000
 824.68208952 32.490001678 0.6499999762 1.9909000397 0.5000000000 0.5000000000  -999.250000
 824.72780952 30.229999542 0.5699999928 1.9520000219 0.5000000000 0.5000000000  -999.250000
 824.77352952 29.569999695 0.5300000310 2.0355000496 0.5000000000 0.5000000000  -999.250000
 824.81924952 30.870000839 0.4399999976 2.0696001053 0.5000000000 0.5000000000  -999.250000
 824.86496952 35.799999237 0.4000000060 2.0933001041 0.5000000000 0.5000000000  -999.250000
 824.91068952 37.639999390 0.4300000072 2.1306998730 0.5000000000 0.5000000000  -999.250000
 824.95640952 37.740001678 0.4599999785 2.1712999344 0.5000000000 0.5000000000  -999.250000
 825.00212952  -999.250000  -999.250000  -999.250000  -999.250000  -999.250000  -999.250000
 825.04784952 40.630001068 0.5000000000 2.1823000908 0.5000000000 0.5000000000  -999.250000
 825.09356952 42.560001373 0.4800000191 2.1821000576 0.5000000000 0.5000000000  -999.250000
 825.13928952 39.779998779 0.4800000191 2.1830000877 0.5000000000 0.5000000000  -999.250000
 825.18500952 38.810001373 0.5099999905 2.1871001720 0.5000000000 0.5000000000  -999.250000
 825.23072952 38.709999084 0.5199999809 2.1846001148 0.5000000000 0.5000000000  -999.250000
 825.27644952 33.680000305 0.5199999809 2.1840000153 0.5000000000 0.5000000000  -999.250000
 825.32216952 30.930000305 0.5199999809 2.1736001968 0.5000000000 0.5000000000  -999.250000
 825.36788952 29.579999924 0.5000000000 2.2809998989 0.5000000000 0.5000000000  -999.250000
 825.41360952 30.059999466 0.4499999881 2.4078998566 0.5000000000 0.5000000000  -999.250000
 825.45932952 32.299999237 0.4800000191 2.3080000877 0.5000000000 0.5000000000  -999.250000
 825.50504952 35.909999847 0.4599999785 2.1993999481 0.5000000000 0.5000000000  -999.250000
 825.55076952 39.669998169 0.4599999785 2.1618998051 0.5000000000 0.5000000000  -999.250000
 825.59648952 41.939998627 0.4800000191 2.1531999111 0.5000000000 0.5000000000  -999.250000
 825.64220952 41.740001678 0.4800000191 2.1719999313 0.5000000000 0.5000000000  -999.250000
 825.68792952 39.830001831 0.4900000095 2.2086000443 0.5000000000 0.5000000000  -999.250000
 825.73364952 37.500000000 0.4599999785 2.2423999310 0.5000000000 0.5000000000  -999.250000
 825.77936952 32.279998779 0.5099999905 2.3868999481 0.5000000000 0.5000000000  -999.250000
 825.82508952 26.329999924 0.6599999666 2.4883000851 0.5000000000 0.5000000000  -999.250000
 825.87080952 26.979999542 0.7699999809 2.3958001137 0.5000000000 0.5000000000  -999.250000
 825.91652952 28.420000076 0.6299999952 2.2297999859 0.5000000000 0.5000000000  -999.250000
 825.96224952 30.750000000 0.5000000000 2.1045000553 0.5000000000 0.5000000000  -999.250000
 826.00796952 33.250000000 0.4900000095 2.1219999790 0.5000000000 0.5000000000  -999.250000
 826.05368952 34.049999237 0.5800000429 2.1050000191 0.5000000000 0.5000000000  -999.250000
 826.09940952 32.549999237 0.7400000095 1.9624999762 0.5000000000 0.5000000000  -999.250000
 826.14512952 26.329999924 0.7099999785 1.8504999876 0.5000000000 0.5000000000  -999.250000
 826.19084952 23.340000153 0.5900000334 1.8156999350 0.5000000000 0.5000000000  -999.250000
 826.23656952 23.489999771 0.5900000334 1.8454999924 0.6000000238 0.6000000238  -999.250000
 826.28228952 24.180000305 0.6399999857 1.9093000889 0.6000000238 0.6000000238  -999.250000
 826.32800952 27.370000839 0.5600000024 2.0116999149 0.6000000238 0.6000000238  -999.250000
 826.37372952 33.799999237 0.4699999690 2.1054999828 0.6000000238 0.6000000238  -999.250000
 826.41944952 42.069999695 0.4699999690 2.1686000824 0.6000000238 0.6000000238  -999.250000
 826.46516952 43.799999237 0.5099999905 2.1988000870 0.6000000238 0.6000000238  -999.250000
 826.51088952 39.430000305 0.5199999809 2.2367000580 0.6000000238 0.6000000238  -999.250000
 826.55660952 39.020000458 0.4699999690 2.2486999035 0.6000000238 0.6000000238  -999.250000
 826.60232952 43.130001068 0.4499999881 2.1701998711 0.5000000000 0.6000000238  -999.250000
 826.64804952 42.279998779 0.4099999964 2.1338000298 0.5000000000 0.6000000238  -999.250000
 826.69376952 39.409999847 0.3900000155 2.2243001461 0.5000000000 0.6000000238  -999.250000
 826.73948952 39.310001373 0.4300000072 2.2123000622 0.5000000000 0.5000000000  -999.250000
 826.78520952 40.349998474 0.5099999905 2.2058000565 0.5000000000 0.5000000000  -999.250000
 826.83092952 38.819999695 0.5199999809 2.2402999401 0.5000000000 0.5000000000  -999.250000
 826.87664952 37.220001221 0.4800000191 2.2090001106 0.5000000000 0.5000000000  -999.250000
 826.92236952 36.409999847 0.4599999785 2.1796998978 0.5000000000 0.5000000000  -999.250000
 826.96808952 34.919998169 0.4699999690 2.2054998875 0.5000000000 0.5000000000  -999.250000
 827.01380952 35.099998474 0.4800000191 2.2288000584 0.5000000000 0.5000000000  -999.250000
 827.05952952 35.990001678 0.4800000191 2.2168998718 0.5000000000 0.5000000000  -999.250000
 827.10524952 35.409999847 0.4900000095 2.1893000603 0.5000000000 0.5000000000  -999.250000
 827.15096952 32.130001068 0.5300000310 2.1824998856 0.5000000000 0.5000000000  -999.250000
 827.19668952 29.090000153 0.5500000119 2.1861999035 0.5000000000 0.5000000000  -999.250000
 827.24240952 29.309999466 0.5500000119 2.1465001106 0.5000000000 0.5000000000  -999.250000
 827.28812952 33.599998474 0.5500000119 2.1266999245 0.5000000000 0.5000000000  -999.250000
