# LAS format log file from PETREL
# Project units are specified as depth units
#==================================================================
~Version information
VERS.   2.0:
WRAP.   NO:
#==================================================================
~Well
STRT .m      89.916000000 :
STOP .m      1158.3924000 :
STEP .m     0.15240000 :
NULL .        -999.250000 :
COMP.           : COMPANY
WELL.  Keller 'B' No_ 1   : WELL
FLD.            : FIELD
LOC.            : LOCATION
SRVC.           : SERVICE COMPANY
DATE.  2020-08-19 21:46:58   : Log Export Date {yyyy-MM-dd HH:mm:ss}
PROV.           : PROVINCE
UWI.   Keller 'B' No_ 1   : UNIQUE WELL ID
API.            : API NUMBER
#==================================================================
~Curve
DEPT .m                   : DEPTH
GR .gAPI                  : GR
NPHI .m3/m3               : NPHI
RHOB .g/cm3               : RHOB
RT .ohm.m                 : RT
RM .ohm.m                 : RM
FACIES ._                 : FACIES
~Parameter
#==================================================================
~Ascii
# ...
 368.35080000 56.443599701 0.2811869979 1.3740999699 2.5446000099 2.1965999603  -999.250000
 368.50320000 54.765300751 0.3122340143 1.3803000450 2.5969998837 2.2467000484  -999.250000
 368.65560000 55.026901245 0.3610300124 1.3903000355 2.6614999771 2.2969999313  -999.250000
 368.80800000 59.511699677 0.3959769905 1.4039000273 2.7632999420 2.3406000137  -999.250000
 368.96040000 64.096603394 0.4005989730 1.4199999571 2.8931999207 2.3738999367  -999.250000
 369.11280000 63.330898285 0.3791809976 1.4375000000 3.0116000175 2.3961000443  -999.250000
 369.26520000 59.853298187 0.3488560021 1.4562000036 3.0827999115 2.4079000950  -999.250000
 369.41760000 60.784599304 0.3306579888 1.4756999016 3.0954999924 2.4112999439  -999.250000
 369.57000000 66.935798645 0.3335489929 1.4963999987 3.0585000515 2.4079999924  -999.250000
 369.72240000 70.680603027 0.3552149832 1.5200999975 2.9969999790 2.3998999596  -999.250000
 369.87480000 67.205596924 0.3546480238 1.5487999916 2.9388000965 2.3882999420  -999.250000
 370.02720000 61.757499695 0.3122510016 1.5824999809 2.8982000351 2.3731000423  -999.250000
 370.17960000 60.920600891 0.2876160145 1.6195999384 2.8770999908 2.3529000282  -999.250000
 370.33200000 61.138599396 0.3124389946 1.6586999893 2.8696000576 2.3257000446  -999.250000
 370.48440000 60.164299011 0.3677439988 1.6988000870 2.8615999222 2.2894999981  -999.250000
 370.63680000 60.528099060 0.3928169906 1.7383000851 2.8394000530 2.2441999912  -999.250000
 370.78920000 62.877101898 0.3790140152 1.7740999460 2.7955000401 2.1916000843  -999.250000
 370.94160000 67.707199097 0.3652640283 1.8044999838 2.7279999256 2.1352999210  -999.250000
 371.09400000 71.846603394 0.3668850064 1.8314000368 2.6456999779 2.0799000263  -999.250000
 371.24640000 70.928703308 0.3708919883 1.8590999842 2.5680000782 2.0309000015  -999.250000
 371.39880000 65.529502869 0.3712099791 1.8910999298 2.5106000900 1.9929000139  -999.250000
 371.55120000 61.273799896 0.3792929947 1.9286999702 2.4777998924 1.9695999622  -999.250000
 371.70360000 61.938999176 0.3967219889 1.9694999456 2.4644000530 1.9622999430  -999.250000
 371.85600000 64.439201355 0.4184390008 2.0085000992 2.4623999596 1.9704999924  -999.250000
 372.00840000 65.436401367 0.4254429936 2.0409998894 2.4732999802 1.9919999838  -999.250000
 372.16080000 66.133300781 0.3851679862 2.0657000542 2.5069000721 2.0232999325  -999.250000
 372.31320000 68.536003113 0.3308980167 2.0845000744 2.5662000179 2.0601999760  -999.250000
 372.46560000 69.933601379 0.3123089969 2.1003000736 2.6412000656 2.0980000496  -999.250000
 372.61800000 67.516502380 0.3143830001 2.1140999794 2.7151999474 2.1324999332  -999.250000
 372.77040000 64.211700439 0.3241529763 2.1238000393 2.7730998993 2.1603000164  -999.250000
 372.92280000 65.104698181 0.3571780026 2.1278998852 2.8083999157 2.1796998978  -999.250000
 373.07520000 66.258598328 0.4142969847 2.1286001205 2.8252000809 2.1907000542  -999.250000
 373.22760000 61.667198181 0.4362779856 2.1296999454 2.8303999901 2.1944000721  -999.250000
 373.38000000 55.502899170 0.3950090110 2.1315000057 2.8269999027 2.1926999092  -999.250000
 373.53240000 53.375301361 0.3423949778 2.1308999062 2.8145999908 2.1879000664  -999.250000
 373.68480000 54.554901123 0.3197529912 2.1254999638 2.7948000431 2.1823999882  -999.250000
 373.83720000 57.396400452 0.3190419972 2.1166999340 2.7718000412 2.1789999008  -999.250000
 373.98960000 61.736900330 0.3280960023 2.1066000462 2.7488000393 2.1796998978  -999.250000
 374.14200000 64.188003540 0.3459909856 2.0963997841 2.7260999680 2.1858000755  -999.250000
 374.29440000 63.181999207 0.3813130260 2.0861001015 2.7053999901 2.1968998909  -999.250000
 374.44680000 61.278499603 0.4159030020 2.0745000839 2.6898000240 2.2111001015  -999.250000
 374.59920000 61.652698517 0.4206710160 2.0590000153 2.6772000790 2.2262001038  -999.250000
 374.75160000 61.828998566 0.3923669755 2.0385000706 2.6663999557 2.2406001091  -999.250000
 374.90400000 60.618000031 0.3463949859 2.0185999870 2.6656000614 2.2553000450  -999.250000
 375.05640000 62.197799683 0.3197219968 2.0111000538 2.6860001087 2.2736999989  -999.250000
 375.20880000 64.999496460 0.3148950040 2.0243000984 2.7304999828 2.3004999161  -999.250000
 375.36120000 65.580299377 0.3081469834 2.0551998615 2.7892999649 2.3387999535  -999.250000
 375.51360000 61.849098206 0.2931300104 2.0891001225 2.8473999500 2.3877999783  -999.250000
 375.66600000 56.413200378 0.2813340127 2.1111001968 2.8968999386 2.4423000813  -999.250000
 375.81840000 55.064098358 0.2843190134 2.1181001663 2.9423000813 2.4944999218  -999.250000
 375.97080000 55.844600677 0.3098320067 2.1168000698 2.9944000244 2.5373001099  -999.250000
 376.12320000 54.113700867 0.3363929987 2.1115000248 3.0571999550 2.5662000179  -999.250000
 376.27560000 52.584800720 0.3326150179 2.1023998260 3.1215999126 2.5804998875  -999.250000
 376.42800000 56.686500549 0.3181030154 2.0911002159 3.1717998981 2.5815000534  -999.250000
 376.58040000 63.304100037 0.3133379817 2.0817999840 3.1930000782 2.5713999271  -999.250000
 376.73280000 64.883903503 0.3176810145 2.0769000053 3.1772999763 2.5522999763  -999.250000
 376.88520000 62.006698608 0.3330099881 2.0741999149 3.1280000210 2.5257000923  -999.250000
 377.03760000 59.324501038 0.3642250001 2.0688998699 3.0613000393 2.4934000969  -999.250000
 377.19000000 58.542400360 0.3875350058 2.0586001873 2.9981000423 2.4574999809  -999.250000
 377.34240000 58.913501740 0.3715129793 2.0439999104 2.9505999088 2.4205000401  -999.250000
 377.49480000 56.765998840 0.3348450065 2.0264000893 2.9179000854 2.3849000931  -999.250000
 377.64720000 53.417499542 0.3147740066 2.0076000690 2.8928000927 2.3529000282  -999.250000
 377.79960000 51.974899292 0.3172789812 1.9918000698 2.8706998825 2.3259999752  -999.250000
 377.95200000 50.632900238 0.3210240304 1.9840999842 2.8547999859 2.3050000668  -999.250000
 378.10440000 49.387100220 0.3182969987 1.9876999855 2.8513000011 2.2902998924  -999.250000
 378.25680000 49.493999481 0.3278259933 2.0020000935 2.8599998951 2.2818999290  -999.250000
 378.40920000 50.828098297 0.3570119739 2.0221998692 2.8743000031 2.2804999352  -999.250000
 378.56160000 52.440299988 0.3813570142 2.0411000252 2.8910999298 2.2869999409  -999.250000
 378.71400000 52.992900848 0.3772689700 2.0541999340 2.9112000465 2.3029000759  -999.250000
 378.86640000 54.515899658 0.3682960272 2.0616002083 2.9386000633 2.3285000324  -999.250000
 379.01880000 57.482601166 0.3700050116 2.0650000572 2.9784998894 2.3605999947  -999.250000
 379.17120000 58.690601349 0.3689730167 2.0651998520 3.0148000717 2.3908998966  -999.250000
 379.32360000 55.076801300 0.3599720001 2.0622999668 3.0088999271 2.4052999020  -999.250000
 379.47600000 48.266300201 0.3491140008 2.0553998947 2.9347000122 2.3873999119  -999.250000
 379.62840000 42.236198425 0.3412179947 2.0434000492 2.8029999733 2.3248999119  -999.250000
 379.78080000 39.434200287 0.3403919935 2.0278000832 2.6452000141 2.2177000046  -999.250000
 379.93320000 41.382400513 0.3482109904 2.0125999451 2.4846999645 2.0794999599  -999.250000
 380.08560000 45.180698395 0.3675210178 2.0018999577 2.3255000114 1.9315999746  -999.250000
 380.23800000 46.747898102 0.3809999824 1.9990999699 2.1645998955 1.7942999601  -999.250000
 380.39040000 45.759201050 0.3606010079 2.0058000088 2.0072000027 1.6814999580  -999.250000
 380.54280000 46.318801880 0.3169440031 2.0200998783 1.8698999882 1.6000000238  -999.250000
 380.69520000 49.107398987 0.2851260006 2.0371999741 1.7710000277 1.5509999990  -999.250000
 380.84760000 48.183399200 0.2792469859 2.0523998737 1.7173000574 1.5325000286  -999.250000
 381.00000000 44.235401154 0.2923949957 2.0603001118 1.6995999813 1.5403000116  -999.250000
 381.15240000 42.948101044 0.3127729893 2.0550000668 1.7028000355 1.5686000586  -999.250000
 381.30480000 44.990299225 0.3239289820 2.0362999439 1.7187000513 1.6117000580  -999.250000
 381.45720000 47.102901459 0.3148770034 2.0130000114 1.7504999638 1.6627999544  -999.250000
