# LAS format log file from PETREL
# Project units are specified as depth units
#==================================================================
~Version information
VERS.   2.0:
WRAP.   NO:
#==================================================================
~Well
STRT .m      89.916000000 :
STOP .m      1158.3924000 :
STEP .m     0.15240000 :
NULL .        -999.250000 :
COMP.           : COMPANY
WELL.  Keller 'B' No_ 1   : WELL
FLD.            : FIELD
LOC.            : LOCATION
SRVC.           : SERVICE COMPANY
DATE.  2020-08-19 21:46:58   : Log Export Date {yyyy-MM-dd HH:mm:ss}
PROV.           : PROVINCE
UWI.   Keller 'B' No_ 1   : UNIQUE WELL ID
API.            : API NUMBER
#==================================================================
~Curve
DEPT .m                   : DEPTH
GR .gAPI                  : GR
NPHI .m3/m3               : NPHI
RHOB .g/cm3               : RHOB
RT .ohm.m                 : RT
RM .ohm.m                 : RM
FACIES ._                 : FACIES
~Parameter
#==================================================================
~Ascii
# ...
 1071.0672000 35.602401733 0.0161179993 2.6925001144 69.126098633 89.891998291  -999.250000
 1071.2196000 39.359298706 0.0187539998 2.6838998795 62.772300720 83.399299622  -999.250000
 1071.3720000 43.900398254 0.0218420010 2.6765999794 55.814399719 74.686500549  -999.250000
 1071.5244000 48.970298767 0.0246649999 2.6742999554 49.824001312 64.588600159  -999.250000
 1071.6768000 56.545700073 0.0279440004 2.6765999794 45.227401733 54.087200165  -999.250000
 1071.8292000 68.076499939 0.0320379995 2.6809999943 41.656600952 44.050098419  -999.250000
 1071.9816000 80.964897156 0.0348060019 2.6851000786 38.050098419 35.150001526  -999.250000
 1072.1340000 94.529502869 0.0366639979 2.6858000755 33.478900909 27.818799973  -999.250000
 1072.2864000 109.59950256 0.0422540009 2.6758999825 28.191799164 22.198200226  -999.250000
 1072.4388000 127.33650208 0.0580659993 2.6416001320 23.332500458 18.174800873  -999.250000
 1072.5912000 158.93429565 0.0997379944 2.5734000206 19.817899704 15.501799583  -999.250000
 1072.7436000 216.43910217 0.1793000102 2.4888000488 17.756900787 13.919899940  -999.250000
 1072.8960000 275.82659912 0.2274270058 2.4270000458 16.752500534 13.218299866  -999.250000
 1073.0484000 282.52731323 0.1367750019 2.4163999557 16.403900146 13.228099823  -999.250000
 1073.2008000 217.73100281 0.0727190003 2.4590001106 16.412599564 13.739700317  -999.250000
 1073.3532000 131.01679993 0.0450850017 2.5331001282 16.370500565 14.336899757  -999.250000
 1073.5056000 72.360298157 0.0369290002 2.5966000557 15.809399605 14.296400070  -999.250000
 1073.6580000 45.888099670 0.0408199988 2.5976998806 14.428799629 13.012000084  -999.250000
 1073.8104000 39.427398682 0.0558359995 2.5111999512 12.275500298 10.755999565  -999.250000
 1073.9628000 46.467998505 0.0867070034 2.3770000935 9.9375000000 8.4045000076  -999.250000
 1074.1152000 61.668098450 0.1325359941 2.2685000896 7.9583997726 6.5222001076  -999.250000
 1074.2676000 77.170898438 0.1981520057 2.2197999954 6.4298000336 5.1954998970  -999.250000
 1074.4200000 85.810501099 0.2569020092 2.2193999290 5.2803001404 4.3119001389  -999.250000
 1074.5724000 88.761001587 0.2906749845 2.2451000214 4.4288997650 3.7411999702  -999.250000
 1074.7248000 91.473602295 0.3146129847 2.2823998928 3.8071000576 3.3870999813  -999.250000
 1074.8772000 92.545196533 0.3197720051 2.3208000660 3.3833999634 3.1875998974  -999.250000
 1075.0296000 91.641998291 0.3127210140 2.3471000195 3.1384999752 3.1050000191  -999.250000
 1075.1820000 92.448196411 0.3068519831 2.3536999226 3.0429000854 3.1157999039  -999.250000
 1075.3344000 94.560501099 0.2962940037 2.3561999798 3.0566999912 3.2037000656  -999.250000
 1075.4868000 96.734298706 0.2709400058 2.3808999062 3.1414999962 3.3557000160  -999.250000
 1075.6392000 100.70220184 0.2377109975 2.4356000423 3.2813000679 3.5643000603  -999.250000
 1075.7916000 104.69480133 0.2041900009 2.5021998882 3.4895000458 3.8333001137  -999.250000
 1075.9440000 102.70529938 0.1714419872 2.5571999550 3.7985000610 4.1835999489  -999.250000
 1076.0964000 93.895401001 0.1277900040 2.5931000710 4.2476000786 4.6567001343  -999.250000
 1076.2488000 82.075599670 0.0852229968 2.6161000729 4.8590002060 5.3147001266  -999.250000
 1076.4012000 72.630401611 0.0554680005 2.6333000660 5.6121997833 6.2417998314  -999.250000
 1076.5536000 69.818298340 0.0407170020 2.6476001740 6.4847002029 7.5471000671  -999.250000
 1076.7060000 67.186096191 0.0334569998 2.6581001282 7.5109000206 9.3598003387  -999.250000
 1076.8584000 59.016998291 0.0311919991 2.6630001068 8.7779998779 11.793600082  -999.250000
 1077.0108000 53.148300171 0.0329190008 2.6626999378 10.457300186 14.835599899  -999.250000
 1077.1632000 52.774398804 0.0379510000 2.6600999832 12.726699829 18.154199600  -999.250000
 1077.3156000 51.389999390 0.0450500026 2.6565001011 15.322099686 21.036899567  -999.250000
 1077.4680000 48.505500793 0.0505550019 2.6519999504 17.424699783 22.814300537  -999.250000
 1077.6204000 50.976001740 0.0510120019 2.6478998661 18.638200760 23.459699631  -999.250000
 1077.7728000 59.147201538 0.0488999970 2.6466000080 19.329299927 23.516000748  -999.250000
 1077.9252000 64.807998657 0.0464349985 2.6475000381 19.917400360 23.543300629  -999.250000
 1078.0776000 62.581100464 0.0431529991 2.6471002102 20.539100647 23.822999954  -999.250000
 1078.2300000 56.890598297 0.0402670018 2.6447999477 21.154800415 24.393499374  -999.250000
 1078.3824000 54.747600555 0.0386170000 2.6443998814 21.744699478 25.196599960  -999.250000
 1078.5348000 57.182399750 0.0373470001 2.6498000622 22.489000320 26.206499100  -999.250000
 1078.6872000 59.482799530 0.0360289998 2.6608998775 23.618900299 27.476800919  -999.250000
 1078.8396000 56.275699615 0.0348390006 2.6735000610 25.120500565 29.089000702  -999.250000
 1078.9920000 49.265499115 0.0337800011 2.6836001873 26.877099991 31.048799515  -999.250000
 1079.1444000 44.907501221 0.0330989994 2.6896998882 28.778099060 33.198398590  -999.250000
 1079.2968000 43.569301605 0.0330800004 2.6928000450 30.721799850 35.154399872  -999.250000
 1079.4492000 43.593700409 0.0335199982 2.6940000057 32.933998108 36.265800476  -999.250000
 1079.6016000 45.260398865 0.0343430005 2.6940000057 35.452201843 35.670200348  -999.250000
 1079.7540000 46.684501648 0.0369510017 2.6931998730 36.512901306 32.742900848  -999.250000
 1079.9064000 45.929401398 0.0438219979 2.6895000935 33.619598389 27.881500244  -999.250000
 1080.0588000 46.091899872 0.0575810000 2.6753001213 27.538099289 22.507299423  -999.250000
 1080.2112000 54.449100494 0.0784810036 2.6428000927 21.370100021 17.934400558  -999.250000
 1080.3636000 79.142196655 0.0966439992 2.5999999046 17.071899414 14.650699615  -999.250000
 1080.5160000 113.58959961 0.1102569997 2.5710999966 14.801500320 12.538599968  -999.250000
 1080.6684000 130.12150574 0.1134629995 2.5716001987 13.769399643 11.265899658  -999.250000
 1080.8208000 111.89299774 0.0955389962 2.5956001282 12.943900108 10.456299782  -999.250000
 1080.9732000 77.917800903 0.0778940022 2.6233999729 11.681799889 9.7371997833  -999.250000
 1081.1256000 55.562099457 0.0788640007 2.6322000027 10.064399719 8.8388004303  -999.250000
 1081.2780000 51.181598663 0.1051019952 2.6138000488 8.5389003754 7.7321000099  -999.250000
 1081.4304000 59.020900726 0.1595669985 2.5804998875 7.3619999886 6.5970001221  -999.250000
 1081.5828000 71.292999268 0.2450289875 2.5456998348 6.4952001572 5.6254000664  -999.250000
 1081.7352000 81.594596863 0.2896600068 2.5065000057 5.8302001953 4.9067001343  -999.250000
 1081.8876000 88.358596802 0.3009299934 2.4500000477 5.3071999550 4.4486999512  -999.250000
 1082.0400000 90.995300293 0.2765940130 2.3782000542 4.9230999947 4.2308001518  -999.250000
 1082.1924000 88.401702881 0.2455759943 2.3186998367 4.7122998238 4.2362999916  -999.250000
 1082.3448000 79.710197449 0.2104640007 2.3015000820 4.6796998978 4.4636998177  -999.250000
 1082.4972000 65.242103577 0.1617490053 2.3338999748 4.8064999580 4.9270000458  -999.250000
 1082.6496000 51.274299622 0.1238850057 2.4041998386 5.1079998016 5.6525001526  -999.250000
 1082.8020000 44.322299957 0.1013720036 2.4881000519 5.6480998993 6.6756000519  -999.250000
 1082.9544000 41.957599640 0.0853089988 2.5587999821 6.5352001190 8.0429000854  -999.250000
 1083.1068000 39.292900085 0.0701839998 2.6041998863 7.9446001053 9.8274002075  -999.250000
 1083.2592000 36.812400818 0.0573890023 2.6293001175 10.121000290 12.145500183  -999.250000
 1083.4116000 35.626800537 0.0490479991 2.6431000233 13.179699898 15.159700394  -999.250000
 1083.5640000 34.979000092 0.0444420017 2.6503000259 16.704900742 19.045000076  -999.250000
 1083.7164000 35.423099518 0.0421280004 2.6519999504 19.955699921 23.920799255  -999.250000
 1083.8688000 36.732101440 0.0409840010 2.6488001347 22.800199509 29.786100388  -999.250000
 1084.0212000 38.797698975 0.0396800004 2.6442999840 25.827199936 36.523601532  -999.250000
 1084.1736000 40.643299103 0.0363229997 2.6426000595 29.603900909 43.998001099  -999.250000
