# LAS format log file from PETREL
# Project units are specified as depth units
#==================================================================
~Version information
VERS.   2.0:
WRAP.   NO:
#==================================================================
~Well
STRT .m      89.916000000 :
STOP .m      1158.3924000 :
STEP .m     0.15240000 :
NULL .        -999.250000 :
COMP.           : COMPANY
WELL.  Keller 'B' No_ 1   : WELL
FLD.            : FIELD
LOC.            : LOCATION
SRVC.           : SERVICE COMPANY
DATE.  2020-08-19 21:46:58   : Log Export Date {yyyy-MM-dd HH:mm:ss}
PROV.           : PROVINCE
UWI.   Keller 'B' No_ 1   : UNIQUE WELL ID
API.            : API NUMBER
#==================================================================
~Curve
DEPT .m                   : DEPTH
GR .gAPI                  : GR
NPHI .m3/m3               : NPHI
RHOB .g/cm3               : RHOB
RT .ohm.m                 : RT
RM .ohm.m                 : RM
FACIES ._                 : FACIES
~Parameter
#==================================================================
~Ascii
# ...
 580.49160000 59.407699585 0.1333680004 1.5300999880 4.4981999397 4.2181000710  -999.250000
 580.64400000 60.702400208 0.1514959931 1.5343999863 4.5858998299 4.2056999207  -999.250000
 580.79640000 61.105998993 0.1757619977 1.5284000635 4.6198000908 4.0328001976  -999.250000
 580.94880000 61.343299866 0.2149460018 1.5125000477 4.5570998192 3.7546999454  -999.250000
 581.10120000 61.769001007 0.2648769915 1.4909000397 4.3133001328 3.4351000786  -999.250000
 581.25360000 65.507102966 0.3040780127 1.4688999653 3.9045999050 3.1208999157  -999.250000
 581.40600000 73.877502441 0.3167299926 1.4496999979 3.4430999756 2.8394000530  -999.250000
 581.55840000 80.236503601 0.3079249859 1.4341000319 3.0243999958 2.6038000584  -999.250000
 581.71080000 81.050201416 0.3079409897 1.4214000702 2.6856000423 2.4172999859  -999.250000
 581.86320000 81.064498901 0.3146429956 1.4105000496 2.4249999523 2.2769000530  -999.250000
 582.01560000 81.420097351 0.3148889840 1.4011999369 2.2323999405 2.1772000790  -999.250000
 582.16800000 81.188102722 0.3178550005 1.3937000036 2.1010000706 2.1131000519  -999.250000
 582.32040000 80.252601624 0.3330820203 1.3878000975 2.0246999264 2.0815000534  -999.250000
 582.47280000 79.162101746 0.3362620175 1.3826999664 1.9960999489 2.0817999840  -999.250000
 582.62520000 80.845901489 0.3120740056 1.3786000013 2.0097999573 2.1152999401  -999.250000
 582.77760000 88.101303101 0.2949199975 1.3795999289 2.0646998882 2.1840999126  -999.250000
 582.93000000 97.078796387 0.2905319929 1.3919000626 2.1554999352 2.2894999981  -999.250000
 583.08240000 98.325897217 0.2777920067 1.4170999527 2.2730000019 2.4326000214  -999.250000
 583.23480000 92.670600891 0.2574990094 1.4491000175 2.4203999043 2.6140999794  -999.250000
 583.38720000 88.503799438 0.2392009944 1.4789999723 2.6108000278 2.8355000019  -999.250000
 583.53960000 88.817100525 0.2200420052 1.5033999681 2.8492000103 3.0961999893  -999.250000
 583.69200000 87.092102051 0.1994470060 1.5260000229 3.1349000931 3.3887999058  -999.250000
 583.84440000 75.463798523 0.1824799925 1.5519000292 3.4502000809 3.6935999393  -999.250000
 583.99680000 61.753200531 0.1695899963 1.5815000534 3.7530000210 3.9793999195  -999.250000
 584.14920000 57.569599152 0.1692270041 1.6093000174 4.0279998779 4.2137999535  -999.250000
 584.30160000 59.580299377 0.1956830025 1.6299999952 4.3064999580 4.3761000633  -999.250000
 584.45400000 62.465698242 0.2414480001 1.6425999403 4.5859999657 4.4619998932  -999.250000
 584.60640000 67.263496399 0.2699320018 1.6490999460 4.7989997864 4.4807000160  -999.250000
 584.75880000 72.298103333 0.2938359976 1.6499999762 4.8878998756 4.4512000084  -999.250000
 584.91120000 77.544898987 0.2981370091 1.6450999975 4.8579998016 4.3987002373  -999.250000
 585.06360000 82.790702820 0.2645350099 1.6360000372 4.7734999657 4.3488998413  -999.250000
 585.21600000 81.136497498 0.2064080089 1.6275000572 4.7046999931 4.3211998940  -999.250000
 585.36840000 73.341003418 0.1626279950 1.6274000406 4.6725001335 4.3206000328  -999.250000
 585.52080000 67.699600220 0.1455090046 1.6405999660 4.6690998077 4.3337998390  -999.250000
 585.67320000 66.119102478 0.1360149980 1.6646999121 4.6784000397 4.3280000687  -999.250000
 585.82560000 65.143997192 0.1277469993 1.6908999681 4.6589999199 4.2592000961  -999.250000
 585.97800000 61.449100494 0.1310250014 1.7114000320 4.5640997887 4.0914998055  -999.250000
 586.13040000 55.248500824 0.1591240019 1.7218999863 4.3621997833 3.8222999573  -999.250000
 586.28280000 51.891300201 0.2204760015 1.7195999622 4.0492000580 3.4890000820  -999.250000
 586.43520000 61.106300354 0.2679859996 1.7019000053 3.6779000759 3.1480998993  -999.250000
 586.58760000 81.735603333 0.2923980057 1.6690999269 3.3280000687 2.8455998898  -999.250000
 586.74000000 97.981399536 0.3024930060 1.6281999350 3.0441999435 2.6045999527  -999.250000
 586.89240000 100.40889740 0.3131510019 1.5881999731 2.8227999210 2.4291999340  -999.250000
 587.04480000 93.500297546 0.3201860189 1.5546998978 2.6333999634 2.3141999245  -999.250000
 587.19720000 82.999099731 0.3091729879 1.5286999941 2.4640998840 2.2506999969  -999.250000
 587.34960000 77.507003784 0.2947279811 1.5098000765 2.3471999168 2.2283999920  -999.250000
 587.50200000 80.107101440 0.2895219922 1.4974999428 2.3127000332 2.2337000370  -999.250000
 587.65440000 83.627403259 0.2922529876 1.4905999899 2.3359000683 2.2469000816  -999.250000
 587.80680000 85.616401672 0.2899320126 1.4874000549 2.3527998924 2.2432999611  -999.250000
 587.95920000 88.899101257 0.2769230008 1.4866999388 2.3152999878 2.2021000385  -999.250000
 588.11160000 91.239700317 0.2725200057 1.4888000488 2.2179000378 2.1194000244  -999.250000
 588.26400000 87.679100037 0.2851260006 1.4927999973 2.0973000526 2.0127000809  -999.250000
 588.41640000 82.644203186 0.2974439859 1.4960999489 2.0023999214 1.9111000299  -999.250000
 588.56880000 81.423896790 0.2926339805 1.4975999594 1.9552999735 1.8389999866  -999.250000
 588.72120000 80.555297852 0.2712500095 1.4998999834 1.9435000420 1.8079999685  -999.250000
 588.87360000 76.485000610 0.2565070093 1.5074000359 1.9371000528 1.8162000179  -999.250000
 589.02600000 70.627998352 0.2657800019 1.5214999914 1.9064999819 1.8501000404  -999.250000
 589.17840000 68.148002625 0.2846179903 1.5403000116 1.8472000360 1.8889000416  -999.250000
 589.33080000 71.220596313 0.2925089896 1.5605000257 1.7911000252 1.9121999741  -999.250000
 589.48320000 75.010498047 0.2888019979 1.5784000158 1.7739000320 1.9097000360  -999.250000
 589.63560000 77.378303528 0.2893510163 1.5909999609 1.7999000549 1.8847999573  -999.250000
 589.78800000 80.809898376 0.3012380004 1.5978000164 1.8444999456 1.8503999710  -999.250000
 589.94040000 85.948196411 0.3134489954 1.6033000946 1.8761999607 1.8207000494  -999.250000
 590.09280000 91.850700378 0.3180450201 1.6163001060 1.8750000000 1.8064999580  -999.250000
 590.24520000 97.266998291 0.3160539865 1.6454999447 1.8459000587 1.8128999472  -999.250000
 590.39760000 97.519401550 0.3023850024 1.6933000088 1.8112000227 1.8402999640  -999.250000
 590.55000000 89.526397705 0.2773289979 1.7533000708 1.7946000099 1.8865000010  -999.250000
 590.70240000 82.130500793 0.2590550184 1.8133000135 1.8133000135 1.9487999678  -999.250000
 590.85480000 79.757896423 0.2562829852 1.8603000641 1.8756999969 2.0267999172  -999.250000
 591.00720000 78.214401245 0.2597570121 1.8868000507 1.9874999523 2.1233999729  -999.250000
 591.15960000 75.835998535 0.2684589922 1.8939000368 2.1512999535 2.2421000004  -999.250000
 591.31200000 73.526199341 0.2841500044 1.8895999193 2.3538999557 2.3812999725  -999.250000
 591.46440000 72.122001648 0.2982159853 1.8809000254 2.5603001118 2.5271000862  -999.250000
 591.61680000 73.210601807 0.2984429896 1.8698000908 2.7183001041 2.6517000198  -999.250000
 591.76920000 75.186897278 0.2814930081 1.8553000689 2.7932000160 2.7237999439  -999.250000
 591.92160000 76.113403320 0.2547549903 1.8371000290 2.8090999126 2.7295999527  -999.250000
 592.07400000 77.996101379 0.2289109975 1.8171999454 2.8203001022 2.6842000484  -999.250000
 592.22640000 82.811798096 0.2242429852 1.8013000488 2.8482000828 2.6217999458  -999.250000
 592.37880000 89.546897888 0.2355670035 1.7964999676 2.8721001148 2.5782999992  -999.250000
 592.53120000 94.148696899 0.2349220067 1.8066999912 2.8771998882 2.5818998814  -999.250000
 592.68360000 94.913696289 0.2252240032 1.8310999870 2.8872001171 2.6535999775  -999.250000
 592.83600000 93.026802063 0.2178930044 1.8695000410 2.9421999454 2.8092999458  -999.250000
 592.98840000 89.802299500 0.2125250101 1.9266999960 3.0680999756 3.0580999851  -999.250000
 593.14080000 83.875099182 0.2081039995 2.0086998940 3.2678999901 3.3921000957  -999.250000
 593.29320000 77.061203003 0.1965509951 2.1171998978 3.5193998814 3.7701001167  -999.250000
 593.44560000 73.656700134 0.1899640113 2.2476999760 3.7778000832 4.1043000221  -999.250000
 593.59800000 69.043800354 0.2007530034 2.3877999783 3.9988000393 4.2852997780  -999.250000
