# LAS format log file from PETREL
# Project units are specified as depth units
#==================================================================
~Version information
VERS.   2.0:
WRAP.   NO:
#==================================================================
~Well
STRT .m      89.916000000 :
STOP .m      1158.3924000 :
STEP .m     0.15240000 :
NULL .        -999.250000 :
COMP.           : COMPANY
WELL.  Keller 'B' No_ 1   : WELL
FLD.            : FIELD
LOC.            : LOCATION
SRVC.           : SERVICE COMPANY
DATE.  2020-08-19 21:46:58   : Log Export Date {yyyy-MM-dd HH:mm:ss}
PROV.           : PROVINCE
UWI.   Keller 'B' No_ 1   : UNIQUE WELL ID
API.            : API NUMBER
#==================================================================
~Curve
DEPT .m                   : DEPTH
GR .gAPI                  : GR
NPHI .m3/m3               : NPHI
RHOB .g/cm3               : RHOB
RT .ohm.m                 : RT
RM .ohm.m                 : RM
FACIES ._                 : FACIES
~Parameter
#==================================================================
~Ascii
# ...
 156.21000000 98.034698486 0.3861220181 1.8016999960 3.7193000317 3.4928998947  -999.250000
 156.36240000 103.10620117 0.4523580074 1.8396999836 3.8863000870 3.6326000690  -999.250000
 156.51480000 109.54370117 0.4604460001 1.8983000517 4.0349001884 3.7462000847  -999.250000
 156.66720000 107.82929993 0.3918199837 1.9225000143 4.2044000626 3.8478999138  -999.250000
 156.81960000 95.732299805 0.3282720149 1.8691999912 4.4233999252 3.9669001102  -999.250000
 156.97200000 84.544601440 0.3226300180 1.7749999762 4.6911997795 4.1346001625  -999.250000
 157.12440000 81.204399109 0.3548149765 1.7029999495 4.9882001877 4.3720002174  -999.250000
 157.27680000 82.423400879 0.3870950043 1.6736999750 5.2649002075 4.6840000153  -999.250000
 157.42920000 84.787399292 0.4184579849 1.6744999886 5.4844999313 5.0620999336  -999.250000
 157.58160000 86.076797485 0.4668430090 1.6895999908 5.6953001022 5.4937000275  -999.250000
 157.73400000 85.462898254 0.4941760004 1.7180000544 5.9886999130 5.9716000557  -999.250000
 157.88640000 83.766601563 0.4630089998 1.7688000202 6.4204001427 6.4896001816  -999.250000
 158.03880000 81.119201660 0.4119620025 1.8418000937 6.9851999283 7.0240001678  -999.250000
 158.19120000 80.169296265 0.3855680227 1.9204000235 7.6079001427 7.5173997879  -999.250000
 158.34360000 83.509902954 0.3776499927 1.9845000505 8.1724996567 7.8878002167  -999.250000
 158.49600000 89.908302307 0.3646799922 2.0288999081 8.6092996597 8.0704002380  -999.250000
 158.64840000 99.024299622 0.3489049971 2.0639998913 8.9166002274 8.0577001572  -999.250000
 158.80080000 109.99400330 0.3616949916 2.0986001492 9.1136999130 7.9004001617  -999.250000
 158.95320000 115.42140198 0.4167689979 2.1270000935 9.2199001312 7.6756000519  -999.250000
 159.10560000 109.34439850 0.4594620168 2.1303999424 9.2572002411 7.4551000595  -999.250000
 159.25800000 101.05039978 0.4414950311 2.0923998356 9.2686004639 7.2884998322  -999.250000
 159.41040000 98.702796936 0.4074050188 2.0211999416 9.3055000305 7.1912999153  -999.250000
 159.56280000 96.187400818 0.4067179859 1.9469000101 9.3484001160 7.1359000206  -999.250000
 159.71520000 93.378196716 0.4174439907 1.8975000381 9.2831001282 7.0528998375  -999.250000
 159.86760000 97.033599854 0.4100709856 1.8846999407 8.9916000366 6.8607997894  -999.250000
 160.02000000 102.80690002 0.4016070068 1.9055000544 8.4654998779 6.5251002312  -999.250000
 160.17240000 105.67070007 0.4244309962 1.9417999983 7.8526000977 6.0921998024  -999.250000
 160.32480000 107.72329712 0.4630230069 1.9601999521 7.3474001884 5.6538000107  -999.250000
 160.47720000 106.35720062 0.4642710090 1.9341000319 7.0384001732 5.2824001312  -999.250000
 160.62960000 100.54900360 0.4175960124 1.8784999847 6.8857002258 5.0001001358  -999.250000
 160.78200000 95.206100464 0.3845399916 1.8344999552 6.7582001686 4.7849001884  -999.250000
 160.93440000 92.866996765 0.4117060006 1.8150999546 6.4918999672 4.5934000015  -999.250000
 161.08680000 95.506896973 0.4746319950 1.7878000736 6.0387997627 4.3892998695  -999.250000
 161.23920000 99.972000122 0.5233939886 1.7186999321 5.5187001228 4.1651000977  -999.250000
 161.39160000 99.763198853 0.5366820097 1.6286000013 5.0750999451 3.9419000149  -999.250000
 161.54400000 94.996696472 0.5181190372 1.5705000162 4.7829999924 3.7502999306  -999.250000
 161.69640000 89.675201416 0.4788430035 1.5765999556 4.6452999115 3.6112000942  -999.250000
 161.84880000 89.377296448 0.4374440014 1.6478999853 4.6037001610 3.5274000168  -999.250000
 162.00120000 94.657402039 0.4304410219 1.7618000507 4.5767002106 3.4855000973  -999.250000
 162.15360000 96.688201904 0.4671189785 1.8724999428 4.4974999428 3.4618999958  -999.250000
 162.30600000 93.387397766 0.5101910233 1.9183000326 4.3352999687 3.4354000092  -999.250000
 162.45840000 89.072097778 0.5182200074 1.8618000746 4.1339998245 3.4021000862  -999.250000
 162.61080000 86.324699402 0.4926860034 1.7345000505 3.9925999641 3.3803999424  -999.250000
 162.76320000 88.034103394 0.4536750019 1.6050000191 3.9872999191 3.4030001163  -999.250000
 162.91560000 91.452598572 0.4115650058 1.5234000683 4.1466999054 3.5027999878  -999.250000
 163.06800000 94.912002563 0.3836220205 1.5096999407 4.4471998215 3.7028999329  -999.250000
 163.22040000 97.818603516 0.3738539815 1.5609999895 4.7923998833 4.0107002258  -999.250000
 163.37280000 98.628303528 0.3806630075 1.6545000076 5.0710000992 4.4126000404  -999.250000
 163.52520000 96.619697571 0.3954349756 1.7523000240 5.2821998596 4.8730001450  -999.250000
 163.67760000 91.521598816 0.4035189748 1.8098000288 5.5205001831 5.3456001282  -999.250000
 163.83000000 84.600601196 0.3805849850 1.7918000221 5.8870000839 5.8008999825  -999.250000
 163.98240000 84.030502319 0.3303049803 1.6979000568 6.4765000343 6.2470998764  -999.250000
 164.13480000 90.766098022 0.3076429963 1.5735000372 7.3308000565 6.7220997810  -999.250000
 164.28720000 93.142898560 0.3232400119 1.4730999470 8.3141002655 7.2635002136  -999.250000
 164.43960000 87.978103638 0.3476430178 1.4255000353 9.1462001801 7.8794999123  -999.250000
 164.59200000 79.845901489 0.3768909872 1.4314000607 9.6508998871 8.5389003754  -999.250000
 164.74440000 72.326599121 0.4216619730 1.4768000841 9.8496999741 9.1901998520  -999.250000
 164.89680000 70.384002686 0.4105199873 1.5428000689 9.9649000168 9.8018999100  -999.250000
 165.04920000 78.613899231 0.3314560056 1.6110999584 10.332300186 10.394200325  -999.250000
 165.20160000 88.029502869 0.2912739813 1.6743999720 11.098600388 11.032099724  -999.250000
 165.35400000 86.248199463 0.3049409986 1.7407000065 12.178500175 11.786800385  -999.250000
 165.50640000 79.399002075 0.3491510153 1.8185999393 13.527999878 12.697699547  -999.250000
 165.65880000 78.406898499 0.3837089837 1.9003000259 15.148500443 13.749899864  -999.250000
 165.81120000 80.878402710 0.3751319945 1.9680000544 16.957700729 14.861200333  -999.250000
 165.96360000 80.342697144 0.3449310064 2.0097999573 19.137199402 15.867300034  -999.250000
 166.11600000 77.504600525 0.3295379877 2.0236999989 22.018800735 16.509000778  -999.250000
 166.26840000 77.599998474 0.3384419978 2.0130000114 24.982500076 16.484100342  -999.250000
 166.42080000 78.327400208 0.3494609892 1.9833000898 26.330099106 15.625100136  -999.250000
 166.57320000 74.570098877 0.3466870189 1.9373000860 25.080900192 14.086500168  -999.250000
 166.72560000 72.588798523 0.3549499810 1.8718000650 21.762100220 12.279500008  -999.250000
 166.87800000 79.970001221 0.3973820210 1.7819000483 17.913400650 10.597999573  -999.250000
 167.03040000 93.370597839 0.4559749961 1.6719000340 14.821800232 9.2466001511  -999.250000
 167.18280000 103.26770020 0.4877590239 1.5604000092 12.699199677 8.2594995499  -999.250000
 167.33520000 103.89969635 0.4770640135 1.4709999561 11.253999710 7.5834999084  -999.250000
 167.48760000 101.78939819 0.4421029985 1.4184000492 10.214099884 7.1388998032  -999.250000
 167.64000000 104.55699921 0.4056829810 1.4079999924 9.3936004639 6.8503999710  -999.250000
 167.79240000 111.75060272 0.3728099763 1.4401999712 8.7215995789 6.6626000404  -999.250000
 167.94480000 117.51339722 0.3316799998 1.5090999603 8.2684001923 6.5511999130  -999.250000
 168.09720000 111.48190308 0.2927750051 1.5945999622 8.1466999054 6.5246000290  -999.250000
 168.24960000 96.363899231 0.2828609943 1.6656999588 8.4342002869 6.6161999702  -999.250000
 168.40200000 86.768302917 0.3082160056 1.7009000778 9.1913995743 6.8706002235  -999.250000
 168.55440000 81.545196533 0.3354339898 1.7029999495 10.480099678 7.3295001984  -999.250000
 168.70680000 76.248497009 0.3239799738 1.6873000860 12.360699654 8.0118999481  -999.250000
 168.85920000 75.828903198 0.3003619909 1.6649999619 14.940999985 8.8762998581  -999.250000
 169.01160000 80.629096985 0.2929420173 1.6416000128 18.462400436 9.7579002380  -999.250000
 169.16400000 82.655502319 0.2978180051 1.6193000078 23.264600754 10.331500053  -999.250000
 169.31640000 81.813697815 0.3037790060 1.5996999741 29.315900803 10.234900475  -999.250000
