# LAS format log file from PETREL
# Project units are specified as depth units
#==================================================================
~Version information
VERS.   2.0:
WRAP.   NO:
#==================================================================
~Well
STRT .m      89.916000000 :
STOP .m      1158.3924000 :
STEP .m     0.15240000 :
NULL .        -999.250000 :
COMP.           : COMPANY
WELL.  Keller 'B' No_ 1   : WELL
FLD.            : FIELD
LOC.            : LOCATION
SRVC.           : SERVICE COMPANY
DATE.  2020-08-19 21:46:58   : Log Export Date {yyyy-MM-dd HH:mm:ss}
PROV.           : PROVINCE
UWI.   Keller 'B' No_ 1   : UNIQUE WELL ID
API.            : API NUMBER
#==================================================================
~Curve
DEPT .m                   : DEPTH
GR .gAPI                  : GR
NPHI .m3/m3               : NPHI
RHOB .g/cm3               : RHOB
RT .ohm.m                 : RT
RM .ohm.m                 : RM
FACIES ._                 : FACIES
~Parameter
#==================================================================
~Ascii
# ...
 1137.3612000 27.412700653 0.0975679979 2.5781998634 36.472801208 30.337900162  -999.250000
 1137.5136000 27.765699387 0.1030460000 2.5866999626 37.331298828 30.527799606  -999.250000
 1137.6660000 28.356399536 0.1056579947 2.6013000011 38.119201660 30.680999756  -999.250000
 1137.8184000 28.413299561 0.1100109965 2.6136999130 38.472599030 30.781400681  -999.250000
 1137.9708000 27.068399429 0.1144480035 2.6140999794 38.645801544 30.787799835  -999.250000
 1138.1232000 25.260000229 0.1195460036 2.5985000134 39.126399994 30.611099243  -999.250000
 1138.2756000 26.510299683 0.1297760010 2.5733001232 40.116798401 30.058399200  -999.250000
 1138.4280000 30.269300461 0.1454529911 2.5515999794 41.393199921 28.822999954  -999.250000
 1138.5804000 33.494098663 0.1594099998 2.5427000523 41.640098572 26.654699326  -999.250000
 1138.7328000 36.174400330 0.1640180051 2.5439000130 38.925098419 23.649499893  -999.250000
 1138.8852000 39.071899414 0.1601070017 2.5416998863 33.884101868 20.303100586  -999.250000
 1139.0376000 43.030700684 0.1572030038 2.5266001225 28.787099838 17.184799194  -999.250000
 1139.1900000 46.918201447 0.1667400002 2.5011000633 24.465799332 14.634400368  -999.250000
 1139.3424000 46.732898712 0.1908980012 2.4714999199 20.991199493 12.739899635  -999.250000
 1139.4948000 41.459999084 0.2139160037 2.4421000481 18.315500259 11.455300331  -999.250000
 1139.6472000 34.921501160 0.2206049860 2.4208998680 16.231599808 10.696700096  -999.250000
 1139.7996000 30.941099167 0.2176100016 2.4198999405 14.764900208 10.381299973  -999.250000
 1139.9520000 29.596000671 0.2070849985 2.4448997974 14.004599571 10.432100296  -999.250000
 1140.1044000 30.041900635 0.1860969961 2.4914000034 13.747900009 10.769700050  -999.250000
 1140.2568000 30.460599899 0.1612849981 2.5456998348 13.687299728 11.306599617  -999.250000
 1140.4092000 30.204799652 0.1400529891 2.5906000137 13.690799713 11.957500458  -999.250000
 1140.5616000 30.930500031 0.1247899979 2.6152999401 13.824399948 12.660799980  -999.250000
 1140.7140000 31.865200043 0.1141860038 2.6221001148 14.238499641 13.389800072  -999.250000
 1140.8664000 30.275800705 0.1056820005 2.6208999157 15.053799629 14.131500244  -999.250000
 1141.0188000 27.525499344 0.1017419994 2.6208000183 16.224899292 14.834500313  -999.250000
 1141.1712000 26.517299652 0.1062339991 2.6270999908 17.279800415 15.362799644  -999.250000
 1141.3236000 28.291099548 0.1164430082 2.6396000385 17.402599335 15.519599915  -999.250000
 1141.4760000 30.733699799 0.1229870021 2.6500000954 16.437799454 15.179100037  -999.250000
 1141.6284000 32.141101837 0.1200290024 2.6471998692 15.100700378 14.424400330  -999.250000
 1141.7808000 32.570999146 0.1168719977 2.6288001537 13.929400444 13.518199921  -999.250000
 1141.9332000 30.923099518 0.1212780029 2.6046998501 13.118800163 12.732500076  -999.250000
 1142.0856000 28.975599289 0.1244069934 2.5888998508 12.744099617 12.229599953  -999.250000
 1142.2380000 28.757200241 0.1180739999 2.5903999805 12.652700424 12.051300049  -999.250000
 1142.3904000 29.349700928 0.1101529971 2.6082999706 12.563099861 12.154500008  -999.250000
 1142.5428000 29.927799225 0.1081499979 2.6328001022 12.368399620 12.446700096  -999.250000
 1142.6952000 30.591100693 0.1121959984 2.6523001194 12.231100082 12.821499825  -999.250000
 1142.8476000 31.416000366 0.1192699969 2.6584999561 12.393199921 13.196399689  -999.250000
 1143.0000000 33.098800659 0.1257110089 2.6503000259 12.935700417 13.536600113  -999.250000
 1143.1524000 35.680900574 0.1281819940 2.6345000267 13.703300476 13.849300385  -999.250000
 1143.3048000 37.128501892 0.1279240102 2.6222000122 14.462100029 14.161100388  -999.250000
 1143.4572000 36.037899017 0.1299369931 2.6201999187 15.055999756 14.500100136  -999.250000
 1143.6096000 33.597999573 0.1359360069 2.6263000965 15.401000023 14.895999908  -999.250000
 1143.7620000 31.509599686 0.1414189935 2.6326999664 15.557800293 15.387800217  -999.250000
 1143.9144000 29.020299911 0.1412720084 2.6323997974 15.738100052 16.023000717  -999.250000
 1144.0668000 26.767400742 0.1353870034 2.6238000393 16.080099106 16.835899353  -999.250000
 1144.2192000 27.046400070 0.1274300069 2.6105999947 16.516099930 17.808500290  -999.250000
 1144.3716000 29.349399567 0.1231239960 2.5988998413 16.916500092 18.837200165  -999.250000
 1144.5240000 31.128900528 0.1266679913 2.5915000439 17.176799774 19.748500824  -999.250000
 1144.6764000 30.967699051 0.1376020014 2.5829999447 17.233999252 20.386800766  -999.250000
 1144.8288000 30.216100693 0.1493790001 2.5613999367 17.184799194 20.709400177  -999.250000
 1144.9812000 30.000699997 0.1541170031 2.5203001499 17.205499649 20.778099060  -999.250000
 1145.1336000 30.887500763 0.1508840024 2.4725999832 17.300399780 20.657400131  -999.250000
 1145.2860000 32.514900208 0.1413539946 2.4449999332 17.306100845 20.345500946  -999.250000
 1145.4384000 32.909000397 0.1275420040 2.4563000202 17.170200348 19.812200546  -999.250000
 1145.5908000 32.302398682 0.1153360009 2.5033998489 17.054000854 19.093700409  -999.250000
 1145.7432000 31.219299316 0.1085239947 2.5657999516 17.132200241 18.331800461  -999.250000
 1145.8956000 28.717899323 0.1059230044 2.6173000336 17.451099396 17.721500397  -999.250000
 1146.0480000 26.412200928 0.1055309996 2.6396999359 18.009899139 17.440999985  -999.250000
 1146.2004000 26.666400909 0.1077459976 2.6346001625 18.836999893 17.624700546  -999.250000
 1146.3528000 27.845899582 0.1122360006 2.6151001453 19.872200012 18.365699768  -999.250000
 1146.5052000 27.218799591 0.1166880056 2.5941998959 20.902799606 19.699899673  -999.250000
 1146.6576000 25.945800781 0.1202099994 2.5836999416 21.755100250 21.524000168  -999.250000
 1146.8100000 26.159999847 0.1230290011 2.5910000801 22.413299561 23.434999466  -999.250000
 1146.9624000 26.983200073 0.1258630008 2.6105000973 22.887399673 24.646799088  -999.250000
 1147.1148000 27.031499863 0.1302869916 2.6273999214 23.044099808 24.370800018  -999.250000
 1147.2672000 27.134099960 0.1335069984 2.6313998699 22.652099609 22.567499161  -999.250000
 1147.4196000 27.099800110 0.1301869899 2.6258001328 21.697299957 20.012599945  -999.250000
 1147.5720000 25.891799927 0.1253159940 2.6203999519 20.375099182 17.538600922  -999.250000
 1147.7244000 24.538099289 0.1253399998 2.6215000153 18.945199966 15.563099861  -999.250000
 1147.8768000 23.979499817 0.1288259923 2.6256999969 17.622900009 14.166099548  -999.250000
 1148.0292000 24.774700165 0.1318359971 2.6258997917 16.476900101 13.289999962  -999.250000
 1148.1816000 29.726100922 0.1328299940 2.6208999157 15.594799995 12.850999832  -999.250000
 1148.3340000 35.254398346 0.1329119951 2.6158001423 15.110099792 12.767299652  -999.250000
 1148.4864000 27.450799942 0.1326120049 2.6126000881 15.021200180 12.948399544  -999.250000
 1148.6388000 11.120900154 0.1320250034 2.6070001125 15.135800362 13.278300285  -999.250000
 1148.7912000 2.1593999863 0.1308619976 2.5959999561 15.212699890 13.620900154  -999.250000
 1148.9436000 0.1949999928 0.1306210011 2.5822999477 15.153400421 13.863699913  -999.250000
 1149.0960000 0.0077999998 0.1471119970 2.5698001385 15.051799774 13.972900391  -999.250000
 1149.2484000  -999.250000 0.2668330073 2.5606999397 15.113300323 14.002900124  -999.250000
 1149.4008000  -999.250000 0.6489459872 2.5580999851 15.465000153 14.044899940  -999.250000
 1149.5532000  -999.250000 1.0000000000 2.5651001930 15.976599693 14.161100388  -999.250000
 1149.7056000  -999.250000 1.0000000000 2.5783998966 16.324800491 14.352600098  -999.250000
 1149.8580000  -999.250000 1.0000000000 2.5851998329 16.298799515 14.576199532  -999.250000
 1150.0104000  -999.250000 0.2819820046 2.5751998425 16.020799637 14.795299530  -999.250000
 1150.1628000  -999.250000 -0.032233000 2.5541000366 15.885199547 15.025699615  -999.250000
 1150.3152000  -999.250000  -999.250000 2.5350999832 16.255399704 15.330800056  -999.250000
 1150.4676000  -999.250000  -999.250000 2.5236001015 17.071399689 15.764900208  -999.250000
