# LAS format log file from PETREL
# Project units are specified as depth units
#==================================================================
~Version information
VERS.   2.0:
WRAP.   NO:
#==================================================================
~Well
STRT .m      89.916000000 :
STOP .m      1158.3924000 :
STEP .m     0.15240000 :
NULL .        -999.250000 :
COMP.           : COMPANY
WELL.  Keller 'B' No_ 1   : WELL
FLD.            : FIELD
LOC.            : LOCATION
SRVC.           : SERVICE COMPANY
DATE.  2020-08-19 21:46:58   : Log Export Date {yyyy-MM-dd HH:mm:ss}
PROV.           : PROVINCE
UWI.   Keller 'B' No_ 1   : UNIQUE WELL ID
API.            : API NUMBER
#==================================================================
~Curve
DEPT .m                   : DEPTH
GR .gAPI                  : GR
NPHI .m3/m3               : NPHI
RHOB .g/cm3               : RHOB
RT .ohm.m                 : RT
RM .ohm.m                 : RM
FACIES ._                 : FACIES
~Parameter
#==================================================================
~Ascii
# ...
 991.51440000 84.581001282 0.1382170022 2.5356001854 4.0015001297 4.0012001991  -999.250000
 991.66680000 87.443099976 0.1358570009 2.5309998989 4.0044999123 3.9432001114  -999.250000
 991.81920000 88.157798767 0.1464280039 2.5204999447 3.9737999439 3.8761999607  -999.250000
 991.97160000 86.735900879 0.1748140007 2.5026998520 3.8807001114 3.7897999287  -999.250000
 992.12400000 86.426002502 0.2138449997 2.4737000465 3.7388000488 3.6805999279  -999.250000
 992.27640000 90.194503784 0.2481690049 2.4324998856 3.5824999809 3.5557000637  -999.250000
 992.42880000 97.359397888 0.2767420113 2.3876998425 3.4495000839 3.4337999821  -999.250000
 992.58120000 103.25769806 0.2951889932 2.3501000404 3.3610999584 3.3415999413  -999.250000
 992.73360000 106.32990265 0.2824000120 2.3248000145 3.3203999996 3.3089001179  -999.250000
 992.88600000 107.68820190 0.2516300082 2.3166000843 3.3410999775 3.3654999733  -999.250000
 993.03840000 105.12529755 0.2124599963 2.3331000805 3.4470000267 3.5416998863  -999.250000
 993.19080000 95.036201477 0.1588090062 2.3773999214 3.6479001045 3.8694000244  -999.250000
 993.34320000 77.943496704 0.1113389954 2.4438998699 3.9519000053 4.3821001053  -999.250000
 993.49560000 58.784000397 0.0794549957 2.5188999176 4.3701000214 5.1058001518  -999.250000
 993.64800000 44.631698608 0.0658780038 2.5828998089 4.8972997665 6.0322999954  -999.250000
 993.80040000 39.862598419 0.0648619980 2.6221001148 5.5581002235 7.0640001297  -999.250000
 993.95280000 41.020801544 0.0722019970 2.6376001835 6.3857998848 7.9556999207  -999.250000
 994.10520000 43.291801453 0.0850830004 2.6376998425 7.2256999016 8.3727998734  -999.250000
 994.25760000 45.595901489 0.0997159928 2.6288998127 7.6838998795 8.1492996216  -999.250000
 994.41000000 47.987701416 0.1182689965 2.6146998405 7.5079002380 7.4678997993  -999.250000
 994.56240000 51.757499695 0.1434399933 2.5950000286 6.8910999298 6.6754999161  -999.250000
 994.71480000 56.235698700 0.1557369977 2.5681998730 6.2277002335 6.0246000290  -999.250000
 994.86720000 57.768600464 0.1338080019 2.5374999046 5.7800998688 5.6234002113  -999.250000
 995.01960000 56.923400879 0.1029919982 2.5150001049 5.6100001335 5.5013999939  -999.250000
 995.17200000 52.936199188 0.0787239969 2.5136001110 5.6649999619 5.6669998169  -999.250000
 995.32440000 43.463401794 0.0638310015 2.5362000465 5.8726000786 6.1287999153  -999.250000
 995.47680000 34.551700592 0.0567579977 2.5734999180 6.2012000084 6.8850998878  -999.250000
 995.62920000 30.605300903 0.0565999970 2.6099998951 6.6686000824 7.8779997826  -999.250000
 995.78160000 29.822999954 0.0651940033 2.6341001987 7.2856001854 8.9207000732  -999.250000
 995.93400000 33.302101135 0.0851619989 2.6421000957 7.9741001129 9.6861000061  -999.250000
 996.08640000 43.529201508 0.1113169938 2.6331999302 8.4969997406 9.8900003433  -999.250000
 996.23880000 57.598800659 0.1351040006 2.6093997955 8.5833997726 9.5459003448  -999.250000
 996.39120000 67.706199646 0.1520100087 2.5801000595 8.2763996124 8.9310998917  -999.250000
 996.54360000 67.457000732 0.1476650089 2.5597000122 7.8720998764 8.3292999268  -999.250000
 996.69600000 60.519199371 0.1263370067 2.5558998585 7.5173001289 7.8947000504  -999.250000
 996.84840000 55.741001129 0.1068920046 2.5645999908 7.1974000931 7.6730999947  -999.250000
 997.00080000 52.694801331 0.0944320038 2.5750000477 6.9537000656 7.6575999260  -999.250000
 997.15320000 48.459800720 0.0860359967 2.5801999569 6.8713998795 7.8232002258  -999.250000
 997.30560000 46.310398102 0.0773660019 2.5810999870 6.9966001511 8.1422996521  -999.250000
 997.45800000 48.269500732 0.0674860030 2.5831000805 7.3474001884 8.5909996033  -999.250000
 997.61040000 52.497100830 0.0583919995 2.5905001163 7.9059000015 9.1539001465  -999.250000
 997.76280000 56.582599640 0.0522789992 2.6057000160 8.5965995789 9.8282003403  -999.250000
 997.91520000 58.121601105 0.0490450002 2.6275000572 9.3154001236 10.625100136  -999.250000
 998.06760000 57.616500854 0.0477980003 2.6488997936 10.007900238 11.563500404  -999.250000
 998.22000000 58.771099091 0.0485760011 2.6624000072 10.716799736 12.656900406  -999.250000
 998.37240000 60.492900848 0.0512970015 2.6671998501 11.545399666 13.891699791  -999.250000
 998.52480000 58.936500549 0.0540659986 2.6691000462 12.569899559 15.199099541  -999.250000
 998.67720000 55.092998505 0.0553190000 2.6717000008 13.750300407 16.434499741  -999.250000
 998.82960000 52.106098175 0.0561920032 2.6719999313 14.936800003 17.390300751  -999.250000
 998.98200000 51.567001343 0.0580080003 2.6661999226 15.925999641 17.874000549  -999.250000
 999.13440000 51.442199707 0.0613259971 2.6565001011 16.520799637 17.824600220  -999.250000
 999.28680000 51.674999237 0.0667200014 2.6480000019 16.684999466 17.367200851  -999.250000
 999.43920000 56.154098511 0.0739530027 2.6440000534 16.630500793 16.739900589  -999.250000
 999.59160000 60.606601715 0.0797349960 2.6445000172 16.634000778 16.164499283  -999.250000
 999.74400000 58.064601898 0.0804769993 2.6476001740 16.739900589 15.767999649  -999.250000
 999.89640000 53.395000458 0.0786890015 2.6501998901 16.799999237 15.566300392  -999.250000
 1000.0488000 54.320899963 0.0776749998 2.6498999596 16.752300262 15.467700005  -999.250000
 1000.2012000 57.768600464 0.0773060024 2.6473000050 16.598300934 15.270199776  -999.250000
 1000.3536000 57.977699280 0.0788829997 2.6435000896 16.200799942 14.691599846  -999.250000
 1000.5060000 57.418300629 0.0856999978 2.6318998337 15.234700203 13.521100044  -999.250000
 1000.6584000 60.207099915 0.0981509984 2.5953998566 13.443099976 11.835599899  -999.250000
 1000.8108000 68.219001770 0.1132499948 2.5253000259 11.260199547 9.9905996323  -999.250000
 1000.9632000 81.371002197 0.1318510026 2.4443998337 9.3993997574 8.3389997482  -999.250000
 1001.1156000 94.505302429 0.1639500111 2.3891999722 8.0159997940 7.0370998383  -999.250000
 1001.2680000 99.598098755 0.2125629932 2.3768999577 6.9700999260 6.0741000175  -999.250000
 1001.4204000 96.261299133 0.2378510088 2.4043998718 6.1395001411 5.3713998795  -999.250000
 1001.5728000 92.271102905 0.2351499945 2.4546000957 5.4000000954 4.8492999077  -999.250000
 1001.7252000 94.982002258 0.2331459969 2.5002000332 4.7305002213 4.4542999268  -999.250000
 1001.8776000 102.32859802 0.2501740158 2.5241000652 4.2305002213 4.1613998413  -999.250000
 1002.0300000 106.30840302 0.2741360068 2.5333001614 3.9556999207 3.9660000801  -999.250000
 1002.1824000 103.05349731 0.2742249966 2.5386998653 3.8698000908 3.8736999035  -999.250000
 1002.3348000 96.736503601 0.2337770015 2.5413000584 3.9166998863 3.8956999779  -999.250000
 1002.4872000 91.067596436 0.1693449914 2.5418999195 4.0767998695 4.0486998558  -999.250000
 1002.6396000 83.513000488 0.1359270066 2.5487999916 4.3482999802 4.3554000854  -999.250000
 1002.7920000 72.561698914 0.1132330000 2.5691001415 4.7112998962 4.8418998718  -999.250000
 1002.9444000 61.274700165 0.0948100016 2.5993001461 5.1465001106 5.5311999321  -999.250000
 1003.0968000 54.698699951 0.0851299986 2.6296000481 5.6691999435 6.4279999733  -999.250000
 1003.2492000 52.947299957 0.0823929980 2.6526000500 6.3211998940 7.4987998009  -999.250000
 1003.4016000 52.583000183 0.0818729997 2.6663000584 7.1729001999 8.6450996399  -999.250000
 1003.5540000 53.677501678 0.0837549940 2.6705000401 8.2349996567 9.6768999100  -999.250000
 1003.7064000 57.229499817 0.0910229981 2.6671001911 9.2489995956 10.317000389  -999.250000
 1003.8588000 61.898700714 0.1045870036 2.6598999500 9.7655000687 10.305299759  -999.250000
 1004.0112000 66.124603271 0.1240179986 2.6506998539 9.5516004562 9.5968999863  -999.250000
 1004.1636000 70.804000854 0.1509570032 2.6354999542 8.7329998016 8.4449996948  -999.250000
 1004.3160000 78.001403809 0.1884659976 2.6057000160 7.6563000679 7.2225999832  -999.250000
 1004.4684000 91.490303040 0.2268169969 2.5559999943 6.6503000259 6.1985001564  -999.250000
 1004.6208000 113.24569702 0.2380249947 2.4971001148 5.8989000320 5.4821000099  -999.250000
