# LAS format log file from PETREL
# Project units are specified as depth units
#==================================================================
~Version information
VERS.   2.0:
WRAP.   NO:
#==================================================================
~Well
STRT .m      89.916000000 :
STOP .m      1158.3924000 :
STEP .m     0.15240000 :
NULL .        -999.250000 :
COMP.           : COMPANY
WELL.  Keller 'B' No_ 1   : WELL
FLD.            : FIELD
LOC.            : LOCATION
SRVC.           : SERVICE COMPANY
DATE.  2020-08-19 21:46:58   : Log Export Date {yyyy-MM-dd HH:mm:ss}
PROV.           : PROVINCE
UWI.   Keller 'B' No_ 1   : UNIQUE WELL ID
API.            : API NUMBER
#==================================================================
~Curve
DEPT .m                   : DEPTH
GR .gAPI                  : GR
NPHI .m3/m3               : NPHI
RHOB .g/cm3               : RHOB
RT .ohm.m                 : RT
RM .ohm.m                 : RM
FACIES ._                 : FACIES
~Parameter
#==================================================================
~Ascii
# ...
 434.64480000 86.872901917 0.2825109959 1.9953000546 3.5703001022 3.3533999920  -999.250000
 434.79720000 90.185501099 0.2710140049 1.9969999790 3.5982000828 3.4681000710  -999.250000
 434.94960000 95.122703552 0.2755489945 1.9989000559 3.6805999279 3.5759999752  -999.250000
 435.10200000 96.179801941 0.2954240143 1.9951000214 3.8203001022 3.6698000431  -999.250000
 435.25440000 94.023399353 0.3081179857 1.9839000702 3.9942998886 3.7527000904  -999.250000
 435.40680000 93.572303772 0.2979069948 1.9696999788 4.1631999016 3.8324000835  -999.250000
 435.55920000 96.797996521 0.2855840027 1.9594999552 4.2852001190 3.9138998985  -999.250000
 435.71160000 100.80619812 0.2931129932 1.9576998949 4.3362002373 3.9948999882  -999.250000
 435.86400000 102.69470215 0.3203239739 1.9645999670 4.3326001167 4.0676999092  -999.250000
 436.01640000 102.14399719 0.3459889889 1.9774000645 4.3175997734 4.1241002083  -999.250000
 436.16880000 98.493797302 0.3442340195 1.9933000803 4.3267002106 4.1614999771  -999.250000
 436.32120000 94.753097534 0.3156100214 2.0095999241 4.3719000816 4.1831998825  -999.250000
 436.47360000 91.422401428 0.2901839912 2.0250000954 4.4411001205 4.1936998367  -999.250000
 436.62600000 90.665100098 0.2861860096 2.0408999920 4.5036997795 4.1916999817  -999.250000
 436.77840000 95.869499207 0.2880850136 2.0598001480 4.5241999626 4.1673002243  -999.250000
 436.93080000 98.955802917 0.2782610059 2.0808999538 4.4847002029 4.1062002182  -999.250000
 437.08320000 92.338500977 0.2719340026 2.0987000465 4.3955001831 4.0004000664  -999.250000
 437.23560000 84.393302917 0.2870990038 2.1096999645 4.2804999352 3.8559000492  -999.250000
 437.38800000 84.244903564 0.3219119906 2.1158001423 4.1550998688 3.6932001114  -999.250000
 437.54040000 89.240402222 0.3503020108 2.1194999218 4.0307002068 3.5394001007  -999.250000
 437.69280000 92.854400635 0.3549849987 2.1206998825 3.9282000065 3.4186000824  -999.250000
 437.84520000 92.664901733 0.3486889899 2.1196000576 3.8629000187 3.3478000164  -999.250000
 437.99760000 92.456100464 0.3214810193 2.1182999611 3.8308999538 3.3354001045  -999.250000
 438.15000000 96.137298584 0.2805960178 2.1193997860 3.8229999542 3.3831000328  -999.250000
 438.30240000 102.90889740 0.2547709942 2.1238000393 3.8364000320 3.4856998920  -999.250000
 438.45480000 106.55169678 0.2584050000 2.1311998367 3.8773999214 3.6310000420  -999.250000
 438.60720000 102.66419983 0.2859709859 2.1414999962 3.9625000954 3.7983999252  -999.250000
 438.75960000 96.310798645 0.3268360198 2.1547999382 4.1065001488 3.9597001076  -999.250000
 438.91200000 92.514396667 0.3647280037 2.1700000763 4.2873997688 4.0829000473  -999.250000
 439.06440000 91.057899475 0.3673419952 2.1844999790 4.4387001991 4.1398000717  -999.250000
 439.21680000 95.008201599 0.3378869891 2.1951000690 4.5025000572 4.1152000427  -999.250000
 439.36920000 101.98139954 0.3136990070 2.2014999390 4.4643001556 4.0124001503  -999.250000
 439.52160000 103.13469696 0.3104760051 2.2060999870 4.3407001495 3.8513998985  -999.250000
 439.67400000 99.624496460 0.3174360096 2.2093000412 4.1651000977 3.6624000072  -999.250000
 439.82640000 95.185401917 0.3175440133 2.2071001530 3.9784998894 3.4756000042  -999.250000
 439.97880000 90.908798218 0.3122990131 2.1977000237 3.8234999180 3.3129000664  -999.250000
 440.13120000 89.808601379 0.3030900061 2.1888999939 3.7230000496 3.1828000546  -999.250000
 440.28360000 90.002197266 0.2906759977 2.1928000450 3.6505999565 3.0799000263  -999.250000
 440.43600000 85.446197510 0.2855139971 2.2118000984 3.5513999462 2.9895000458  -999.250000
 440.58840000 79.802299500 0.2924509943 2.2337999344 3.4022998810 2.8959999084  -999.250000
 440.74080000 77.051101685 0.3010259867 2.2428998947 3.2288999557 2.7911000252  -999.250000
 440.89320000 73.042396545 0.3018549979 2.2337999344 3.0720999241 2.6765999794  -999.250000
 441.04560000 68.476600647 0.3063830137 2.2146999836 2.9519999027 2.5608000755  -999.250000
 441.19800000 67.913696289 0.3235609829 2.1967999935 2.8534998894 2.4523999691  -999.250000
 441.35040000 71.931800842 0.3381060064 2.1851000786 2.7451000214 2.3568999767  -999.250000
 441.50280000 77.279197693 0.3456250131 2.1779999733 2.6187000275 2.2767000198  -999.250000
 441.65520000 80.251800537 0.3694260120 2.1711001396 2.4944999218 2.2123999596  -999.250000
 441.80760000 79.883201599 0.3969660103 2.1631999016 2.3903000355 2.1633000374  -999.250000
 441.96000000 78.236701965 0.3795990050 2.1563999653 2.3122000694 2.1282999516  -999.250000
 442.11240000 75.662597656 0.3404670060 2.1512999535 2.2602000237 2.1059999466  -999.250000
 442.26480000 71.116600037 0.3258050084 2.1461999416 2.2304000854 2.0947999954  -999.250000
 442.41720000 67.939399719 0.3316830099 2.1396999359 2.2169001102 2.0927999020  -999.250000
 442.56960000 70.458000183 0.3391730189 2.1316001415 2.2114000320 2.0980999470  -999.250000
 442.72200000 76.908996582 0.3338489830 2.1196999550 2.2058000565 2.1087999344  -999.250000
 442.87440000 84.075401306 0.3282260001 2.0988998413 2.1986000538 2.1235001087  -999.250000
 443.02680000 88.712699890 0.3378519714 2.0643999577 2.1935999393 2.1419000626  -999.250000
 443.17920000 86.234298706 0.3456029892 2.0141000748 2.1937999725 2.1644999981  -999.250000
 443.33160000 80.062500000 0.3346860111 1.9503000975 2.2007000446 2.1916999817  -999.250000
 443.48400000 78.471801758 0.3184590042 1.8788000345 2.2139999866 2.2232000828  -999.250000
 443.63640000 82.285499573 0.3056589961 1.8039000034 2.2307000160 2.2565000057  -999.250000
 443.78880000 83.665000916 0.3039279878 1.7269999981 2.2448999882 2.2874000072  -999.250000
 443.94120000 79.711502075 0.3167480230 1.6504000425 2.2486000061 2.3113000393  -999.250000
 444.09360000 75.596199036 0.3313650191 1.5796999931 2.2414999008 2.3252000809  -999.250000
 444.24600000 74.736701965 0.3338800073 1.5209000111 2.2341001034 2.3296999931  -999.250000
 444.39840000 77.427902222 0.3292660117 1.4764000177 2.2339999676 2.3278000355  -999.250000
 444.55080000 80.300201416 0.3250540197 1.4435000420 2.2399001122 2.3247001171  -999.250000
 444.70320000 77.710502625 0.3166600168 1.4175999165 2.2504000664 2.3257999420  -999.250000
 444.85560000 73.208503723 0.3026359975 1.3969000578 2.2676999569 2.3369998932  -999.250000
 445.00800000 74.030502319 0.2904840112 1.3831999302 2.2962999344 2.3635001183  -999.250000
 445.16040000 79.663696289 0.2841659784 1.3773000240 2.3406000137 2.4077000618  -999.250000
 445.31280000 82.412399292 0.2814359963 1.3759000301 2.4031999111 2.4672999382  -999.250000
 445.46520000 79.839897156 0.2808839977 1.3739000559 2.4806001186 2.5346000195  -999.250000
 445.61760000 78.741203308 0.2805899978 1.3690999746 2.5611000061 2.5980000496  -999.250000
 445.77000000 81.214897156 0.2840870023 1.3624000549 2.6303999424 2.6468999386  -999.250000
 445.92240000 83.821296692 0.2967620194 1.3553999662 2.6810998917 2.6772000790  -999.250000
 446.07480000 83.957702637 0.3132489920 1.3483000994 2.7190001011 2.6947000027  -999.250000
 446.22720000 81.996696472 0.3219739795 1.3403999805 2.7614998817 2.7121999264  -999.250000
 446.37960000 85.248001099 0.3207899928 1.3323000669 2.8245000839 2.7423000336  -999.250000
 446.53200000 92.081398010 0.3151420057 1.3259999752 2.9100999832 2.7906999588  -999.250000
 446.68440000 93.864501953 0.3078269958 1.3221999407 3.0013999939 2.8517000675  -999.250000
 446.83680000 94.316299438 0.3007500172 1.3205000162 3.0692999363 2.9077000618  -999.250000
 446.98920000 97.084701538 0.2914350033 1.3200999498 3.0968999863 2.9356000423  -999.250000
 447.14160000 98.328697205 0.2829409838 1.3206000328 3.0961000919 2.9189999104  -999.250000
 447.29400000 95.976097107 0.2851510048 1.3214999437 3.0920999050 2.8575999737  -999.250000
 447.44640000 93.344596863 0.3000200093 1.3215999603 3.0996000767 2.7667000294  -999.250000
 447.59880000 93.287399292 0.3173339963 1.3199000359 3.1117000580 2.6670999527  -999.250000
 447.75120000 91.047096252 0.3254890144 1.3169000149 3.0982999802 2.5752999783  -999.250000
