# LAS format log file from PETREL
# Project units are specified as depth units
#==================================================================
~Version information
VERS.   2.0:
WRAP.   NO:
#==================================================================
~Well
STRT .m      89.916000000 :
STOP .m      1158.3924000 :
STEP .m     0.15240000 :
NULL .        -999.250000 :
COMP.           : COMPANY
WELL.  Keller 'B' No_ 1   : WELL
FLD.            : FIELD
LOC.            : LOCATION
SRVC.           : SERVICE COMPANY
DATE.  2020-08-19 21:46:58   : Log Export Date {yyyy-MM-dd HH:mm:ss}
PROV.           : PROVINCE
UWI.   Keller 'B' No_ 1   : UNIQUE WELL ID
API.            : API NUMBER
#==================================================================
~Curve
DEPT .m                   : DEPTH
GR .gAPI                  : GR
NPHI .m3/m3               : NPHI
RHOB .g/cm3               : RHOB
RT .ohm.m                 : RT
RM .ohm.m                 : RM
FACIES ._                 : FACIES
~Parameter
#==================================================================
~Ascii
# ...
 514.19760000 91.850097656 0.3047649860 2.3568999767 1.2467999458 1.2382999659  -999.250000
 514.35000000 93.703796387 0.3083609939 2.3581998348 1.2711999416 1.2606999874  -999.250000
 514.50240000 94.456001282 0.3322019875 2.3578999043 1.3091000319 1.2826999426  -999.250000
 514.65480000 99.038902283 0.3685809970 2.3593001366 1.3423999548 1.3035999537  -999.250000
 514.80720000 103.38059998 0.3632770181 2.3640000820 1.3672000170 1.3237999678  -999.250000
 514.95960000 102.23079681 0.3248780072 2.3708000183 1.3913999796 1.3446999788  -999.250000
 515.11200000 98.706901550 0.3017939925 2.3770000935 1.4119000435 1.3677999973  -999.250000
 515.26440000 95.391502380 0.3056820035 2.3791999817 1.4259999990 1.3931000233  -999.250000
 515.41680000 94.570396423 0.3276060224 2.3761999607 1.4375000000 1.4184999466  -999.250000
 515.56920000 96.181999207 0.3409170210 2.3705000877 1.4441000223 1.4397000074  -999.250000
 515.72160000 99.600601196 0.3256150186 2.3626999855 1.4414000511 1.4522999525  -999.250000
 515.87400000 104.05439758 0.3003399968 2.3506000042 1.4302999973 1.4541000128  -999.250000
 516.02640000 100.03520203 0.2924399972 2.3368999958 1.4135999680 1.4467999935  -999.250000
 516.17880000 91.495002747 0.3140340149 2.3281998634 1.3942999840 1.4349999428  -999.250000
 516.33120000 93.337402344 0.3582989872 2.3259999752 1.3746000528 1.4244999886  -999.250000
 516.48360000 102.69740295 0.3937079906 2.3245000839 1.3559000492 1.4211000204  -999.250000
 516.63600000 109.03589630 0.3924420178 2.3201000690 1.3432999849 1.4306000471  -999.250000
 516.78840000 110.66449738 0.3609609902 2.3161001205 1.3466000557 1.4575999975  -999.250000
 516.94080000 107.77189636 0.3281079829 2.3181998730 1.3732999563 1.5052000284  -999.250000
 517.09320000 106.52539825 0.3130550086 2.3303000927 1.4230999947 1.5722999573  -999.250000
 517.24560000 104.80139923 0.3111270070 2.3526000977 1.4871000051 1.6526000500  -999.250000
 517.39800000 96.709999084 0.3083309829 2.3815000057 1.5500999689 1.7345999479  -999.250000
 517.55040000 87.967002869 0.2961319983 2.4078998566 1.6023999453 1.8065999746  -999.250000
 517.70280000 89.737998962 0.2814790010 2.4208998680 1.6507999897 1.8632999659  -999.250000
 517.85520000 105.80789948 0.2734439969 2.4178998470 1.7128000259 1.9099999666  -999.250000
 518.00760000 119.32839966 0.2709040046 2.4094998837 1.7982000113 1.9582999945  -999.250000
 518.16000000 119.71060181 0.2741290033 2.4082000256 1.9014999866 2.0183999538  -999.250000
 518.31240000 114.20420074 0.2800700068 2.4158999920 2.0000998974 2.0931000710  -999.250000
 518.46480000 106.37349701 0.2789250016 2.4242999554 2.0659000874 2.1772000790  -999.250000
 518.61720000 104.16280365 0.2702659965 2.4256999493 2.0957999229 2.2597000599  -999.250000
 518.76960000 109.34690094 0.2587510049 2.4231998920 2.1215999126 2.3310000896  -999.250000
 518.92200000 109.67800140 0.2485049963 2.4246001244 2.1840000153 2.3884000778  -999.250000
 519.07440000 100.62329865 0.2402409911 2.4313998222 2.3046000004 2.4370999336  -999.250000
 519.22680000 86.781303406 0.2230120152 2.4373998642 2.4702000618 2.4844999313  -999.250000
 519.37920000 78.956199646 0.1967180073 2.4371001720 2.6268000603 2.5334999561  -999.250000
 519.53160000 82.491401672 0.1908040047 2.4347000122 2.7209000587 2.5792000294  -999.250000
 519.68400000 91.250396729 0.2193230093 2.4416000843 2.7516000271 2.6105999947  -999.250000
 519.83640000 92.682998657 0.2516780198 2.4646000862 2.7483000755 2.6159000397  -999.250000
 519.98880000 79.982299805 0.2566699982 2.4955000877 2.7290999889 2.5889000893  -999.250000
 520.14120000 66.618400574 0.2436919957 2.5167000294 2.7000000477 2.5320999622  -999.250000
 520.29360000 69.288002014 0.2479260117 2.5185000896 2.6621000767 2.4544000626  -999.250000
 520.44600000 82.503402710 0.2832249999 2.5072000027 2.6073999405 2.3652000427  -999.250000
 520.59840000 91.303802490 0.3307479918 2.4911999702 2.5157001019 2.2704000473  -999.250000
 520.75080000 93.980499268 0.3602809906 2.4691998959 2.3784000874 2.1751000881  -999.250000
 520.90320000 92.970901489 0.3386339843 2.4381999969 2.2193000317 2.0866000652  -999.250000
 521.05560000 90.339698792 0.2880460024 2.4033999443 2.0826001167 2.0155000687  -999.250000
 521.20800000 89.579498291 0.2554570138 2.3748998642 2.0007998943 1.9716999531  -999.250000
 521.36040000 88.856697083 0.2517260015 2.3608000278 1.9745999575 1.9601999521  -999.250000
 521.51280000 84.232902527 0.2537170053 2.3658001423 1.9794000387 1.9793000221  -999.250000
 521.66520000 76.150802612 0.2407969981 2.3898999691 1.9930000305 2.0204999447  -999.250000
 521.81760000 70.391197205 0.2201799899 2.4236001968 2.0125000477 2.0706000328  -999.250000
 521.97000000 71.358497620 0.2180519998 2.4476001263 2.0448000431 2.1140000820  -999.250000
 522.12240000 75.591003418 0.2378019840 2.4398999214 2.0913000107 2.1377999783  -999.250000
 522.27480000 76.751296997 0.2592189908 2.3908998966 2.1410999298 2.1357998848  -999.250000
 522.42720000 77.225799561 0.2781929970 2.3190000057 2.1765000820 2.1105000973  -999.250000
 522.57960000 82.863800049 0.2953809798 2.2626998425 2.1819999218 2.0694999695  -999.250000
 522.73200000 88.553703308 0.3039889932 2.2485001087 2.1489000320 2.0204999447  -999.250000
 522.88440000 90.692497253 0.3079439998 2.2732000351 2.0794000626 1.9672000408  -999.250000
 523.03680000 93.446800232 0.3100920022 2.3148999214 1.9838999510 1.9101999998  -999.250000
 523.18920000 93.646896362 0.3061540127 2.3517999649 1.8760999441 1.8490999937  -999.250000
 523.34160000 87.090698242 0.3047370017 2.3758001328 1.7726999521 1.7849999666  -999.250000
 523.49400000 82.120697021 0.3101100028 2.3889999390 1.6871999502 1.7208000422  -999.250000
 523.64640000 87.650901794 0.3137179911 2.3935999870 1.6196000576 1.6598999500  -999.250000
 523.79880000 100.04100037 0.3043169975 2.3901000023 1.5607000589 1.6045999527  -999.250000
 523.95120000 106.66560364 0.2837719917 2.3819999695 1.5061000586 1.5559999943  -999.250000
 524.10360000 99.529899597 0.2704089880 2.3747999668 1.4563000202 1.5135999918  -999.250000
 524.25600000 86.946197510 0.2780990005 2.3703000546 1.4063999653 1.4773999453  -999.250000
 524.40840000 81.846496582 0.3021599948 2.3658001423 1.3540999889 1.4481999874  -999.250000
 524.56080000 85.416297913 0.3238890171 2.3589999676 1.3165999651 1.4292000532  -999.250000
 524.71320000 91.541603088 0.3275540173 2.3518998623 1.3167999983 1.4257999659  -999.250000
 524.86560000 97.713798523 0.3156380057 2.3493998051 1.3562999964 1.4444999695  -999.250000
 525.01800000 102.99330139 0.2934249938 2.3550000191 1.4259999990 1.4914000034  -999.250000
 525.17040000 102.36409760 0.2660009861 2.3688001633 1.5211999416 1.5697000027  -999.250000
 525.32280000 96.122596741 0.2366790026 2.3877999783 1.6308000088 1.6776000261  -999.250000
 525.47520000 90.795898438 0.1970689893 2.4047999382 1.7410000563 1.8044999838  -999.250000
 525.62760000 88.930397034 0.1669819951 2.4113998413 1.8473000526 1.9305000305  -999.250000
 525.78000000 85.792900085 0.1575679928 2.4056999683 1.9464000463 2.0287001133  -999.250000
 525.93240000 78.431900024 0.1661580056 2.3943998814 2.0276999474 2.0750999451  -999.250000
 526.08480000 74.566497803 0.1827070117 2.3819999695 2.0701999664 2.0613999367  -999.250000
 526.23720000 78.747497559 0.2021680027 2.3648998737 2.0555000305 2.0000998974  -999.250000
 526.38960000 86.505500793 0.2324760109 2.3403000832 1.9858000278 1.9169000387  -999.250000
 526.54200000 89.868598938 0.2553209960 2.3143000603 1.8830000162 1.8370000124  -999.250000
 526.69440000 88.213401794 0.2572709918 2.2973001003 1.7769999504 1.7778999805  -999.250000
 526.84680000 86.456298828 0.2463139892 2.2939000130 1.6928999424 1.7482000589  -999.250000
 526.99920000 87.325698853 0.2331269979 2.3025000095 1.6452000141 1.7511999607  -999.250000
 527.15160000 88.651802063 0.2243160009 2.3201000690 1.6401000023 1.7865999937  -999.250000
 527.30400000 88.362701416 0.2302169949 2.3441998959 1.6764999628 1.8516999483  -999.250000
