# LAS format log file from PETREL
# Project units are specified as depth units
#==================================================================
~Version information
VERS.   2.0:
WRAP.   NO:
#==================================================================
~Well
STRT .m      89.916000000 :
STOP .m      1158.3924000 :
STEP .m     0.15240000 :
NULL .        -999.250000 :
COMP.           : COMPANY
WELL.  Keller 'B' No_ 1   : WELL
FLD.            : FIELD
LOC.            : LOCATION
SRVC.           : SERVICE COMPANY
DATE.  2020-08-19 21:46:58   : Log Export Date {yyyy-MM-dd HH:mm:ss}
PROV.           : PROVINCE
UWI.   Keller 'B' No_ 1   : UNIQUE WELL ID
API.            : API NUMBER
#==================================================================
~Curve
DEPT .m                   : DEPTH
GR .gAPI                  : GR
NPHI .m3/m3               : NPHI
RHOB .g/cm3               : RHOB
RT .ohm.m                 : RT
RM .ohm.m                 : RM
FACIES ._                 : FACIES
~Parameter
#==================================================================
~Ascii
# ...
 858.92640000 58.242298126 0.1239690036 2.6056001186 5.9035000801 5.7737002373  -999.250000
 859.07880000 56.947799683 0.1224769950 2.6203999519 6.2417998314 6.0212998390  -999.250000
 859.23120000 53.576301575 0.1131560057 2.6331999302 6.5777001381 6.3263001442  -999.250000
 859.38360000 53.793201447 0.1038309932 2.6388998032 6.9074001312 6.6795997620  -999.250000
 859.53600000 58.239498138 0.0986360013 2.6394000053 7.2368998528 7.0605001450  -999.250000
 859.68840000 60.612098694 0.0960180014 2.6375000477 7.5864000320 7.4314999580  -999.250000
 859.84080000 60.366100311 0.0942160040 2.6310000420 7.9716000557 7.7279000282  -999.250000
 859.99320000 61.828098297 0.0923720002 2.6189999580 8.3095998764 7.8590002060  -999.250000
 860.14560000 65.590599060 0.0938239992 2.6078999043 8.4651002884 7.7351999283  -999.250000
 860.29800000 68.293701172 0.1026910022 2.6033999920 8.3359003067 7.3190999031  -999.250000
 860.45040000 66.708099365 0.1160849929 2.6023998260 7.8201999664 6.6634998322  -999.250000
 860.60280000 64.641799927 0.1287509948 2.5975999832 6.9499998093 5.8923997879  -999.250000
 860.75520000 68.047996521 0.1444090009 2.5887000561 5.9805002213 5.1378002167  -999.250000
 860.90760000 73.133300781 0.1732420027 2.5799999237 5.1493000984 4.4854998589  -999.250000
 861.06000000 72.869400024 0.2086770087 2.5696001053 4.5173997879 3.9651999474  -999.250000
 861.21240000 69.086502075 0.2205689996 2.5515999794 4.0331001282 3.5692000389  -999.250000
 861.36480000 67.202499390 0.2156139910 2.5297000408 3.6366999149 3.2739999294  -999.250000
 861.51720000 68.182403564 0.2122129947 2.5151998997 3.3108999729 3.0548999310  -999.250000
 861.66960000 69.444801331 0.2139009982 2.5098998547 3.0569000244 2.8908998966  -999.250000
 861.82200000 71.076400757 0.2236510068 2.5003998280 2.8668999672 2.7681000233  -999.250000
 861.97440000 72.483001709 0.2382690012 2.4721000195 2.7279999256 2.6795001030  -999.250000
 862.12680000 72.146202087 0.2448460013 2.4253001213 2.6345999241 2.6257998943  -999.250000
 862.27920000 72.453498840 0.2397210002 2.3763000965 2.5927999020 2.6145999432  -999.250000
 862.43160000 73.890800476 0.2277659923 2.3452000618 2.6129999161 2.6579999924  -999.250000
 862.58400000 74.320198059 0.1999720037 2.3454999924 2.7018001080 2.7702999115  -999.250000
 862.73640000 72.165100098 0.1583199948 2.3786001205 2.8556001186 2.9660000801  -999.250000
 862.88880000 66.972503662 0.1274259984 2.4326999187 3.0615999699 3.2578999996  -999.250000
 863.04120000 60.779598236 0.1117930040 2.4888000488 3.3176999092 3.6554000378  -999.250000
 863.19360000 55.454399109 0.1094480008 2.5298998356 3.6477000713 4.1635999680  -999.250000
 863.34600000 50.439098358 0.1180920005 2.5468997955 4.1062998772 4.7836999893  -999.250000
 863.49840000 45.435798645 0.1268360019 2.5397000313 4.7747001648 5.5099000931  -999.250000
 863.65080000 41.446300507 0.1224000007 2.5171999931 5.7140002251 6.3119997978  -999.250000
 863.80320000 39.303600311 0.1116889939 2.4976999760 6.8491997719 7.0929999352  -999.250000
 863.95560000 37.727600098 0.1024820060 2.4986999035 7.8692002296 7.6465001106  -999.250000
 864.10800000 37.074901581 0.0929380059 2.5231001377 8.3877000809 7.7101998329  -999.250000
 864.26040000 39.869800568 0.0873209983 2.5568001270 8.2135000229 7.1771001816  -999.250000
 864.41280000 46.998600006 0.0959160030 2.5764999390 7.4284000397 6.2375001907  -999.250000
 864.56520000 55.958198547 0.1276350021 2.5631999969 6.3523998260 5.2125000954  -999.250000
 864.71760000 62.172698975 0.1884250045 2.5116000175 5.3052000999 4.3187999725  -999.250000
 864.87000000 65.678596497 0.2457419932 2.4356000423 4.4326000214 3.6231000423  -999.250000
 865.02240000 69.968002319 0.2692210078 2.3696999550 3.7562000751 3.1073000431  -999.250000
 865.17480000 74.446197510 0.2898240089 2.3471000195 3.2263998985 2.7274999619  -999.250000
 865.32720000 76.572402954 0.3078759909 2.3731999397 2.7743000984 2.4410998821  -999.250000
 865.47960000 79.710296631 0.3162769973 2.4271998405 2.3852999210 2.2170999050  -999.250000
 865.63200000 86.646400452 0.3181779981 2.4778997898 2.0864000320 2.0376000404  -999.250000
 865.78440000 89.657096863 0.3236539960 2.5011000633 1.8789999485 1.8948999643  -999.250000
 865.93680000 84.578002930 0.3311569989 2.4973998070 1.7387000322 1.7863999605  -999.250000
 866.08920000 79.065299988 0.3313309848 2.4848001003 1.6432000399 1.7102999687  -999.250000
 866.24160000 74.283699036 0.3330000043 2.4758000374 1.5750999451 1.6641999483  -999.250000
 866.39400000 65.499099731 0.3497050107 2.4700000286 1.5239000320 1.6454000473  -999.250000
 866.54640000 55.550300598 0.3675910234 2.4596002102 1.4927999973 1.6514999866  -999.250000
 866.69880000 51.436298370 0.3608789742 2.4393000603 1.4903999567 1.6812000275  -999.250000
 866.85120000 56.915000916 0.3408050239 2.4159998894 1.5197000504 1.7344000340  -999.250000
 867.00360000 68.115600586 0.3257479966 2.4043998718 1.5794999599 1.8116999865  -999.250000
 867.15600000 77.496597290 0.3066039979 2.4123001099 1.6682000160 1.9139000177  -999.250000
 867.30840000 82.633903503 0.2804130018 2.4377999306 1.7827999592 2.0425999165  -999.250000
 867.46080000 84.876998901 0.2580589950 2.4737999439 1.9237999916 2.2005000114  -999.250000
 867.61320000 84.760902405 0.2379480004 2.5123999119 2.1010000706 2.3917999268  -999.250000
 867.76560000 80.560203552 0.2057140023 2.5463998318 2.3259999752 2.6203000546  -999.250000
 867.91800000 72.177497864 0.1761939973 2.5710999966 2.6064999104 2.8845999241  -999.250000
 868.07040000 65.425003052 0.1638820022 2.5850000381 2.9516000748 3.1705999374  -999.250000
 868.22280000 62.855300903 0.1625930071 2.5891001225 3.3394000530 3.4416999817  -999.250000
 868.37520000 61.602699280 0.1679710001 2.5834999084 3.6863000393 3.6384999752  -999.250000
 868.52760000 61.092201233 0.1886779964 2.5669000149 3.8998999596 3.7005000114  -999.250000
 868.68000000 62.632301331 0.2309070081 2.5392999649 3.9458999634 3.6043000221  -999.250000
 868.83240000 66.325500488 0.2639319897 2.5020999908 3.8459999561 3.3808999062  -999.250000
 868.98480000 70.398597717 0.2876470089 2.4581999779 3.6331000328 3.0917999744  -999.250000
 869.13720000 72.675201416 0.2983320057 2.4140000343 3.3322999477 2.7922999859  -999.250000
 869.28960000 73.959800720 0.2985610068 2.3782000542 2.9783999920 2.5164000988  -999.250000
 869.44200000 80.319801331 0.3045140207 2.3581001759 2.6254999638 2.2787001133  -999.250000
 869.59440000 92.743301392 0.3214370012 2.3521001339 2.3218998909 2.0824999809  -999.250000
 869.74680000 103.94450378 0.3465679884 2.3510000706 2.0838000774 1.9258999825  -999.250000
 869.89920000 109.56459808 0.3723799884 2.3461999893 1.9023000002 1.8051999807  -999.250000
 870.05160000 112.21070099 0.3873260021 2.3357000351 1.7589000463 1.7164000273  -999.250000
 870.20400000 112.96980286 0.3836399913 2.3218998909 1.6454000473 1.6564999819  -999.250000
 870.35640000 110.20200348 0.3614479899 2.3080000877 1.5643999577 1.6232999563  -999.250000
 870.50880000 106.45339966 0.3377880156 2.2962999344 1.5147999525 1.6145999432  -999.250000
 870.66120000 104.57890320 0.3234069943 2.2890000343 1.4921000004 1.6275000572  -999.250000
 870.81360000 104.44760132 0.3198319972 2.2901000977 1.4894000292 1.6575000286  -999.250000
 870.96600000 102.85320282 0.3306109905 2.3041999340 1.4982999563 1.6995999813  -999.250000
 871.11840000 95.507202148 0.3529180288 2.3318998814 1.5161999464 1.7504999638  -999.250000
 871.27080000 83.578002930 0.3646149933 2.3588998318 1.5529999733 1.8128000498  -999.250000
 871.42320000 70.904403687 0.3361669779 2.3546998501 1.6253000498 1.8970999718  -999.250000
 871.57560000 64.248497009 0.2777920067 2.3041999340 1.7494000196 2.0213000774  -999.250000
 871.72800000 65.835601807 0.2029660046 2.2472000122 1.9383000135 2.2095999718  -999.250000
 871.88040000 66.682502747 0.1371989995 2.2404999733 2.1977000237 2.4923000336  -999.250000
 872.03280000 58.282398224 0.1001130044 2.3018999100 2.5322000980 2.9052000046  -999.250000
