# LAS format log file from PETREL
# Project units are specified as depth units
#==================================================================
~Version information
VERS.   2.0:
WRAP.   NO:
#==================================================================
~Well
STRT .m      89.916000000 :
STOP .m      1158.3924000 :
STEP .m     0.15240000 :
NULL .        -999.250000 :
COMP.           : COMPANY
WELL.  Keller 'B' No_ 1   : WELL
FLD.            : FIELD
LOC.            : LOCATION
SRVC.           : SERVICE COMPANY
DATE.  2020-08-19 21:46:58   : Log Export Date {yyyy-MM-dd HH:mm:ss}
PROV.           : PROVINCE
UWI.   Keller 'B' No_ 1   : UNIQUE WELL ID
API.            : API NUMBER
#==================================================================
~Curve
DEPT .m                   : DEPTH
GR .gAPI                  : GR
NPHI .m3/m3               : NPHI
RHOB .g/cm3               : RHOB
RT .ohm.m                 : RT
RM .ohm.m                 : RM
FACIES ._                 : FACIES
~Parameter
#==================================================================
~Ascii
# ...
 235.76280000 27.850599289 0.2669079900 1.6080000401 9.7888002396 3.6277000904  -999.250000
 235.91520000 29.219800949 0.2645120025 1.5970000029 8.6042003632 3.4361999035  -999.250000
 236.06760000 31.520099640 0.2653799951 1.5935000181 7.5936999321 3.2716000080  -999.250000
 236.22000000 31.733400345 0.2734690011 1.5988000631 6.9759998322 3.1526999474  -999.250000
 236.37240000 30.884599686 0.2818680108 1.6133000851 6.6986999512 3.0834000111  -999.250000
 236.52480000 30.329500198 0.2792379856 1.6374000311 6.5205001831 3.0539999008  -999.250000
 236.67720000 30.701599121 0.2723630071 1.6683000326 6.2460999489 3.0467000008  -999.250000
 236.82960000 33.248600006 0.2729330063 1.7000999451 5.9067997932 3.0462999344  -999.250000
 236.98200000 34.596099854 0.2727090120 1.7245999575 5.6949000359 3.0474998951  -999.250000
 237.13440000 32.249401093 0.2627619803 1.7355999947 5.8101000786 3.0564000607  -999.250000
 237.28680000 30.594499588 0.2531679869 1.7336999178 6.3144998550 3.0822999477  -999.250000
 237.43920000 30.600700378 0.2523550093 1.7263000011 7.0215001106 3.1303000450  -999.250000
 237.59160000 29.515699387 0.2567919791 1.7231999636 7.5883002281 3.1958999634  -999.250000
 237.74400000 27.562799454 0.2704209983 1.7303000689 7.7980999947 3.2655999660  -999.250000
 237.89640000 26.363399506 0.2985199988 1.7454999685 7.7020998001 3.3213999271  -999.250000
 238.04880000 26.022600174 0.3215340078 1.7615000010 7.5272002220 3.3494999409  -999.250000
 238.20120000 25.407699585 0.3105460107 1.7740999460 7.4510998726 3.3482000828  -999.250000
 238.35360000 26.785999298 0.2930299938 1.7858999968 7.5062999725 3.3290998936  -999.250000
 238.50600000 31.318099976 0.2950730026 1.8023000956 7.6508002281 3.3094999790  -999.250000
 238.65840000 33.166900635 0.3014139831 1.8260999918 7.7999000549 3.3039999008  -999.250000
 238.81080000 29.930999756 0.3006249964 1.8559000492 7.8449997902 3.3197999001  -999.250000
 238.96320000 25.353200912 0.3003520072 1.8839999437 7.7768998146 3.3570001125  -999.250000
 239.11560000 22.619300842 0.2979470193 1.8995000124 7.6820998192 3.4124999046  -999.250000
 239.26800000 22.119699478 0.2904239893 1.8976999521 7.6250000000 3.4823000431  -999.250000
 239.42040000 23.458599091 0.2989130020 1.8846999407 7.7125000954 3.5634000301  -999.250000
 239.57280000 25.655500412 0.3348860145 1.8724999428 8.1061000824 3.6519000530  -999.250000
 239.72520000 26.916799545 0.3626669943 1.8719000816 8.7961997986 3.7404999733  -999.250000
 239.87760000 27.325399399 0.3457410038 1.8873000145 9.5235996246 3.8185000420  -999.250000
 240.03000000 28.985399246 0.3122670054 1.9136999846 10.035400391 3.8750000000  -999.250000
 240.18240000 31.116699219 0.2850419879 1.9393000603 10.280300140 3.9038999081  -999.250000
 240.33480000 34.425399780 0.2744170129 1.9543000460 10.380299568 3.9073998928  -999.250000
 240.48720000 38.887500763 0.2822970152 1.9581999779 10.545700073 3.8943998814  -999.250000
 240.63960000 41.256000519 0.3012199998 1.9568001032 10.901100159 3.8761000633  -999.250000
 240.79200000 41.404998779 0.3194860220 1.9548000097 11.368900299 3.8619999886  -999.250000
 240.94440000 39.466598511 0.3183650076 1.9539999962 11.813699722 3.8580000401  -999.250000
 241.09680000 35.239200592 0.2993460000 1.9541000128 12.264300346 3.8652000427  -999.250000
 241.24920000 31.974399567 0.2896789908 1.9535000324 12.872799873 3.8780999184  -999.250000
 241.40160000 31.382600784 0.3064240217 1.9503999949 13.720999718 3.8840999603  -999.250000
 241.55400000 30.977399826 0.3335660100 1.9464999437 14.739899635 3.8647000790  -999.250000
 241.70640000 29.212999344 0.3429370224 1.9453001022 15.710200310 3.8004999161  -999.250000
 241.85880000 26.626899719 0.3386110067 1.9496999979 16.288799286 3.6782999039  -999.250000
 242.01120000 24.450199127 0.3521340191 1.9585999250 16.027500153 3.4962999821  -999.250000
 242.16360000 24.443399429 0.3933120072 1.9671999216 14.522500038 3.2657999992  -999.250000
 242.31600000 25.167200089 0.4174250066 1.9711999893 12.078100204 3.0090000629  -999.250000
 242.46840000 25.176300049 0.3890240192 1.9715999365 9.6246004105 2.7532999516  -999.250000
 242.62080000 24.845600128 0.3410800099 1.9731999636 7.7596001625 2.5234000683  -999.250000
 242.77320000 25.003900528 0.3234239817 1.9781999588 6.5831999779 2.3359999657  -999.250000
 242.92560000 26.263299942 0.3213079870 1.9853000641 5.9555001259 2.1974999905  -999.250000
 243.07800000 26.548200607 0.3000519872 1.9921000004 5.6368999481 2.1056001186  -999.250000
 243.23040000 24.507400513 0.2696859837 1.9969999790 5.3983001709 2.0520000458  -999.250000
 243.38280000 23.534700394 0.2605369985 2.0006999969 5.1441998482 2.0253999233  -999.250000
 243.53520000 25.527200699 0.2799530029 2.0067999363 4.9091000557 2.0146999359  -999.250000
 243.68760000 27.261800766 0.3116439879 2.0183000565 4.7547998428 2.0120000839  -999.250000
 243.84000000 27.471799850 0.3420740068 2.0334000587 4.7234001160 2.0137000084  -999.250000
 243.99240000 27.542400360 0.3689070046 2.0468001366 4.8263998032 2.0199000835  -999.250000
 244.14480000 28.853900909 0.3808070123 2.0539000034 5.0313000679 2.0313000679  -999.250000
 244.29720000 31.486900330 0.3751279712 2.0543000698 5.2557001114 2.0471999645  -999.250000
 244.44960000 31.743299484 0.3748500049 2.0510001183 5.3818001747 2.0632998943  -999.250000
 244.60200000 30.138999939 0.3759540319 2.0480000973 5.3364000320 2.0731999874  -999.250000
 244.75440000 31.534700394 0.3624649942 2.0483000278 5.1703000069 2.0713999271  -999.250000
 244.90680000 35.694198608 0.3449069858 2.0513999462 4.9927000999 2.0569999218  -999.250000
 245.05920000 38.029701233 0.3352800012 2.0546000004 4.8751997948 2.0343999863  -999.250000
 245.21160000 36.081600189 0.3453029990 2.0578000546 4.8508000374 2.0118999481  -999.250000
 245.36400000 31.194700241 0.3863830268 2.0631000996 4.9221000671 1.9982999563  -999.250000
 245.51640000 27.160100937 0.4270099998 2.0710000992 5.0527000427 2.0002000332  -999.250000
 245.66880000 26.915100098 0.4197629988 2.0796999931 5.2066998482 2.0206999779  -999.250000
 245.82120000 29.704099655 0.3761889935 2.0871000290 5.3969998360 2.0604000092  -999.250000
 245.97360000 33.591201782 0.3461019993 2.0923998356 5.6767001152 2.1184999943  -999.250000
 246.12600000 35.682998657 0.3481829762 2.0950000286 6.1104998589 2.1944000721  -999.250000
 246.27840000 33.983798981 0.3638060093 2.0934998989 6.7520999908 2.2867999077  -999.250000
 246.43080000 30.874799728 0.3680730164 2.0875000954 7.5890998840 2.3917999268  -999.250000
 246.58320000 29.754800797 0.3529840112 2.0781002045 8.4713001251 2.4997999668  -999.250000
 246.73560000 29.592399597 0.3331950009 2.0678999424 9.1463003159 2.5936000347  -999.250000
 246.88800000 29.064699173 0.3245370090 2.0599999428 9.3656997681 2.6489000320  -999.250000
 247.04040000 27.239599228 0.3324259818 2.0564999580 8.8641004562 2.6396999359  -999.250000
 247.19280000 24.585399628 0.3529399931 2.0566999912 7.5748000145 2.5497000217  -999.250000
 247.34520000 25.431100845 0.3744490147 2.0592000484 5.9446001053 2.3849999905  -999.250000
 247.49760000 27.699499130 0.3872439861 2.0643999577 4.5149998665 2.1774001122  -999.250000
 247.65000000 27.629199982 0.3868950009 2.0745000839 3.4983000755 1.9696999788  -999.250000
 247.80240000 28.560800552 0.3877040148 2.0922999382 2.8608999252 1.7977999449  -999.250000
 247.95480000 33.761501312 0.4042499959 2.1166000366 2.4969000816 1.6826000214  -999.250000
 248.10720000 43.520900726 0.4253779948 2.1323001385 2.3076000214 1.6322000027  -999.250000
 248.25960000 57.606998444 0.4331380129 2.1131999493 2.2218000889 1.6486999989  -999.250000
 248.41200000 74.318000793 0.4184170067 2.0548000336 2.2011001110 1.7323999405  -999.250000
 248.56440000 90.508697510 0.4022949934 1.9873000383 2.2414999008 1.8832999468  -999.250000
 248.71680000 98.973503113 0.4065169990 1.9344999790 2.3692998886 2.0999000072  -999.250000
 248.86920000 96.757797241 0.4163040221 1.8913000822 2.6354000568 2.3750998974  -999.250000
