# LAS format log file from PETREL
# Project units are specified as depth units
#==================================================================
~Version information
VERS.   2.0:
WRAP.   NO:
#==================================================================
~Well
STRT .m      89.916000000 :
STOP .m      1158.3924000 :
STEP .m     0.15240000 :
NULL .        -999.250000 :
COMP.           : COMPANY
WELL.  Keller 'B' No_ 1   : WELL
FLD.            : FIELD
LOC.            : LOCATION
SRVC.           : SERVICE COMPANY
DATE.  2020-08-19 21:46:58   : Log Export Date {yyyy-MM-dd HH:mm:ss}
PROV.           : PROVINCE
UWI.   Keller 'B' No_ 1   : UNIQUE WELL ID
API.            : API NUMBER
#==================================================================
~Curve
DEPT .m                   : DEPTH
GR .gAPI                  : GR
NPHI .m3/m3               : NPHI
RHOB .g/cm3               : RHOB
RT .ohm.m                 : RT
RM .ohm.m                 : RM
FACIES ._                 : FACIES
~Parameter
#==================================================================
~Ascii
# ...
 792.63240000 75.930496216 0.2312840074 1.6829000711 1.8361999989 2.0945999622  -999.250000
 792.78480000 61.602699280 0.2327409983 1.6808999777 1.8372000456 2.1436998844  -999.250000
 792.93720000 49.526699066 0.2285619974 1.6769000292 1.8248000145 2.2081000805  -999.250000
 793.08960000 43.544898987 0.2207939923 1.6714000702 1.8013000488 2.2734000683  -999.250000
 793.24200000 44.606201172 0.2172809988 1.6678000689 1.7825000286 2.3252999783  -999.250000
 793.39440000 47.173198700 0.2212450057 1.6696999073 1.7790999413 2.3533000946  -999.250000
 793.54680000 45.882499695 0.2260469943 1.6778000593 1.7790000439 2.3536000252  -999.250000
 793.69920000 44.313098907 0.2330739945 1.6895999908 1.7591999769 2.3299999237  -999.250000
 793.85160000 45.774799347 0.2366950065 1.7016999722 1.7122999430 2.2927000523  -999.250000
 794.00400000 48.552200317 0.2219669968 1.7138999701 1.6518000364 2.2557001114  -999.250000
 794.15640000 50.312999725 0.1977660060 1.7306998968 1.6021000147 2.2323000431  -999.250000
 794.30880000 50.550899506 0.1876190007 1.7601999044 1.5831999779 2.2327001095  -999.250000
 794.46120000 47.852699280 0.1792259961 1.8125000000 1.5981999636 2.2616000175  -999.250000
 794.61360000 42.347000122 0.1639380008 1.8969000578 1.6391999722 2.3187999725  -999.250000
 794.76600000 39.973899841 0.1541250050 2.0159001350 1.7009999752 2.3982000351  -999.250000
 794.91840000 42.651401520 0.1592250019 2.1588997841 1.7804000378 2.4879999161  -999.250000
 795.07080000 46.508598328 0.1789340079 2.3026001453 1.8650000095 2.5706000328  -999.250000
 795.22320000 50.472499847 0.1993869990 2.4213998318 1.9338999987 2.6264998913  -999.250000
 795.37560000 52.916198730 0.2023150027 2.4991002083 1.9654999971 2.6401000023  -999.250000
 795.52800000 50.506999969 0.1904509962 2.5357999802 1.9420000315 2.6052999496  -999.250000
 795.68040000 45.041000366 0.1823599935 2.5426001549 1.8652000427 2.5255999565  -999.250000
 795.83280000 42.300201416 0.1897780001 2.5329999924 1.7577999830 2.4091999531  -999.250000
 795.98520000 42.662498474 0.2116729915 2.5178999901 1.6375999451 2.2641999722  -999.250000
 796.13760000 43.222999573 0.2448469996 2.5051000118 1.5080000162 2.0968999863  -999.250000
 796.29000000 44.495700836 0.2866880000 2.4993999004 1.3726999760 1.9140000343  -999.250000
 796.44240000 49.397800446 0.3385869861 2.4991002083 1.2422000170 1.7244000435  -999.250000
 796.59480000 54.659400940 0.3703590035 2.4921998978 1.1232000589 1.5392999649  -999.250000
 796.74720000 54.221401215 0.3671659827 2.4668998718 1.0156999826 1.3690999746  -999.250000
 796.89960000 49.469501495 0.3684599996 2.4260001183 0.9183999896 1.2203999758  -999.250000
 797.05200000 44.810699463 0.3847439885 2.3826000690 0.8309000134 1.0959999561  -999.250000
 797.20440000 42.999698639 0.3963199854 2.3478999138 0.7569000125 0.9955999851  -999.250000
 797.35680000 43.080001831 0.3959040046 2.3275001049 0.6998000145 0.9176999927  -999.250000
 797.50920000 41.674999237 0.3757829964 2.3228001595 0.6572999954 0.8605999947  -999.250000
 797.66160000 38.311100006 0.3509660065 2.3334000111 0.6269999743 0.8233000040  -999.250000
 797.81400000 38.411701202 0.3481600285 2.3564000130 0.6116999984 0.8054000139  -999.250000
 797.96640000 46.137298584 0.3565879762 2.3858001232 0.6154999733 0.8075000048  -999.250000
 798.11880000 57.384601593 0.3489040136 2.4093000889 0.6412000060 0.8309999704  -999.250000
 798.27120000 67.191398621 0.3197720051 2.4053997993 0.6913999915 0.8777999878  -999.250000
 798.42360000 76.051300049 0.2810629904 2.3533999920 0.7663000226 0.9498000145  -999.250000
 798.57600000 84.236999512 0.2520669997 2.2603001595 0.8633000255 1.0478999615  -999.250000
 798.72840000 91.199699402 0.2552419901 2.1621000767 0.9797000289 1.1706000566  -999.250000
 798.88080000 94.220497131 0.2878679931 2.0893998146 1.1116000414 1.3120000362  -999.250000
 799.03320000 90.189201355 0.3212549984 2.0451998711 1.2592999935 1.4611999989  -999.250000
 799.18560000 84.672096252 0.3381499946 2.0076999664 1.4178999662 1.6035000086  -999.250000
 799.33800000 83.362800598 0.3426359892 1.9473999739 1.5642999411 1.7249000072  -999.250000
 799.49040000 83.812103271 0.3408569992 1.8515999317 1.6783000231 1.8170000315  -999.250000
 799.64280000 82.507301331 0.3310720026 1.7308000326 1.7582999468 1.8787000179  -999.250000
 799.79520000 80.019798279 0.3114449978 1.6011999846 1.8128999472 1.9149999619  -999.250000
 799.94760000 79.087600708 0.2959530056 1.4768999815 1.8506000042 1.9334000349  -999.250000
 800.10000000 81.146797180 0.2918980122 1.3719999790 1.8772000074 1.9416999817  -999.250000
 800.25240000 85.010803223 0.2913430035 1.2973999977 1.8950999975 1.9469000101  -999.250000
 800.40480000 88.271598816 0.2974770069 1.2554999590 1.9062000513 1.9548000097  -999.250000
 800.55720000 91.807701111 0.3288940191 1.2400000095 1.9134000540 1.9693000317  -999.250000
 800.70960000 95.255897522 0.3891159892 1.2418000698 1.9217000008 1.9922000170  -999.250000
 800.86200000 94.240303040 0.4236289859 1.2545999289 1.9356000423 2.0234000683  -999.250000
 801.01440000 93.334800720 0.4003039896 1.2768000364 1.9560999870 2.0601000786  -999.250000
 801.16680000 97.076797485 0.3567750156 1.3099000454 1.9780999422 2.0977001190  -999.250000
 801.31920000 98.867401123 0.3239049911 1.3562999964 1.9955999851 2.1312000751  -999.250000
 801.47160000 93.618202209 0.2969409823 1.4169000387 2.0093998909 2.1570000648  -999.250000
 801.62400000 88.684799194 0.2801849842 1.4930000305 2.0260000229 2.1747000217  -999.250000
 801.77640000 91.012496948 0.2860080004 1.5877000093 2.0483000278 2.1863000393  -999.250000
 801.92880000 94.700500488 0.3122180104 1.7039999962 2.0701999664 2.1949000359  -999.250000
 802.08120000 95.092697144 0.3340069950 1.8374000788 2.0804998875 2.2025001049  -999.250000
 802.23360000 92.788803101 0.3289860189 1.9736000299 2.0769000053 2.2105998993  -999.250000
 802.38600000 87.447196960 0.3148530126 2.0920000076 2.0713000298 2.2197999954  -999.250000
 802.53840000 83.137702942 0.3120400012 2.1778998375 2.0771000385 2.2307000160  -999.250000
 802.69080000 80.839897156 0.3189080060 2.2323000431 2.0969998837 2.2435998917  -999.250000
 802.84320000 78.336303711 0.3308850229 2.2685999870 2.1256999969 2.2583999634  -999.250000
 802.99560000 77.540298462 0.3412929773 2.2976000309 2.1586000919 2.2753000259  -999.250000
 803.14800000 80.492500305 0.3358560205 2.3206000328 2.1942999363 2.2957000732  -999.250000
 803.30040000 87.094100952 0.3157469928 2.3333001137 2.2323999405 2.3218998909  -999.250000
 803.45280000 92.430900574 0.2951909900 2.3326001167 2.2718000412 2.3559999466  -999.250000
 803.60520000 93.854698181 0.2764170170 2.3222999573 2.3125000000 2.3982999325  -999.250000
 803.75760000 91.277297974 0.2549810112 2.3139998913 2.3559000492 2.4460000992  -999.250000
 803.91000000 85.264999390 0.2329359949 2.3186001778 2.4026999474 2.4937000275  -999.250000
 804.06240000 80.249496460 0.2262030095 2.3375000954 2.4488000870 2.5341000557  -999.250000
 804.21480000 79.772499084 0.2434680015 2.3611001968 2.4860000610 2.5604999065  -999.250000
 804.36720000 81.589401245 0.2637929916 2.3752999306 2.5083999634 2.5694999695  -999.250000
 804.51960000 80.905899048 0.2753069997 2.3718998432 2.5158998966 2.5636000633  -999.250000
 804.67200000 76.417999268 0.2850539982 2.3518998623 2.5130000114 2.5522999763  -999.250000
 804.82440000 73.687103271 0.3014909923 2.3166000843 2.5097999573 2.5506999493  -999.250000
 804.97680000 76.354301453 0.3059780002 2.2639999390 2.5211999416 2.5780000687  -999.250000
 805.12920000 83.043502808 0.2870379984 2.1986000538 2.5648000240 2.6568000317  -999.250000
 805.28160000 90.846702576 0.2583450079 2.1363999844 2.6612000465 2.8132998943  -999.250000
 805.43400000 91.713600159 0.2132220119 2.0987000465 2.8280000687 3.0785000324  -999.250000
 805.58640000 79.204299927 0.1536239982 2.0999000072 3.0696001053 3.4900000095  -999.250000
 805.73880000 60.400501251 0.1104499996 2.1406002045 3.3880999088 4.0921001434  -999.250000
