# LAS format log file from PETREL
# Project units are specified as depth units
#==================================================================
~Version information
VERS.   2.0:
WRAP.   NO:
#==================================================================
~Well
STRT .m      89.916000000 :
STOP .m      1158.3924000 :
STEP .m     0.15240000 :
NULL .        -999.250000 :
COMP.           : COMPANY
WELL.  Keller 'B' No_ 1   : WELL
FLD.            : FIELD
LOC.            : LOCATION
SRVC.           : SERVICE COMPANY
DATE.  2020-08-19 21:46:58   : Log Export Date {yyyy-MM-dd HH:mm:ss}
PROV.           : PROVINCE
UWI.   Keller 'B' No_ 1   : UNIQUE WELL ID
API.            : API NUMBER
#==================================================================
~Curve
DEPT .m                   : DEPTH
GR .gAPI                  : GR
NPHI .m3/m3               : NPHI
RHOB .g/cm3               : RHOB
RT .ohm.m                 : RT
RM .ohm.m                 : RM
FACIES ._                 : FACIES
~Parameter
#==================================================================
~Ascii
# ...
 925.22040000 52.926700592 0.1431999952 2.5999999046 4.2838001251 4.3309001923  -999.250000
 925.37280000 65.916000366 0.1678639948 2.5961000919 4.0850000381 4.0577001572  -999.250000
 925.52520000 79.719902039 0.1939800084 2.5810999870 3.8612000942 3.7794001102  -999.250000
 925.67760000 88.850799561 0.2217089981 2.5618000031 3.6730000973 3.5399000645  -999.250000
 925.83000000 87.745597839 0.2295439839 2.5421001911 3.5406000614 3.3740999699  -999.250000
 925.98240000 76.224098206 0.1938990057 2.5239999294 3.4565000534 3.3041999340  -999.250000
 926.13480000 63.126201630 0.1456300020 2.5141000748 3.4330999851 3.3454999924  -999.250000
 926.28720000 57.221099854 0.1115769967 2.5220000744 3.4969000816 3.5114998817  -999.250000
 926.43960000 55.036399841 0.0860709921 2.5501000881 3.6598999500 3.8155000210  -999.250000
 926.59200000 49.336200714 0.0730499998 2.5889999866 3.9182000160 4.2666997910  -999.250000
 926.74440000 44.381599426 0.0724779963 2.6226999760 4.2593998909 4.8600997925  -999.250000
 926.89680000 45.382999420 0.0780070052 2.6394999027 4.6848998070 5.5631999969  -999.250000
 927.04920000 52.092998505 0.0836919993 2.6405000687 5.2435002327 6.3018999100  -999.250000
 927.20160000 61.780101776 0.0887749940 2.6348998547 6.0219001770 6.9502000809  -999.250000
 927.35400000 65.975303650 0.0923459977 2.6288998127 6.9594998360 7.3365001678  -999.250000
 927.50640000 59.083900452 0.0944999978 2.6238000393 7.5834999084 7.3052000999  -999.250000
 927.65880000 47.567100525 0.0993819982 2.6187000275 7.3387999535 6.8354997635  -999.250000
 927.81120000 41.518699646 0.1098359972 2.6128001213 6.3790001869 6.0920000076  -999.250000
 927.96360000 42.116901398 0.1269050092 2.6058001518 5.3632001877 5.3095002174  -999.250000
 928.11600000 45.007400513 0.1502420008 2.5988998413 4.6851000786 4.6504001617  -999.250000
 928.26840000 47.685901642 0.1662980020 2.5928997993 4.3375000954 4.1710000038  -999.250000
 928.42080000 47.688899994 0.1584959924 2.5875000954 4.1469998360 3.8587000370  -999.250000
 928.57320000 45.221000671 0.1393309981 2.5810000896 3.9546999931 3.6717000008  -999.250000
 928.72560000 45.025299072 0.1276679933 2.5726001263 3.6979000568 3.5590999126  -999.250000
 928.87800000 47.660499573 0.1315169930 2.5627000332 3.4193000793 3.4742999077  -999.250000
 929.03040000 48.633098602 0.1497450024 2.5521001816 3.2104001045 3.3833999634  -999.250000
 929.18280000 48.505500793 0.1701290011 2.5426001549 3.1066000462 3.2711999416  -999.250000
 929.33520000 49.330600739 0.1776580065 2.5373001099 3.0545001030 3.1391999722  -999.250000
 929.48760000 49.146701813 0.1752319932 2.5374000072 2.9869999886 2.9992001057  -999.250000
 929.64000000 48.130901337 0.1756049991 2.5401000977 2.8938999176 2.8673000336  -999.250000
 929.79240000 48.722301483 0.1851609945 2.5418999195 2.8085999489 2.7583000660  -999.250000
 929.94480000 51.909198761 0.1945929974 2.5406999588 2.7623000145 2.6819999218  -999.250000
 930.09720000 57.978401184 0.1899489909 2.5368001461 2.7604999542 2.6398000717  -999.250000
 930.24960000 66.463302612 0.1805209965 2.5320000648 2.7776000500 2.6242001057  -999.250000
 930.40200000 74.012001038 0.1830400079 2.5278000832 2.7711999416 2.6203000546  -999.250000
 930.55440000 78.004096985 0.2028010041 2.5241000652 2.7179000378 2.6110999584  -999.250000
 930.70680000 81.896499634 0.2322800010 2.5213000774 2.6317999363 2.5850999355  -999.250000
 930.85920000 91.814002991 0.2525430024 2.5215001106 2.5443999767 2.5411999226  -999.250000
 931.01160000 105.87380219 0.2620890141 2.5274999142 2.4769999981 2.4872000217  -999.250000
 931.16400000 111.00569916 0.2697579861 2.5406000614 2.4307999611 2.4326000214  -999.250000
 931.31640000 101.88909912 0.2834059894 2.5566999912 2.3898000717 2.3826000690  -999.250000
 931.46880000 87.199203491 0.2958169878 2.5673000813 2.3318998814 2.3348999023  -999.250000
 931.62120000 78.588798523 0.3044170141 2.5664999485 2.2451000214 2.2809998989  -999.250000
 931.77360000 84.742797852 0.3152740002 2.5566000938 2.1335999966 2.2121999264  -999.250000
 931.92600000 100.77110291 0.3258860111 2.5441999435 2.0120000839 2.1270000935  -999.250000
 932.07840000 110.98300171 0.3308240175 2.5322999954 1.8992999792 2.0362999439  -999.250000
 932.23080000 106.44020081 0.3274379969 2.5209000111 1.8166999817 1.9607000351  -999.250000
 932.38320000 94.507896423 0.3038839996 2.5132000446 1.7855999470 1.9226000309  -999.250000
 932.53560000 83.989303589 0.2610300183 2.5160000324 1.8173999786 1.9409999847  -999.250000
 932.68800000 76.548500061 0.2044000030 2.5333001614 1.9027999640 2.0313999653  -999.250000
 932.84040000 69.277297974 0.1579609960 2.5611999035 2.0204999447 2.2088000774  -999.250000
 932.99280000 62.025600433 0.1291159987 2.5901999474 2.1638000011 2.4914000034  -999.250000
 933.14520000 57.626399994 0.1098770052 2.6122000217 2.3598999977 2.9026000500  -999.250000
 933.29760000 52.565200806 0.0977040008 2.6241998672 2.6723999977 3.4709000587  -999.250000
 933.45000000 45.238700867 0.0912019983 2.6277999878 3.2035000324 4.2228999138  -999.250000
 933.60240000 40.005599976 0.0891749933 2.6263999939 4.0455999374 5.1645002365  -999.250000
 933.75480000 36.853698730 0.0914009959 2.6241998672 5.1798000336 6.2481999397  -999.250000
 933.90720000 34.881900787 0.0968280062 2.6246001720 6.4141998291 7.3481998444  -999.250000
 934.05960000 36.666301727 0.1028489992 2.6287000179 7.4060001373 8.2853002548  -999.250000
 934.21200000 42.476898193 0.1055920050 2.6347000599 7.9404001236 8.9179000854  -999.250000
 934.36440000 48.174499512 0.1031040028 2.6391999722 8.1576004028 9.2215995789  -999.250000
 934.51680000 52.359798431 0.0988560021 2.6401998997 8.2771997452 9.2791996002  -999.250000
 934.66920000 56.538898468 0.0974619985 2.6388998032 8.3823995590 9.2067003250  -999.250000
 934.82160000 61.172000885 0.1005519927 2.6378998756 8.4820995331 9.0936002731  -999.250000
 934.97400000 66.164802551 0.1044320017 2.6382000446 8.5555000305 8.9819002151  -999.250000
 935.12640000 68.190498352 0.1043560058 2.6388001442 8.5557003021 8.8723001480  -999.250000
 935.27880000 68.065002441 0.1036680043 2.6376001835 8.4575004578 8.7434997559  -999.250000
 935.43120000 71.016899109 0.1059300005 2.6331999302 8.2815999985 8.5747995377  -999.250000
 935.58360000 75.747497559 0.1065219939 2.6256000996 8.0886001587 8.3591995239  -999.250000
 935.73600000 77.031501770 0.1031949967 2.6173999310 7.9622001648 8.0993995667  -999.250000
 935.88840000 72.347396851 0.1013860032 2.6123998165 7.9109997749 7.7957000732  -999.250000
 936.04080000 66.814697266 0.1048560068 2.6123998165 7.8105001450 7.4415001869  -999.250000
 936.19320000 66.792602539 0.1130539998 2.6146001816 7.5198998451 7.0371999741  -999.250000
 936.34560000 68.243598938 0.1249009967 2.6135001183 7.0391998291 6.6079998016  -999.250000
 936.49800000 69.014297485 0.1393550038 2.6068000793 6.5343999863 6.2058000565  -999.250000
 936.65040000 71.836402893 0.1492879987 2.5991001129 6.1992001534 5.8885998726  -999.250000
 936.80280000 73.929100037 0.1429589987 2.5971000195 6.0989999771 5.6963000298  -999.250000
 936.95520000 69.539398193 0.1265629977 2.6019999981 6.1518998146 5.6389999390  -999.250000
 937.10760000 60.006500244 0.1159690022 2.6087000370 6.2177000046 5.6943001747  -999.250000
 937.26000000 52.989601135 0.1143789962 2.6123001575 6.2041997910 5.8087000847  -999.250000
 937.41240000 51.950901031 0.1159979999 2.6108000278 6.1276001930 5.9045000076  -999.250000
 937.56480000 53.989700317 0.1207129955 2.6046001911 6.0638999939 5.9015998840  -999.250000
 937.71720000 56.347900391 0.1361449957 2.5936999321 6.0156002045 5.7533001900  -999.250000
 937.86960000 60.428798676 0.1625600010 2.5789999962 5.8945999146 5.4725999832  -999.250000
 938.02200000 69.646400452 0.1825039983 2.5641999245 5.6673998833 5.1203999519  -999.250000
 938.17440000 84.366798401 0.1904649884 2.5541999340 5.3972997665 4.7649002075  -999.250000
 938.32680000 96.100303650 0.2104800045 2.5508000851 5.1283998489 4.4481000900  -999.250000
