# LAS format log file from PETREL
# Project units are specified as depth units
#==================================================================
~Version information
VERS.   2.0:
WRAP.   NO:
#==================================================================
~Well
STRT .m      89.916000000 :
STOP .m      1158.3924000 :
STEP .m     0.15240000 :
NULL .        -999.250000 :
COMP.           : COMPANY
WELL.  Keller 'B' No_ 1   : WELL
FLD.            : FIELD
LOC.            : LOCATION
SRVC.           : SERVICE COMPANY
DATE.  2020-08-19 21:46:58   : Log Export Date {yyyy-MM-dd HH:mm:ss}
PROV.           : PROVINCE
UWI.   Keller 'B' No_ 1   : UNIQUE WELL ID
API.            : API NUMBER
#==================================================================
~Curve
DEPT .m                   : DEPTH
GR .gAPI                  : GR
NPHI .m3/m3               : NPHI
RHOB .g/cm3               : RHOB
RT .ohm.m                 : RT
RM .ohm.m                 : RM
FACIES ._                 : FACIES
~Parameter
#==================================================================
~Ascii
# ...
 646.78560000 54.762599945 0.1216519997 2.3457000256 3.6294999123 3.7167000771  -999.250000
 646.93800000 50.771800995 0.1064439937 2.3726000786 3.9024000168 4.1679000854  -999.250000
 647.09040000 48.915798187 0.0995680019 2.4195001125 4.3007001877 4.6992998123  -999.250000
 647.24280000 46.539600372 0.0974880010 2.4673998356 4.7827000618 5.2147998810  -999.250000
 647.39520000 40.859298706 0.1015639976 2.4963998795 5.2720999718 5.5668997765  -999.250000
 647.54760000 37.269599915 0.1191430017 2.4953999519 5.6515998840 5.6441001892  -999.250000
 647.70000000 41.619899750 0.1636700034 2.4681999683 5.8115000725 5.4650998116  -999.250000
 647.85240000 51.881500244 0.2429030091 2.4326999187 5.7790999413 5.1549000740  -999.250000
 648.00480000 62.305198669 0.2781830132 2.4098000526 5.6454000473 4.8428997993  -999.250000
 648.15720000 67.097099304 0.2819179893 2.4078998566 5.4260997772 4.6075000763  -999.250000
 648.30960000 68.510200500 0.2610339820 2.4156999588 5.1310000420 4.4839000702  -999.250000
 648.46200000 74.027099609 0.2141799927 2.4130001068 4.8612999916 4.4867000580  -999.250000
 648.61440000 82.606201172 0.1649039984 2.3988001347 4.7347002029 4.6233000755  -999.250000
 648.76680000 87.140197754 0.1362399906 2.3956999779 4.8001999855 4.8941998482  -999.250000
 648.91920000 79.461502075 0.1146949977 2.4203999043 5.0493998528 5.2828998566  -999.250000
 649.07160000 63.535198212 0.1019940004 2.4632999897 5.4383001328 5.7432999611  -999.250000
 649.22400000 53.281501770 0.0993560031 2.4990000725 5.9300999641 6.1964998245  -999.250000
 649.37640000 48.633499146 0.1030599996 2.5108001232 6.5373001099 6.5489001274  -999.250000
 649.52880000 45.642799377 0.1109980047 2.5037000179 7.2319998741 6.7259998322  -999.250000
 649.68120000 44.932701111 0.1170549989 2.4904999733 7.8365998268 6.6978998184  -999.250000
 649.83360000 49.246200562 0.1172039956 2.4767000675 8.1459999084 6.4819002151  -999.250000
 649.98600000 56.306499481 0.1221489981 2.4623999596 8.0738000870 6.1259999275  -999.250000
 650.13840000 58.526100159 0.1378850043 2.4500000477 7.6378998756 5.6869001389  -999.250000
 650.29080000 55.589000702 0.1598870009 2.4428000450 6.9735999107 5.2126998901  -999.250000
 650.44320000 52.157600403 0.1935009956 2.4389998913 6.2501001358 4.7383999825  -999.250000
 650.59560000 52.645000458 0.2373369932 2.4321000576 5.5618000031 4.2884998322  -999.250000
 650.74800000 62.348300934 0.2578749955 2.4175000191 4.9714999199 3.8784999847  -999.250000
 650.90040000 77.567802429 0.2650270164 2.4005000591 4.4906001091 3.5143001080  -999.250000
 651.05280000 87.623901367 0.2730059922 2.3929998875 4.0432000160 3.1939001083  -999.250000
 651.20520000 89.157501221 0.2875050008 2.3973999023 3.5715999603 2.9124999046  -999.250000
 651.35760000 86.350303650 0.3061650097 2.3959999084 3.1147999763 2.6693000793  -999.250000
 651.51000000 82.264701843 0.3203139901 2.3664000034 2.7335000038 2.4693999290  -999.250000
 651.66240000 79.313903809 0.3267879784 2.3157000542 2.4586000443 2.3211998940  -999.250000
 651.81480000 79.920997620 0.3293099999 2.2756001949 2.2932999134 2.2321999073  -999.250000
 651.96720000 83.485397339 0.3111619949 2.2638998032 2.2202999592 2.2054998875  -999.250000
 652.11960000 87.429000854 0.2710379958 2.2750999928 2.2146999836 2.2393000126  -999.250000
 652.27200000 89.210197449 0.2304960042 2.2962000370 2.2506000996 2.3259000778  -999.250000
 652.42440000 85.041397095 0.1987960041 2.3190000057 2.3094000816 2.4484000206  -999.250000
 652.57680000 76.437500000 0.1867859960 2.3398001194 2.3919999599 2.5797998905  -999.250000
 652.72920000 70.303199768 0.1900589913 2.3552000523 2.5043001175 2.6874001026  -999.250000
 652.88160000 67.089996338 0.2059499919 2.3591001034 2.6368000507 2.7481000423  -999.250000
 653.03400000 65.224998474 0.2231150120 2.3456001282 2.7692000866 2.7650001049  -999.250000
 653.18640000 61.452999115 0.2273100019 2.3198997974 2.8838999271 2.7686998844  -999.250000
 653.33880000 55.990699768 0.1977259964 2.3006999493 2.9828000069 2.8029999733  -999.250000
 653.49120000 53.961799622 0.1358219981 2.3071000576 3.1003000736 2.9091000557  -999.250000
 653.64360000 51.419799805 0.0832580030 2.3454999924 3.2743999958 3.1189000607  -999.250000
 653.79600000 44.116699219 0.0503299981 2.4088001251 3.5114998817 3.4489998817  -999.250000
 653.94840000 37.115898132 0.0358049981 2.4793999195 3.7931001186 3.8849999905  -999.250000
 654.10080000 32.235198975 0.0322090015 2.5348000526 4.1083998680 4.3516998291  -999.250000
 654.25320000 29.021900177 0.0403399989 2.5583000183 4.4579000473 4.7005000114  -999.250000
 654.40560000 32.586399078 0.0645859987 2.5498998165 4.8105998039 4.7762999535  -999.250000
 654.55800000 44.428001404 0.1135009974 2.5253000259 5.0553002357 4.5465002060  -999.250000
 654.71040000 58.724300385 0.1697260141 2.5034999847 5.0047001839 4.1256999969  -999.250000
 654.86280000 71.410797119 0.2267550081 2.4948000908 4.5826001167 3.6638000011  -999.250000
 655.01520000 80.021003723 0.2659779787 2.4948999882 3.9862000942 3.2562999725  -999.250000
 655.16760000 82.635002136 0.2883349955 2.4876999855 3.4437000751 2.9386999607  -999.250000
 655.32000000 83.845001221 0.2896540165 2.4600000381 3.0411000252 2.7135000229  -999.250000
 655.47240000 87.959297180 0.2807199955 2.4216001034 2.7820999622 2.5710000992  -999.250000
 655.62480000 88.769897461 0.2646009922 2.4018001556 2.6361000538 2.4988999367  -999.250000
 655.77720000 81.365997314 0.2350350022 2.4148001671 2.5585000515 2.4851000309  -999.250000
 655.92960000 72.378799438 0.1957360059 2.4442999363 2.5241000652 2.5183000565  -999.250000
 656.08200000 68.166198730 0.1854450107 2.4635000229 2.5362999439 2.5875000954  -999.250000
 656.23440000 67.931098938 0.2024089992 2.4583001137 2.6024000645 2.6821999550  -999.250000
 656.38680000 67.020698547 0.2080760002 2.4333000183 2.7149999142 2.7913000584  -999.250000
 656.53920000 65.743103027 0.1897489876 2.4036002159 2.8522999287 2.9021000862  -999.250000
 656.69160000 67.344802856 0.1876219958 2.3838999271 2.9802000523 3.0007998943  -999.250000
 656.84400000 70.932296753 0.2141460031 2.3798999786 3.0638999939 3.0741999149  -999.250000
 656.99640000 68.933898926 0.2425499856 2.3861999512 3.0929000378 3.1138000488  -999.250000
 657.14880000 59.793598175 0.2574859858 2.3933999538 3.0818998814 3.1189999580  -999.250000
 657.30120000 52.082901001 0.2677069902 2.3965001106 3.0529999733 3.0973000526  -999.250000
 657.45360000 52.903400421 0.2744469941 2.3971002102 3.0251998901 3.0615999699  -999.250000
 657.60600000 58.373100281 0.2768349946 2.3978998661 3.0081000328 3.0267000198  -999.250000
 657.75840000 64.500000000 0.2762330174 2.3976001740 3.0020000935 3.0076999664  -999.250000
 657.91080000 73.684799194 0.2698870003 2.3907999992 3.0074000359 3.0199000835  -999.250000
 658.06320000 84.174003601 0.2647300065 2.3733000755 3.0381000042 3.0799000263  -999.250000
 658.21560000 92.624000549 0.2603790164 2.3489999771 3.1147999763 3.2067999840  -999.250000
 658.36800000 94.186996460 0.2000849843 2.3286001682 3.2551999092 3.4256000519  -999.250000
 658.52040000 85.372100830 0.1043889970 2.3222999573 3.4863998890 3.7713000774  -999.250000
 658.67280000 76.301200867 0.0496560000 2.3369998932 3.8545000553 4.2904000282  -999.250000
 658.82520000 68.959098816 0.0238799993 2.3756000996 4.4004001617 5.0338997841  -999.250000
 658.97760000 51.566200256 0.0031040001 2.4308998585 5.1389999390 6.0194001198  -999.250000
 659.13000000 32.193500519 -0.006536000 2.4836001396 6.0433998108 7.1381001472  -999.250000
 659.28240000 24.019399643 -0.004764000 2.5127999783 7.0079002380 8.0412998199  -999.250000
 659.43480000 27.189800262 0.0109930001 2.5121998787 7.8396000862 8.2578001022  -999.250000
 659.58720000 34.980300903 0.0331510007 2.4903998375 8.2761001587 7.6600999832  -999.250000
 659.73960000 38.543899536 0.0613030009 2.4598999023 8.0995998383 6.6142001152  -999.250000
 659.89200000 38.195301056 0.1036299989 2.4314999580 7.4148001671 5.5468001366  -999.250000
