# LAS format log file from PETREL
# Project units are specified as depth units
#==================================================================
~Version information
VERS.   2.0:
WRAP.   NO:
#==================================================================
~Well
STRT .m      89.916000000 :
STOP .m      1158.3924000 :
STEP .m     0.15240000 :
NULL .        -999.250000 :
COMP.           : COMPANY
WELL.  Keller 'B' No_ 1   : WELL
FLD.            : FIELD
LOC.            : LOCATION
SRVC.           : SERVICE COMPANY
DATE.  2020-08-19 21:46:58   : Log Export Date {yyyy-MM-dd HH:mm:ss}
PROV.           : PROVINCE
UWI.   Keller 'B' No_ 1   : UNIQUE WELL ID
API.            : API NUMBER
#==================================================================
~Curve
DEPT .m                   : DEPTH
GR .gAPI                  : GR
NPHI .m3/m3               : NPHI
RHOB .g/cm3               : RHOB
RT .ohm.m                 : RT
RM .ohm.m                 : RM
FACIES ._                 : FACIES
~Parameter
#==================================================================
~Ascii
# ...
 713.07960000 96.091400146 0.3424209952 2.3153998852 1.7789000273 1.8543000221  -999.250000
 713.23200000 90.395301819 0.3023940027 2.3363001347 1.7236000299 1.8380000591  -999.250000
 713.38440000 81.318298340 0.2863030136 2.3488998413 1.6845999956 1.8365000486  -999.250000
 713.53680000 76.560997009 0.2951370180 2.3475999832 1.6657999754 1.8486000299  -999.250000
 713.68920000 81.603401184 0.3014650047 2.3301000595 1.6632000208 1.8726999760  -999.250000
 713.84160000 92.227096558 0.2923069894 2.2978000641 1.6669000387 1.9072999954  -999.250000
 713.99400000 102.65959930 0.2825469971 2.2585999966 1.6739000082 1.9512000084  -999.250000
 714.14640000 108.05580139 0.2775810063 2.2251999378 1.6944999695 2.0034999847  -999.250000
 714.29880000 105.46980286 0.2685329914 2.2068998814 1.7382999659 2.0631999969  -999.250000
 714.45120000 92.571296692 0.2400429845 2.2046999931 1.7999999523 2.1280999184  -999.250000
 714.60360000 76.605201721 0.1871809959 2.2123000622 1.8643000126 2.1967000961  -999.250000
 714.75600000 67.863502502 0.1565999985 2.2207000256 1.9234000444 2.2699999809  -999.250000
 714.90840000 65.877899170 0.1452260017 2.2223999500 1.9881000519 2.3522999287  -999.250000
 715.06080000 68.711097717 0.1375569999 2.2155001163 2.0826001167 2.4488000870  -999.250000
 715.21320000 70.725997925 0.1306789964 2.2046000957 2.2207000256 2.5604999065  -999.250000
 715.36560000 68.571701050 0.1296209991 2.1981000900 2.3759999275 2.6793000698  -999.250000
 715.51800000 69.076896667 0.1325210035 2.2009999752 2.5009000301 2.7862000465  -999.250000
 715.67040000 70.888801575 0.1348039955 2.2118999958 2.5676000118 2.8561000824  -999.250000
 715.82280000 69.775703430 0.1388199925 2.2235000134 2.5687999725 2.8698000908  -999.250000
 715.97520000 70.212997437 0.1512220055 2.2283999920 2.5100998878 2.8255999088  -999.250000
 716.12760000 73.432800293 0.1765780002 2.2251000404 2.4165999889 2.7409999371  -999.250000
 716.28000000 77.434700012 0.2188120037 2.2165000439 2.3185000420 2.6414000988  -999.250000
 716.43240000 78.618103027 0.2586719990 2.2065000534 2.2272999287 2.5473999977  -999.250000
 716.58480000 72.572402954 0.2782099843 2.1979999542 2.1431000233 2.4695000648  -999.250000
 716.73720000 61.212898254 0.2751770020 2.1931998730 2.0710000992 2.4094998837  -999.250000
 716.88960000 50.228199005 0.2652199864 2.1921999454 2.0144999027 2.3647999763  -999.250000
 717.04200000 44.492900848 0.2603909969 2.1936001778 1.9792000055 2.3327999115  -999.250000
 717.19440000 45.245998383 0.2618609965 2.1966001987 1.9829000235 2.3138999939  -999.250000
 717.34680000 51.010501862 0.2591809928 2.2013998032 2.0401999950 2.3113999367  -999.250000
 717.49920000 58.848300934 0.2420299947 2.2084999084 2.1510999203 2.3294999599  -999.250000
 717.65160000 63.607200623 0.2197610140 2.2178997993 2.3015999794 2.3703000546  -999.250000
 717.80400000 66.137298584 0.2053660005 2.2296998501 2.4546000957 2.4296998978  -999.250000
 717.95640000 67.875900269 0.1924220026 2.2441999912 2.5592999458 2.4958000183  -999.250000
 718.10880000 66.454498291 0.1782290041 2.2591001987 2.5924000740 2.5481998920  -999.250000
 718.26120000 61.987701416 0.1772610098 2.2690000534 2.5657000542 2.5622999668  -999.250000
 718.41360000 59.735900879 0.2042239904 2.2697000504 2.4909999371 2.5157999992  -999.250000
 718.56600000 63.591999054 0.2467919886 2.2638998032 2.3599998951 2.3977000713  -999.250000
 718.71840000 68.349899292 0.2765730023 2.2573001385 2.1552000046 2.2156000137  -999.250000
 718.87080000 66.925697327 0.3014799953 2.2513999939 1.8921999931 1.9960000515  -999.250000
 719.02320000 61.368198395 0.3191539943 2.2426002026 1.6315000057 1.7733999491  -999.250000
 719.17560000 58.677700043 0.3350389898 2.2278997898 1.4161000252 1.5762000084  -999.250000
 719.32800000 56.859798431 0.3516570032 2.2098999023 1.2446999550 1.4198000431  -999.250000
 719.48040000 53.801799774 0.3420239985 2.1946001053 1.1060999632 1.3090000153  -999.250000
 719.63280000 54.007900238 0.3074850142 2.1860001087 1.0049999952 1.2436000109  -999.250000
 719.78520000 59.336799622 0.2830660045 2.1843998432 0.9531999826 1.2229000330  -999.250000
 719.93760000 65.865600586 0.2745490074 2.1888000965 0.9574000239 1.2479000092  -999.250000
 720.09000000 69.757102966 0.2602410018 2.1981999874 1.0162999630 1.3220000267  -999.250000
 720.24240000 70.081497192 0.2204229981 2.2107999325 1.1210999489 1.4492000341  -999.250000
 720.39480000 64.569198608 0.1722390056 2.2231001854 1.2628999949 1.6310000420  -999.250000
 720.54720000 53.951801300 0.1526030004 2.2314000130 1.4409999847 1.8583999872  -999.250000
 720.69960000 45.557701111 0.1487329900 2.2330000401 1.6521999836 2.1041998863  -999.250000
 720.85200000 40.919601440 0.1528339982 2.2273001671 1.8698999882 2.3229000568  -999.250000
 721.00440000 38.141201019 0.1652099937 2.2172000408 2.0492000580 2.4704999924  -999.250000
 721.15680000 38.969699860 0.1800720096 2.2081999779 2.1665000916 2.5346000195  -999.250000
 721.30920000 43.301200867 0.1788260043 2.2043998241 2.2306001186 2.5413999557  -999.250000
 721.46160000 49.871700287 0.1657599956 2.2053999901 2.2669999599 2.5343999863  -999.250000
 721.61400000 57.509899139 0.1584970057 2.2072999477 2.3041000366 2.5513999462  -999.250000
 721.76640000 65.643798828 0.1565999985 2.2077000141 2.3629999161 2.6149001122  -999.250000
 721.91880000 72.077201843 0.1538410038 2.2076001167 2.4526998997 2.7318000793  -999.250000
 722.07120000 74.958503723 0.1479550004 2.2096998692 2.5713000298 2.8935999870  -999.250000
 722.22360000 75.184097290 0.1415790021 2.2167999744 2.7105000019 3.0764000416  -999.250000
 722.37600000 73.109199524 0.1402949989 2.2308998108 2.8661000729 3.2455000877  -999.250000
 722.52840000 69.991798401 0.1440310031 2.2511000633 3.0346000195 3.3682999611  -999.250000
 722.68080000 64.073097229 0.1475210041 2.2732000351 3.1956999302 3.4289999008  -999.250000
 722.83320000 56.001598358 0.1488279998 2.2929999828 3.3164000511 3.4335000515  -999.250000
 722.98560000 50.948101044 0.1549469978 2.3086998463 3.3777000904 3.4012999535  -999.250000
 723.13800000 48.684501648 0.1631039977 2.3198997974 3.3789999485 3.3529000282  -999.250000
 723.29040000 47.709598541 0.1604129970 2.3273999691 3.3359000683 3.3036000729  -999.250000
 723.44280000 50.571201324 0.1539309919 2.3310999870 3.2795000076 3.2627999783  -999.250000
 723.59520000 55.573398590 0.1536709964 2.3285000324 3.2414000034 3.2372000217  -999.250000
 723.74760000 56.449001312 0.1533539891 2.3173999786 3.2372000217 3.2330000401  -999.250000
 723.90000000 54.135601044 0.1437209994 2.3003001213 3.2660999298 3.2564001083  -999.250000
 724.05240000 55.266498566 0.1350229979 2.2821002007 3.3229000568 3.3120000362  -999.250000
 724.20480000 59.461498260 0.1358940005 2.2666001320 3.4065999985 3.4003999233  -999.250000
 724.35720000 63.535701752 0.1420349926 2.2562999725 3.5160000324 3.5164999962  -999.250000
 724.50960000 62.855899811 0.1482279897 2.2516000271 3.6377999783 3.6496999264  -999.250000
 724.66200000 57.674598694 0.1532839984 2.2508997917 3.7553999424 3.7857000828  -999.250000
 724.81440000 54.747299194 0.1541040093 2.2523000240 3.8643999100 3.9119000435  -999.250000
 724.96680000 56.495098114 0.1512349993 2.2555000782 3.9658000469 4.0236001015  -999.250000
 725.11920000 59.856700897 0.1531429887 2.2603998184 4.0659999847 4.1275000572  -999.250000
 725.27160000 63.144001007 0.1651009917 2.2657999992 4.1886000633 4.2407999039  -999.250000
 725.42400000 66.914001465 0.1785610020 2.2693998814 4.3587999344 4.3843002319  -999.250000
 725.57640000 68.246101379 0.1689440012 2.2695000172 4.5748000145 4.5732002258  -999.250000
 725.72880000 66.574096680 0.1408409923 2.2668001652 4.8090000153 4.8084998131  -999.250000
 725.88120000 63.501701355 0.1188990027 2.2638998032 5.0257000923 5.0734000206  -999.250000
 726.03360000 58.668598175 0.1112819985 2.2627999783 5.1993999481 5.3368000984  -999.250000
 726.18600000 56.194999695 0.1175339967 2.2641000748 5.3464999199 5.5678000450  -999.250000
