# LAS format log file from PETREL
# Project units are specified as depth units
#==================================================================
~Version information
VERS.   2.0:
WRAP.   NO:
#==================================================================
~Well
STRT .m      89.916000000 :
STOP .m      1158.3924000 :
STEP .m     0.15240000 :
NULL .        -999.250000 :
COMP.           : COMPANY
WELL.  Keller 'B' No_ 1   : WELL
FLD.            : FIELD
LOC.            : LOCATION
SRVC.           : SERVICE COMPANY
DATE.  2020-08-19 21:46:58   : Log Export Date {yyyy-MM-dd HH:mm:ss}
PROV.           : PROVINCE
UWI.   Keller 'B' No_ 1   : UNIQUE WELL ID
API.            : API NUMBER
#==================================================================
~Curve
DEPT .m                   : DEPTH
GR .gAPI                  : GR
NPHI .m3/m3               : NPHI
RHOB .g/cm3               : RHOB
RT .ohm.m                 : RT
RM .ohm.m                 : RM
FACIES ._                 : FACIES
~Parameter
#==================================================================
~Ascii
# ...
 302.05680000 88.074302673 0.2503510118 2.2664999962 6.1276998520 5.3817000389  -999.250000
 302.20920000 84.870002747 0.2636680007 2.2243998051 6.4510002136 5.3331999779  -999.250000
 302.36160000 84.582702637 0.2811969817 2.1756999493 6.5388998985 5.2315001488  -999.250000
 302.51400000 82.277702332 0.2682180107 2.1364998817 6.5178999901 5.1986999512  -999.250000
 302.66640000 79.722099304 0.2056909949 2.1166999340 6.5019998550 5.2859997749  -999.250000
 302.81880000 79.260498047 0.1493290067 2.1215000153 6.5034999847 5.4714999199  -999.250000
 302.97120000 75.945198059 0.1321520060 2.1505000591 6.4590997696 5.6676998138  -999.250000
 303.12360000 67.110496521 0.1339430064 2.1905000210 6.3364000320 5.7533001900  -999.250000
 303.27600000 58.053901672 0.1472980082 2.2161002159 6.1988000870 5.6536998749  -999.250000
 303.42840000 56.255500793 0.1740080118 2.2065000534 6.1704001427 5.4053997993  -999.250000
 303.58080000 60.992698669 0.2300390005 2.1636998653 6.3675999641 5.1178998947  -999.250000
 303.73320000 69.353897095 0.2841729820 2.1088998318 6.7739000320 4.8882999420  -999.250000
 303.88560000 80.864997864 0.3191760182 2.0622999668 7.1381998062 4.7623000145  -999.250000
 304.03800000 88.745399475 0.3220119774 2.0267000198 7.1637997627 4.7452001572  -999.250000
 304.19040000 87.548896790 0.3167539835 1.9862999916 6.8579001427 4.8253002167  -999.250000
 304.34280000 81.805801392 0.3124209940 1.9219000340 6.5145998001 4.9896001816  -999.250000
 304.49520000 74.459503174 0.3017939925 1.8318001032 6.4205999374 5.2234997749  -999.250000
 304.64760000 68.796997070 0.3048570156 1.7351000309 6.6806001663 5.4906997681  -999.250000
 304.80000000 67.600502014 0.3226890266 1.6513999701 7.1803002357 5.7017998695  -999.250000
 304.95240000 70.633598328 0.3332090080 1.5856000185 7.5676999092 5.7140002251  -999.250000
 305.10480000 75.188598633 0.3402920067 1.5375999212 7.4170999527 5.4137997627  -999.250000
 305.25720000 73.562896729 0.3468960226 1.5154999495 6.6522002220 4.8366999626  -999.250000
 305.40960000 64.813697815 0.3319000006 1.5278000832 5.6168999672 4.1518998146  -999.250000
 305.56200000 58.629299164 0.3014329970 1.5685999393 4.6754999161 3.5227000713  -999.250000
 305.71440000 59.064800262 0.2816729844 1.6194000244 3.9863998890 3.0257000923  -999.250000
 305.86680000 60.595100403 0.2884799838 1.6641999483 3.5169999599 2.6679999828  -999.250000
 306.01920000 60.581100464 0.3152070045 1.6943000555 3.1503999233 2.4289000034  -999.250000
 306.17160000 62.864498138 0.3401249945 1.7049000263 2.8227000237 2.2864999771  -999.250000
 306.32400000 64.258102417 0.3348020315 1.6979999542 2.5717000961 2.2293000221  -999.250000
 306.47640000 61.499801636 0.3039279878 1.6838001013 2.4686000347 2.2588999271  -999.250000
 306.62880000 57.536598206 0.2811370194 1.6746000051 2.5578000546 2.3882000446  -999.250000
 306.78120000 55.684398651 0.2630369961 1.6743000746 2.8410000801 2.6373000145  -999.250000
 306.93360000 55.263301849 0.2181850076 1.6759999990 3.2599000931 3.0229001045  -999.250000
 307.08600000 53.795101166 0.1630849987 1.6696999073 3.7039000988 3.5362000465  -999.250000
 307.23840000 52.543598175 0.1523299962 1.6528000832 4.1252999306 4.1050000191  -999.250000
 307.39080000 53.645801544 0.1708889902 1.6292999983 4.6090002060 4.5767002106  -999.250000
 307.54320000 56.035301208 0.1930330098 1.6016999483 5.2144999504 4.7965002060  -999.250000
 307.69560000 61.658599854 0.2058480084 1.5691999197 5.8077001572 4.7399001122  -999.250000
 307.84800000 68.182296753 0.2264650017 1.5331999063 6.1575999260 4.5206999779  -999.250000
 308.00040000 67.843803406 0.2545399964 1.4995999336 6.1777000427 4.2732000351  -999.250000
 308.15280000 61.008598328 0.2767660022 1.4724999666 5.9232001305 4.0750999451  -999.250000
 308.30520000 55.750701904 0.2848870158 1.4494999647 5.4842000008 3.9488000870  -999.250000
 308.45760000 56.158798218 0.2826260030 1.4243999720 5.0069999695 3.8879001141  -999.250000
 308.61000000 62.517700195 0.2777749896 1.3943001032 4.6565999985 3.8773999214  -999.250000
 308.76240000 72.938903809 0.2740300000 1.3621999025 4.5240998268 3.9005000591  -999.250000
 308.91480000 79.275299072 0.2745389938 1.3345999718 4.6234998703 3.9346001148  -999.250000
 309.06720000 78.381202698 0.2844510078 1.3165999651 4.8849000931 3.9444999695  -999.250000
 309.21960000 76.105903625 0.3122249842 1.3096998930 5.1075000763 3.8859999180  -999.250000
 309.37200000 76.390998840 0.3469209969 1.3123999834 5.0430002213 3.7307000160  -999.250000
 309.52440000 76.229896545 0.3663150072 1.3209999800 4.6638998985 3.4913001060  -999.250000
 309.67680000 72.504203796 0.3765589893 1.3312000036 4.1876001358 3.2160999775  -999.250000
 309.82920000 67.334297180 0.3741970062 1.3388000727 3.8076000214 2.9551999569  -999.250000
 309.98160000 63.032501221 0.3539059758 1.3415000439 3.5604000092 2.7351000309  -999.250000
 310.13400000 60.586601257 0.3380619884 1.3394999504 3.3642001152 2.5592000484  -999.250000
 310.28640000 60.708900452 0.3294060230 1.3358000517 3.1191999912 2.4191999435  -999.250000
 310.43880000 62.352500916 0.3277830184 1.3338999748 2.8178999424 2.3083999157  -999.250000
 310.59120000 62.614498138 0.3419609964 1.3351999521 2.5508999825 2.2260999680  -999.250000
 310.74360000 59.013198853 0.3738359809 1.3380999565 2.4056000710 2.1765999794  -999.250000
 310.89600000 54.689098358 0.4004670084 1.3399000168 2.3940999508 2.1630001068  -999.250000
 311.04840000 52.228000641 0.3982630074 1.3396999836 2.4556000233 2.1833000183  -999.250000
 311.20080000 50.493598938 0.3761830032 1.3382999897 2.5125999451 2.2313001156  -999.250000
 311.35320000 49.880699158 0.3509870172 1.3361999989 2.5441000462 2.2988998890  -999.250000
 311.50560000 50.867099762 0.3350999951 1.3331999779 2.5952000618 2.3803999424  -999.250000
 311.65800000 52.322898865 0.3290869892 1.3285000324 2.7228000164 2.4721000195  -999.250000
 311.81040000 53.395801544 0.3245349824 1.3220000267 2.9453001022 2.5692999363  -999.250000
 311.96280000 53.948501587 0.3194580078 1.3144999743 3.2198998928 2.6621000767  -999.250000
 312.11520000 55.752101898 0.3257049918 1.3075000048 3.4637000561 2.7348001003  -999.250000
 312.26760000 58.031299591 0.3494139910 1.3023000956 3.6057000160 2.7695000172  -999.250000
 312.42000000 58.315101624 0.3673949838 1.2999999523 3.6096999645 2.7555000782  -999.250000
 312.57240000 54.045398712 0.3644649982 1.3005999327 3.4834001064 2.6977000237  -999.250000
 312.72480000 49.347198486 0.3579469919 1.3023999929 3.2974998951 2.6175000668  -999.250000
 312.87720000 51.151901245 0.3550510108 1.3032000065 3.1465001106 2.5448999405  -999.250000
 313.02960000 56.554599762 0.3459810019 1.3029999733 3.0934998989 2.5074000359  -999.250000
 313.18200000 58.517898560 0.3389929831 1.3029000759 3.1456999779 2.5232000351  -999.250000
 313.33440000 58.018299103 0.3356299996 1.3033000231 3.2548000813 2.5982999802  -999.250000
 313.48680000 59.059700012 0.3163299859 1.3038001060 3.3568000793 2.7246999741  -999.250000
 313.63920000 60.390098572 0.2925679982 1.3046000004 3.4235000610 2.8791000843  -999.250000
 313.79160000 57.985698700 0.2891570032 1.3058999777 3.4732999802 3.0269000530  -999.250000
 313.94400000 54.505798340 0.3035950065 1.3076000214 3.5520000458 3.1380000114  -999.250000
 314.09640000 50.983798981 0.3111090064 1.3096998930 3.7081999779 3.2056999207  -999.250000
 314.24880000 48.496601105 0.3026600182 1.3114999533 3.9618000984 3.2504000664  -999.250000
 314.40120000 49.317798615 0.2880699933 1.3113000393 4.2803997993 3.3046998978  -999.250000
 314.55360000 51.852401733 0.2785420120 1.3073999882 4.5882000923 3.3951001167  -999.250000
 314.70600000 52.509300232 0.2792640030 1.2994999886 4.7890000343 3.5346999168  -999.250000
 314.85840000 47.898899078 0.2788240016 1.2890000343 4.8317999840 3.7260000706  -999.250000
 315.01080000 45.498901367 0.2720490098 1.2776999474 4.8154997826 3.9662001133  -999.250000
 315.16320000 50.986000061 0.2692320049 1.2678999901 4.9282999039 4.2458000183  -999.250000
