# LAS format log file from PETREL
# Project units are specified as depth units
#==================================================================
~Version information
VERS.   2.0:
WRAP.   NO:
#==================================================================
~Well
STRT .m      89.916000000 :
STOP .m      1158.3924000 :
STEP .m     0.15240000 :
NULL .        -999.250000 :
COMP.           : COMPANY
WELL.  Keller 'B' No_ 1   : WELL
FLD.            : FIELD
LOC.            : LOCATION
SRVC.           : SERVICE COMPANY
DATE.  2020-08-19 21:46:58   : Log Export Date {yyyy-MM-dd HH:mm:ss}
PROV.           : PROVINCE
UWI.   Keller 'B' No_ 1   : UNIQUE WELL ID
API.            : API NUMBER
#==================================================================
~Curve
DEPT .m                   : DEPTH
GR .gAPI                  : GR
NPHI .m3/m3               : NPHI
RHOB .g/cm3               : RHOB
RT .ohm.m                 : RT
RM .ohm.m                 : RM
FACIES ._                 : FACIES
~Parameter
#==================================================================
~Ascii
 89.916000000 86.742897034 0.4323199987 2.2056999207 29.911899567 29.220899582  -999.250000
 90.068400000 78.354400635 0.4515319765 2.2539999485 30.315099716 27.550500870  -999.250000
 90.220800000 72.305496216 0.4438019991 2.2827000618 33.914001465 25.443599701  -999.250000
 90.373200000 74.038803101 0.4136900008 2.2681999207 42.986198425 23.321800232  -999.250000
 90.525600000 83.416397095 0.3765529990 2.2204999924 51.965000153 21.646499634  -999.250000
 90.678000000 90.562301636 0.3534510136 2.1705000401 48.013999939 20.707300186  -999.250000
 90.830400000 88.786300659 0.3634019792 2.1370999813 39.485500336 20.578800201  -999.250000
 90.982800000 82.071800232 0.4005709887 2.1203000546 35.468700409 21.166500092  -999.250000
 91.135200000 77.162200928 0.4368059933 2.1126999855 34.991199493 22.256700516  -999.250000
 91.287600000 75.282600403 0.4589189887 2.1086001396 35.544799805 23.588600159  -999.250000
 91.440000000 73.145599365 0.4706870019 2.1050000191 35.655399323 24.974100113  -999.250000
 91.592400000 72.940696716 0.4633929729 2.1016001701 35.017101288 26.389900208  -999.250000
 91.744800000 77.103500366 0.4410279989 2.0986001492 34.124698639 27.958299637  -999.250000
 91.897200000 80.776199341 0.4306569993 2.0953998566 33.383300781 29.857400894  -999.250000
 92.049600000 80.207901001 0.4357219934 2.0906999111 32.759101868 32.248001099  -999.250000
 92.202000000 77.004699707 0.4343979955 2.0843999386 32.169399261 35.230998993  -999.250000
 92.354400000 71.085800171 0.4282320142 2.0778000355 31.728700638 38.800998688  -999.250000
 92.506800000 66.051597595 0.4274750054 2.0722000599 31.590999603 42.790901184  -999.250000
 92.659200000 67.283401489 0.4250500202 2.0686001778 31.770200729 46.854099274  -999.250000
 92.811600000 71.994697571 0.4148409963 2.0673000813 32.163700104 50.563701630  -999.250000
 92.964000000 74.542098999 0.4029940069 2.0675001144 32.681301117 53.607498169  -999.250000
 93.116400000 74.481597900 0.4118130207 2.0676000118 33.237300873 55.900901794  -999.250000
 93.268800000 75.323898315 0.4451470077 2.0661001205 33.757598877 57.481201172  -999.250000
 93.421200000 78.213096619 0.4650790095 2.0631999969 34.370601654 58.309398651  -999.250000
 93.573600000 77.156402588 0.4455469847 2.0608000755 35.325901031 58.203800201  -999.250000
 93.726000000 68.305297852 0.4016650021 2.0599999428 36.727001190 57.004001617  -999.250000
 93.878400000 58.873699188 0.3653519750 2.0604999065 38.403301239 54.823799133  -999.250000
 94.030800000 56.052600861 0.3638320267 2.0606000423 39.844398499 52.105499268  -999.250000
 94.183200000 57.981998444 0.3854800165 2.0587999821 40.579498291 49.392398834  -999.250000
 94.335600000 59.015098572 0.3892129958 2.0551998615 40.828399658 47.056598663  -999.250000
 94.488000000 58.667400360 0.3712120056 2.0506000519 41.202301025 45.206401825  -999.250000
 94.640400000 59.617298126 0.3604379892 2.0457999706 41.869499207 43.776599884  -999.250000
 94.792800000 64.077201843 0.3594219983 2.0411000252 42.386901855 42.681701660  -999.250000
 94.945200000 73.578399658 0.3606660068 2.0373001099 42.167900085 41.912399292  -999.250000
 95.097600000 83.457298279 0.3660940230 2.0351998806 41.117401123 41.522499084  -999.250000
 95.250000000 87.755203247 0.3713530004 2.0348999500 39.796699524 41.544998169  -999.250000
 95.402400000 83.839202881 0.3688809872 2.0356998444 38.798900604 41.918899536  -999.250000
 95.554800000 76.296203613 0.3743159771 2.0369000435 38.265399933 42.477298737  -999.250000
 95.707200000 73.771598816 0.4030279815 2.0374999046 38.040798187 43.004001617  -999.250000
 95.859600000 74.910102844 0.4282770157 2.0360000134 37.824901581 43.327598572  -999.250000
 96.012000000 73.843597412 0.4262030125 2.0304000378 37.340000153 43.395500183  -999.250000
 96.164400000 72.517196655 0.4131589830 2.0211000443 37.075698853 43.274200439  -999.250000
 96.316800000 72.708602905 0.4037300050 2.0100998878 39.454700470 43.083900452  -999.250000
 96.469200000 73.941101074 0.3932020068 1.9977999926 49.492198944 42.924800873  -999.250000
 96.621600000 77.702003479 0.3781990111 1.9829000235 74.635101318 42.849300385  -999.250000
 96.774000000 82.067901611 0.3680779934 1.9656999111 115.98899841 42.884201050  -999.250000
 96.926400000 83.646102905 0.3740170002 1.9503999949 188.42329407 43.062801361  -999.250000
 97.078800000 82.579498291 0.3975749910 1.9421999454 100000.00000 43.430599213  -999.250000
 97.231200000 81.460800171 0.4244409800 1.9426000118 100000.00000 44.020698547  -999.250000
 97.383600000 84.094902039 0.4360499978 1.9485999346 100000.00000 44.835498810  -999.250000
 97.536000000 88.880500793 0.4291080236 1.9558000565 2301.5302734 45.885200500  -999.250000
 97.688400000 87.643600464 0.4185720086 1.9606000185 35.085700989 47.296798706  -999.250000
 97.840800000 82.372497559 0.4230749905 1.9615000486 20.698999405 49.462200165  -999.250000
 97.993200000 79.994300842 0.4311809838 1.9563000202 17.839799881 53.130901337  -999.250000
 98.145600000 80.279998779 0.4203340113 1.9390000105 16.377099991 59.517398834  -999.250000
 98.298000000 81.622497559 0.4142639935 1.8966000080 12.456000328 69.555397034  -999.250000
 98.450400000 83.799201965 0.4458879828 1.8143000603 7.6096000671 80.152999878  -999.250000
 98.602800000 88.251800537 0.4945780039 1.6904000044 4.9753999710 77.441101074  -999.250000
 98.755200000 95.599296570 0.5143790245 1.5471999645 4.0192999840 55.659900665  -999.250000
 98.907600000 99.583801270 0.4824360013 1.4196999073 3.6312999725 34.376098633  -999.250000
 99.060000000 97.084602356 0.4163190126 1.3339999914 2.9179999828 22.159900665  -999.250000
 99.212400000 95.111801147 0.3652130067 1.2960000038 1.9879000187 16.292600632  -999.250000
 99.364800000 97.972396851 0.3544369936 1.2941999435 1.5722999573 14.069000244  -999.250000
 99.517200000 102.77020264 0.3641059995 1.3105999231 1.9653999805 14.441900253  -999.250000
 99.669600000 104.90440369 0.3707599938 1.3303999901 4.5269999504 17.763599396  -999.250000
 99.822000000 105.10040283 0.3651390076 1.3459000587 28.126899719 26.104099274  -999.250000
 99.974400000 107.08029938 0.3496540189 1.3549000025 100000.00000 42.632198334  -999.250000
 100.12680000 109.82920074 0.3357360065 1.3590999842 100000.00000 56.966400146  -999.250000
 100.27920000 106.71320343 0.3368780017 1.3614000082 232.02270508 45.854900360  -999.250000
 100.43160000 96.747497559 0.3485940099 1.3636000156 32.735599518 29.877799988  -999.250000
 100.58400000 90.581596375 0.3580390215 1.3645000458 20.309200287 20.815099716  -999.250000
 100.73640000 96.774398804 0.3713639975 1.3628000021 17.331499100 16.282199860  -999.250000
 100.88880000 108.58419800 0.3944729865 1.3596999645 16.572200775 14.070699692  -999.250000
 101.04120000 115.52940369 0.4103509784 1.3579000235 16.432399750 13.115599632  -999.250000
 101.19360000 115.06890106 0.4084900022 1.3586000204 16.393299103 12.895099640  -999.250000
 101.34600000 109.18360138 0.3861939907 1.3614000082 16.196899414 13.096599579  -999.250000
 101.49840000 100.15589905 0.3614549935 1.3655999899 15.839200020 13.460900307  -999.250000
 101.65080000 92.224296570 0.3561750054 1.3701999187 15.456500053 13.736900330  -999.250000
 101.80320000 92.667800903 0.3693700135 1.3733000755 15.101099968 13.741299629  -999.250000
 101.95560000 102.39040375 0.3890050054 1.3723000288 14.783300400 13.447099686  -999.250000
 102.10800000 114.29109955 0.3864369988 1.3666999340 14.557700157 12.979999542  -999.250000
 102.26040000 123.48909760 0.3503850102 1.3589999676 14.505399704 12.509699821  -999.250000
 102.41280000 128.38459778 0.3190349936 1.3545000553 14.589300156 12.147999763  -999.250000
 102.56520000 128.08770752 0.3116640151 1.3566999435 14.568499565 11.918899536  -999.250000
 102.71760000 123.66660309 0.3203860223 1.3641999960 14.267600060 11.782600403  -999.250000
 102.87000000 118.24389648 0.3360770047 1.3719000816 13.802200317 11.679499626  -999.250000
 103.02240000 117.71289825 0.3549520075 1.3763000965 13.387999535 11.571299553  -999.250000
