# LAS format log file from PETREL
# Project units are specified as depth units
#==================================================================
~Version information
VERS.   2.0:
WRAP.   NO:
#==================================================================
~Well
STRT .m      0.0000000000 :
STOP .m      1206.7032000 :
STEP .m     0.15240000 :
NULL .        -999.250000 :
COMP.           : COMPANY
WELL.  NELSON #9-16   : WELL
FLD.            : FIELD
LOC.            : LOCATION
SRVC.           : SERVICE COMPANY
DATE.  2020-08-25 09:56:37   : Log Export Date {yyyy-MM-dd HH:mm:ss}
PROV.           : PROVINCE
UWI.   NELSON #9-16   : UNIQUE WELL ID
API.            : API NUMBER
#==================================================================
~Curve
DEPT .m                   : DEPTH
FACIES ._                 : FACIES
GR .gAPI                  : GR
NPHI .m3/m3               : NPHI
RHOB .g/cm3               : RHOB
RM .ohm.m                 : RM
RT .ohm.m                 : RT
~Parameter
#==================================================================
~Ascii
# ...
 1113.7392000 7.0000000000 30.189100266 0.0247200001 2.6737999916 166.96270752 104.81330109
 1113.8916000  -999.250000 29.708499908 0.0259879995 2.6831998825 153.74130249 99.097999573
 1114.0440000  -999.250000 29.521299362 0.0280600004 2.6960000992 123.29280090 84.428398132
 1114.1964000  -999.250000 33.298500061 0.0310200006 2.7072999477 97.407600403 70.962097168
 1114.3488000  -999.250000 42.303398132 0.0347889997 2.7077000141 82.881401062 63.187999725
 1114.5012000  -999.250000 58.085300446 0.0391420014 2.7000000477 74.384399414 58.848300934
 1114.6536000  -999.250000 78.657897949 0.0438829996 2.6926999092 65.206100464 55.939601898
 1114.8060000  -999.250000 98.311500549 0.0491410010 2.6871001720 54.887199402 52.395599365
 1114.9584000  -999.250000 109.26920319 0.0557430014 2.6800000668 43.977298737 43.402698517
 1115.1108000  -999.250000 109.74030304 0.0654530004 2.6713998318 32.189701080 31.631000519
 1115.2632000  -999.250000 106.11879730 0.0807429999 2.6559998989 21.502599716 22.806299210
 1115.4156000  -999.250000 110.36289978 0.1037029997 2.6128001213 14.126399994 17.770399094
 1115.5680000  -999.250000 135.51390076 0.1342059970 2.5208001137 10.242500305 15.380900383
 1115.7204000  -999.250000 184.81309509 0.1682779938 2.4003999233 8.6953001022 14.353699684
 1115.8728000  -999.250000 244.10839844 0.1982669979 2.3064999580 8.5060997009 13.990400314
 1116.0252000  -999.250000 284.58279419 0.2156250030 2.2843999863 9.2073001862 14.006899834
 1116.1776000  -999.250000 273.04229736 0.2152100056 2.3496000767 10.718500137 13.735400200
 1116.3300000  -999.250000 202.42880249 0.1985719949 2.4737999439 12.931799889 12.826399803
 1116.4824000  -999.250000 115.19200134 0.1739840060 2.5873999596 14.504500389 11.484800339
 1116.6348000  -999.250000 61.511901855 0.1531140059 2.6378998756 12.878700256 9.4710998535
 1116.7872000  -999.250000 44.726001740 0.1461450011 2.6281001568 8.9326000214 7.4368000031
 1116.9396000  -999.250000 48.480998993 0.1577859968 2.5834999084 5.8105001450 5.9011001587
 1117.0920000  -999.250000 67.064102173 0.1857900023 2.5297999382 4.1161999702 4.7771000862
 1117.2444000  -999.250000 90.666999817 0.2221670002 2.4861998558 3.2579998970 3.9502999783
 1117.3968000  -999.250000 107.15589905 0.2565639913 2.4588000774 2.7887001038 3.3183000088
 1117.5492000  -999.250000 111.60780334 0.2805239856 2.4435000420 2.5009000301 2.8652999401
 1117.7016000  -999.250000 108.85030365 0.2907989919 2.4348998070 2.3213000298 2.5592999458
 1117.8540000  -999.250000 105.93530273 0.2900150120 2.4323000908 2.2258999348 2.3684000969
 1118.0064000  -999.250000 105.03170013 0.2842969894 2.4372000694 2.1968998909 2.2788000107
 1118.1588000  -999.250000 106.58679962 0.2794910073 2.4486999512 2.2072999477 2.2513999939
 1118.3112000  -999.250000 107.77380371 0.2783589959 2.4618000984 2.2335999012 2.2701001167
 1118.4636000  -999.250000 107.04160309 0.2799679935 2.4686000347 2.2685999870 2.3238000870
 1118.6160000  -999.250000 106.68070221 0.2807970047 2.4653000832 2.3196001053 2.4142999649
 1118.7684000  -999.250000 104.76249695 0.2764919996 2.4595000744 2.4186000824 2.5813999176
 1118.9208000  -999.250000 100.15950012 0.2635659873 2.4672999382 2.6370000839 2.8491001129
 1119.0732000  -999.250000 89.504600525 0.2407239974 2.4993999004 3.0711998940 3.2193999290
 1119.2256000  -999.250000 71.963500977 0.2094819993 2.5513999462 3.8182001114 3.7123000622
 1119.3780000  -999.250000 52.507801056 0.1738149971 2.6022000313 4.9436001778 4.3643999100
 1119.5304000  -999.250000 37.877601624 0.1388610005 2.6322000027 6.4825000763 5.2189002037
 1119.6828000  -999.250000 31.371400833 0.1092500016 2.6403999329 8.6493997574 6.3979997635
 1119.8352000  -999.250000 29.188400269 0.0877770036 2.6359999180 12.092800140 8.1538000107
 1119.9876000  -999.250000 25.217100143 0.0750230029 2.6241998672 17.282199860 10.417200089
 1120.1400000  -999.250000 19.666900635 0.0697960034 2.6105999947 21.779899597 12.273699760
 1120.2924000  -999.250000 17.078100204 0.0700080022 2.6054999828 21.046400070 12.803999901
 1120.4448000  -999.250000 18.432899475 0.0733089969 2.6136000156 17.138700485 12.697699547
 1120.5972000  -999.250000 22.960300446 0.0774599984 2.6289999485 14.243300438 12.742500305
 1120.7496000  -999.250000 30.067899704 0.0805919990 2.6441998482 13.306300163 13.163700104
 1120.9020000  -999.250000 36.861099243 0.0815050006 2.6577999592 13.981399536 13.685000420
 1121.0544000  -999.250000 38.450901031 0.0799190030 2.6698999405 15.545700073 14.106100082
 1121.2068000  -999.250000 37.233398438 0.0763989985 2.6777999401 17.047199249 14.654199600
 1121.3592000  -999.250000 37.617000580 0.0719370022 2.6798000336 18.537900925 15.593600273
 1121.5116000  -999.250000 39.005599976 0.0674419999 2.6783998013 21.287000656 17.587600708
 1121.6640000  -999.250000 37.769599915 0.0634249970 2.6766998768 26.132299423 20.728700638
 1121.8164000  -999.250000 34.643600464 0.0600290000 2.6771998405 32.186199188 24.029600143
 1121.9688000  -999.250000 33.693698883 0.0572110005 2.6816999912 36.958499908 26.145599365
 1122.1212000  -999.250000 35.111000061 0.0548989996 2.6866002083 40.143398285 27.579700470
 1122.2736000  -999.250000 36.066101074 0.0531039983 2.6863999367 42.875598907 28.935699463
 1122.4260000  -999.250000 34.302101135 0.0520740002 2.6801002026 44.232498169 30.324499130
 1122.5784000  -999.250000 32.723098755 0.0524719991 2.6693000793 42.535301208 30.660900116
 1122.7308000  -999.250000 32.520301819 0.0553440005 2.6581001282 36.894901276 27.785400391
 1122.8832000  -999.250000 33.299701691 0.0617109984 2.6531000137 28.736799240 23.441600800
 1123.0356000  -999.250000 36.921600342 0.0718320012 2.6556000710 20.366800308 18.289400101
 1123.1880000  -999.250000 47.579399109 0.0845310017 2.6553997993 13.633299828 14.901599884
 1123.3404000  -999.250000 76.464302063 0.0970349982 2.6433999538 9.7218999863 13.733599663
 1123.4928000  -999.250000 119.79519653 0.1057460010 2.6273000240 8.3247995377 13.669400215
 1123.6452000  -999.250000 142.61520386 0.1079190001 2.6246001720 8.7560997009 13.407799721
 1123.7976000  -999.250000 120.40249634 0.1034810022 2.6363999844 10.350199699 12.555100441
 1123.9500000  -999.250000 76.653800964 0.0957069993 2.6435000896 11.692799568 11.209300041
 1124.1024000  -999.250000 46.899600983 0.0900460035 2.6343998909 11.753700256 9.8783998489
 1124.2548000  -999.250000 40.625000000 0.0917060003 2.6150000095 11.066499710 9.2313003540
 1124.4072000  -999.250000 46.957401276 0.1035510004 2.5927000046 9.8470001221 8.7827997208
 1124.5596000  -999.250000 55.243499756 0.1253339946 2.5699999332 8.1127996445 7.7948999405
 1124.7120000  -999.250000 63.611900330 0.1543489993 2.5466001034 6.3585000038 6.5345001221
 1124.8644000  -999.250000 72.971298218 0.1864169985 2.5234999657 4.9689998627 5.4140000343
 1125.0168000  -999.250000 82.933296204 0.2166520059 2.5043001175 4.0064001083 4.5349001884
 1125.1692000  -999.250000 91.799697876 0.2398339957 2.4907000065 3.3879001141 3.8903000355
 1125.3216000  -999.250000 98.412101746 0.2509109974 2.4828999043 3.0107998848 3.5081000328
 1125.4740000  -999.250000 103.41909790 0.2460500002 2.4801001549 2.8127000332 3.3775000572
 1125.6264000  -999.250000 104.84279633 0.2241069973 2.4861001968 2.8081998825 3.4523000717
 1125.7788000  -999.250000 101.75849915 0.1876879930 2.5102000237 3.0690999031 3.7005999088
 1125.9312000  -999.250000 91.342102051 0.1429740041 2.5551002026 3.6961998940 4.0996999741
 1126.0836000  -999.250000 70.079200745 0.0980419964 2.6076002121 4.8140001297 4.6862998009
 1126.2360000  -999.250000 47.181999207 0.0603789985 2.6466999054 6.5953998566 5.5622000694
 1126.3884000  -999.250000 32.526000977 0.0346570015 2.6631999016 9.3599004745 6.9205999374
 1126.5408000  -999.250000 26.235599518 0.0217129998 2.6644999981 13.995200157 9.3754997253
 1126.6932000  -999.250000 25.113000870 0.0189909991 2.6612999439 22.460899353 13.611300468
 1126.8456000  -999.250000 26.440500259 0.0220740009 2.6579999924 37.076499939 19.470899582
