# LAS format log file from PETREL
# Project units are specified as depth units
#==================================================================
~Version information
VERS.   2.0:
WRAP.   NO:
#==================================================================
~Well
STRT .m      0.0000000000 :
STOP .m      1178.3568000 :
STEP .m     0.15240000 :
NULL .        -999.250000 :
COMP.           : COMPANY
WELL.  NELSON #6-16   : WELL
FLD.            : FIELD
LOC.            : LOCATION
SRVC.           : SERVICE COMPANY
DATE.  2020-08-19 21:46:58   : Log Export Date {yyyy-MM-dd HH:mm:ss}
PROV.           : PROVINCE
UWI.   NELSON #6-16   : UNIQUE WELL ID
API.            : API NUMBER
#==================================================================
~Curve
DEPT .m                   : DEPTH
GR .gAPI                  : GR
NPHI .m3/m3               : NPHI
RHOB .g/cm3               : RHOB
RM .ohm.m                 : RM
RT .ohm.m                 : RT
FACIES ._                 : FACIES
~Parameter
#==================================================================
~Ascii
# ...
 92.811600000 101.69689941 0.7128559947  -999.250000 4.0752000809 4.2074999809  -999.250000
 92.964000000 96.201301575 0.7151979804  -999.250000 4.0202999115 4.2026000023  -999.250000
 93.116400000 90.464103699 0.7172309756  -999.250000 4.0011000633 4.1936001778  -999.250000
 93.268800000 90.167297363 0.7185680270  -999.250000 3.9941000938 4.1816000938  -999.250000
 93.421200000 91.891197205 0.7194709778  -999.250000 3.9742000103 4.1609001160  -999.250000
 93.573600000 93.469200134 0.7202249765  -999.250000 3.9405999184 4.1238999367  -999.250000
 93.726000000 93.458503723 0.7210130095  -999.250000 3.9107999802 4.0816998482  -999.250000
 93.878400000 91.399803162 0.7220190167  -999.250000 3.8861999512 4.0532999039  -999.250000
 94.030800000 89.026901245 0.7233099937  -999.250000 3.8584001064 4.0275001526  -999.250000
 94.183200000 88.316001892 0.7246490121  -999.250000 3.8239998817 4.0041999817  -999.250000
 94.335600000 99.312500000 0.7256820202  -999.250000 3.7955999374 3.9914999008  -999.250000
 94.488000000 105.88169861 0.7262610197  -999.250000 3.7799999714 3.9786000252  -999.250000
 94.640400000 109.46040344 0.7264760137  -999.250000 3.7695000172 3.9584000111  -999.250000
 94.792800000 117.28289795 0.7265239954  -999.250000 3.7588999271 3.9432001114  -999.250000
 94.945200000 118.01339722 0.7266420126  -999.250000 3.7532000542 3.9289999008  -999.250000
 95.097600000 111.58779907 0.7270839810  -999.250000 3.7493999004 3.9170999527  -999.250000
 95.250000000 114.01380157 0.7280340195  -999.250000 3.7456998825 3.9021000862  -999.250000
 95.402400000 124.95390320 0.7293679714  -999.250000 3.7448000908 3.8870999813  -999.250000
 95.554800000 131.28359985 0.7307170033  -999.250000 3.7360000610 3.8675999641  -999.250000
 95.707200000 120.37840271 0.7319920063  -999.250000 3.7183001041 3.8531000614  -999.250000
 95.859600000 112.45989990 0.7333959937  -999.250000 3.6939001083 3.8422999382  -999.250000
 96.012000000 108.97660065 0.7347319722  -999.250000 3.6626000404 3.8196001053  -999.250000
 96.164400000 98.958602905 0.7351580262  -999.250000 3.6386001110 3.7818999290  -999.250000
 96.316800000 88.247299194 0.7338870168  -999.250000 3.6170001030 3.7630999088  -999.250000
 96.469200000 90.132499695 0.7309709787  -999.250000 3.5917000771 3.7599999905  -999.250000
 96.621600000 116.49500275 0.7273089886  -999.250000 3.5910999775 3.7576999664  -999.250000
 96.774000000 135.31700134 0.7240939736  -999.250000 3.6256999969 3.7607998848  -999.250000
 96.926400000 129.75849915 0.7225220203  -999.250000 3.6549999714 3.7590999603  -999.250000
 97.078800000 116.81680298 0.7232800126  -999.250000 3.6526000500 3.7664999962  -999.250000
 97.231200000 108.08350372 0.7258229852  -999.250000 3.6498999596 3.7825000286  -999.250000
 97.383600000 103.37500000 0.7287719846  -999.250000 3.6745998859 3.8055999279  -999.250000
 97.536000000 107.46050262 0.7311239839  -999.250000 3.6993000507 3.8343999386  -999.250000
 97.688400000 120.85389709 0.7326359749  -999.250000 3.7098999023 3.8598001003  -999.250000
 97.840800000 121.44909668 0.7333520055  -999.250000 3.7214999199 3.8694000244  -999.250000
 97.993200000 112.26550293 0.7332950234  -999.250000 3.7362000942 3.8729000092  -999.250000
 98.145600000 98.241897583 0.7324659824  -999.250000 3.7516999245 3.8645999432  -999.250000
 98.298000000 91.682403564 0.7308419943  -999.250000 3.7567000389 3.8543999195  -999.250000
 98.450400000 94.375198364 0.7286270261  -999.250000 3.7392001152 3.8494999409  -999.250000
 98.602800000 95.484802246 0.7265170217  -999.250000 3.7172000408 3.8477001190  -999.250000
 98.755200000 102.74269867 0.7252339721  -999.250000 3.7053000927 3.8434998989  -999.250000
 98.907600000 101.27010345 0.7248139977  -999.250000 3.6867001057 3.8289000988  -999.250000
 99.060000000 96.172798157 0.7246869802  -999.250000 3.6626999378 3.8059999943  -999.250000
 99.212400000 107.07569885 0.7243319750  -999.250000 3.6389000416 3.7836000919  -999.250000
 99.364800000 112.74939728 0.7236710191  -999.250000 3.6250000000 3.7722001076  -999.250000
 99.517200000 116.05000305 0.7230510116  -999.250000 3.6173000336 3.7669000626  -999.250000
 99.669600000 119.62319946 0.7229430079  -999.250000 3.6135001183 3.7625000477  -999.250000
 99.822000000 118.59339905 0.7236170173  -999.250000 3.6131999493 3.7569000721  -999.250000
 99.974400000 111.97019958 0.7249289751  -999.250000 3.6066000462 3.7530999184  -999.250000
 100.12680000 98.977996826 0.7263789773  -999.250000 3.6045000553 3.7509000301  -999.250000
 100.27920000 89.802597046 0.7274709940  -999.250000 3.6015999317 3.7469999790  -999.250000
 100.43160000 97.472297668 0.7280409932  -999.250000 3.5994999409 3.7546999454  -999.250000
 100.58400000 116.54699707 0.7282850146  -999.250000 3.6010000706 3.7588000298  -999.250000
 100.73640000 119.65370178 0.7285990119  -999.250000 3.6045000553 3.7583000660  -999.250000
 100.88880000 115.38849640 0.7293390036  -999.250000 3.5980000496 3.7513999939  -999.250000
 101.04120000 115.19149780 0.7305219769  -999.250000 3.5861001015 3.7367999554  -999.250000
 101.19360000 114.39299774 0.7317289710  -999.250000 3.5734999180 3.7207000256  -999.250000
 101.34600000 117.65570068 0.7326160073  -999.250000 3.5576999187 3.7028999329  -999.250000
 101.49840000 126.26850128 0.7338790298  -999.250000 3.5429999828 3.6814000607  -999.250000
 101.65080000 131.61799622 0.7372170091  -999.250000 3.5241999626 3.6637001038  -999.250000
 101.80320000 123.52590179 0.7423980236  -999.250000 3.5034000874 3.6468000412  -999.250000
 101.95560000 107.06600189 0.7451630235  -999.250000 3.4832999706 3.6149001122  -999.250000
 102.10800000 105.16139984 0.7424299717  -999.250000 3.4563000202 3.5878000259  -999.250000
 102.26040000 113.38279724 0.7373470068  -999.250000 3.4307000637 3.5606999397  -999.250000
 102.41280000 118.81749725 0.7345049977  -999.250000 3.4158999920 3.5425999165  -999.250000
 102.56520000 121.49389648 0.7346649766  -999.250000 3.4000000954 3.5213000774  -999.250000
 102.71760000 111.93450165 0.7362650037  -999.250000 3.3887999058 3.5051000118  -999.250000
 102.87000000 95.918296814 0.7379059792  -999.250000 3.3803000450 3.4960000515  -999.250000
 103.02240000 86.454597473 0.7388600111  -999.250000 3.3756000996 3.5043001175  -999.250000
 103.17480000 82.753997803 0.7390300035  -999.250000 3.3954999447 3.5264000893  -999.250000
 103.32720000 91.408897400 0.7388629913  -999.250000 3.4347000122 3.5485000610  -999.250000
 103.47960000 92.704696655 0.7389320135  -999.250000 3.4783999920 3.5541999340  -999.250000
 103.63200000 89.633201599 0.7394149899  -999.250000 3.5074999332 3.5629000664  -999.250000
 103.78440000 109.84819794 0.7401260138  -999.250000 3.5234000683 3.5762999058  -999.250000
 103.93680000 120.62899780 0.7408679724  -999.250000 3.5297999382 3.5978999138  -999.250000
 104.08920000 108.91149902 0.7414749861  -999.250000 3.5295000076 3.6282000542  -999.250000
 104.24160000 115.28869629 0.7417010069  -999.250000 3.5334999561 3.6582000256  -999.250000
 104.39400000 128.22959900 0.7411929965  -999.250000 3.5520999432 3.6802999973  -999.250000
 104.54640000 132.98669434 0.7397289872  -999.250000 3.5750999451 3.7002999783  -999.250000
 104.69880000 120.70950317 0.7376620173  -999.250000 3.6124999523 3.7218999863  -999.250000
 104.85120000 99.948799133 0.7358250022  -999.250000 3.6570999622 3.7407999039  -999.250000
 105.00360000 98.422996521 0.7347959876  -999.250000 3.6939001083 3.7678000927  -999.250000
 105.15600000 115.72399902 0.7345730066  -999.250000 3.7309999466 3.8043999672  -999.250000
 105.30840000 121.60679626 0.7348579764  -999.250000 3.7657999992 3.8464999199  -999.250000
 105.46080000 118.15129852 0.7352679968  -999.250000 3.7987999916 3.8800001144  -999.250000
 105.61320000 133.32859802 0.7354500294  -999.250000 3.8292000294 3.9186999798  -999.250000
 105.76560000 143.92359924 0.7353420258  -999.250000 3.8620998859 3.9523000717  -999.250000
 105.91800000 134.18150330 0.7351769805  -999.250000 3.8793001175 3.9593000412  -999.250000
