# LAS format log file from PETREL
# Project units are specified as depth units
#==================================================================
~Version information
VERS.   2.0:
WRAP.   NO:
#==================================================================
~Well
STRT .m      0.0000000000 :
STOP .m      1206.7032000 :
STEP .m     0.15240000 :
NULL .        -999.250000 :
COMP.           : COMPANY
WELL.  NELSON #9-16   : WELL
FLD.            : FIELD
LOC.            : LOCATION
SRVC.           : SERVICE COMPANY
DATE.  2020-08-25 09:56:37   : Log Export Date {yyyy-MM-dd HH:mm:ss}
PROV.           : PROVINCE
UWI.   NELSON #9-16   : UNIQUE WELL ID
API.            : API NUMBER
#==================================================================
~Curve
DEPT .m                   : DEPTH
FACIES ._                 : FACIES
GR .gAPI                  : GR
NPHI .m3/m3               : NPHI
RHOB .g/cm3               : RHOB
RM .ohm.m                 : RM
RT .ohm.m                 : RT
~Parameter
#==================================================================
~Ascii
 0.0000000000  -999.250000 536.44427490  -999.250000 -0.321000010  -999.250000 0.4627999961
 0.1524000000  -999.250000 780.30767822  -999.250000 -0.416999996  -999.250000 9.2115001678
 0.3048000000  -999.250000 838.55609131  -999.250000 -0.083699994  -999.250000 100000.00000
 0.4572000000  -999.250000 841.37237549  -999.250000 0.2775000036  -999.250000 100000.00000
 0.6096000000  -999.250000 829.49188232  -999.250000 0.6759000421  -999.250000 100000.00000
 0.7620000000  -999.250000 824.80218506  -999.250000 1.1245999336 100000.00000 100000.00000
 0.9144000000  -999.250000 820.96997070  -999.250000 1.5163999796 5.6765999794 100000.00000
 1.0668000000  -999.250000 809.99578857  -999.250000 1.6749999523 8.5171003342 100000.00000
 1.2192000000  -999.250000 790.84381104  -999.250000 1.5400999784 100000.00000 38.374698639
 1.3716000000  -999.250000 751.07287598  -999.250000 1.2749999762 100000.00000 18.419000626
 1.5240000000  -999.250000 649.11511230  -999.250000 1.0895999670 100000.00000 25.076099396
 1.6764000000  -999.250000 467.20739746  -999.250000 1.0664000511 100000.00000 41.549999237
 1.8288000000  -999.250000 285.52178955  -999.250000 1.1319999695 100000.00000 97.705596924
 1.9812000000  -999.250000 169.40119934  -999.250000 1.2009000778 100000.00000 260.48410034
 2.1336000000  -999.250000 114.55650330  -999.250000 1.2366999388 100000.00000 461.52130127
 2.2860000000  -999.250000 93.234397888  -999.250000 1.2345000505 100000.00000 216.95829773
 2.4384000000  -999.250000 82.732803345  -999.250000 1.2173000574 100000.00000 73.367202759
 2.5908000000  -999.250000 76.117500305  -999.250000 1.2250999212 100000.00000 40.279098511
 2.7432000000  -999.250000 69.758903503  -999.250000 1.2980999947 100000.00000 44.366401672
 2.8956000000  -999.250000 67.099098206  -999.250000 1.4491000175 100000.00000 594.96148682
 3.0480000000  -999.250000 68.002296448  -999.250000 1.6154000759 100000.00000 100000.00000
 3.2004000000  -999.250000 73.217300415  -999.250000 1.6919000149 100000.00000 417.87271118
 3.3528000000  -999.250000 87.941398621  -999.250000 1.6705000401 100000.00000 29.466199875
 3.5052000000  -999.250000 100.86830139  -999.250000 1.6371999979 100000.00000 18.542600632
 3.6576000000  -999.250000 101.52590179  -999.250000 1.6281999350 100000.00000 33.239398956
 3.8100000000  -999.250000 101.62400055  -999.250000 1.6015000343 100000.00000 191.48429871
 3.9624000000  -999.250000 109.17120361  -999.250000 1.5691999197 100000.00000 99.801803589
 4.1148000000  -999.250000 113.30799866  -999.250000 1.5635000467 100000.00000 131.77729797
 4.2672000000  -999.250000 107.33290100  -999.250000 1.5808000565 100000.00000 100000.00000
 4.4196000000  -999.250000 100.02420044  -999.250000 1.5778000355 100000.00000 886.46942139
 4.5720000000  -999.250000 96.140800476  -999.250000 1.4818999767 100000.00000 49.316898346
 4.7244000000  -999.250000 96.865501404  -999.250000 1.3144000769 100000.00000 23.471799850
 4.8768000000  -999.250000 99.128303528  -999.250000 1.1546000242 100000.00000 18.604499817
 5.0292000000  -999.250000 98.467002869  -999.250000 1.0450999737 100000.00000 26.388700485
 5.1816000000  -999.250000 103.97989655  -999.250000 0.9878000021 100000.00000 107.74469757
 5.3340000000  -999.250000 114.45099640  -999.250000 0.9580000043 100000.00000 100000.00000
 5.4864000000  -999.250000 114.77890015  -999.250000 0.9377000332 100000.00000 650.77777100
 5.6388000000  -999.250000 108.95310211  -999.250000 0.9327999949 100000.00000 110.19059753
 5.7912000000  -999.250000 112.01879883  -999.250000 0.9604000449 100000.00000 104.08740234
 5.9436000000  -999.250000 124.75319672  -999.250000 1.0364000797 100000.00000 64.064300537
 6.0960000000  -999.250000 126.87249756  -999.250000 1.1761999130 100000.00000 46.730899811
 6.2484000000  -999.250000 114.52729797  -999.250000 1.3758000135 100000.00000 91.092697144
 6.4008000000  -999.250000 104.50029755  -999.250000 1.5594999790 100000.00000 435.82479858
 6.5532000000  -999.250000 102.81700134  -999.250000 1.6168999672 100000.00000 379.38479614
 6.7056000000  -999.250000 103.06369781  -999.250000 1.5643000603 100000.00000 100000.00000
 6.8580000000  -999.250000 98.301902771  -999.250000 1.4650000334 100000.00000 51.559799194
 7.0104000000  -999.250000 93.699203491  -999.250000 1.3418999910 100000.00000 25.650800705
 7.1628000000  -999.250000 97.984298706  -999.250000 1.2113000154 100000.00000 29.755899429
 7.3152000000  -999.250000 108.25119781  -999.250000 1.0809999704 100000.00000 59.965499878
 7.4676000000  -999.250000 113.61070251  -999.250000 0.9480999708 100000.00000 92.357101440
 7.6200000000  -999.250000 110.48480225  -999.250000 0.8230000138 100000.00000 45.528099060
 7.7724000000  -999.250000 105.21099854  -999.250000 0.7297000289 100000.00000 27.314699173
 7.9248000000  -999.250000 105.12699890  -999.250000 0.6807000041 100000.00000 19.230199814
 8.0772000000  -999.250000 102.98840332  -999.250000 0.6667999625 100000.00000 15.267299652
 8.2296000000  -999.250000 101.51670074  -999.250000 0.6737999916 100000.00000 14.232600212
 8.3820000000  -999.250000 107.04709625  -999.250000 0.6942999959 100000.00000 18.579399109
 8.5344000000  -999.250000 115.37319946  -999.250000 0.7267000079 100000.00000 18.602199554
 8.6868000000  -999.250000 114.43119812  -999.250000 0.7670000196 100000.00000 12.641500473
 8.8392000000  -999.250000 100.82879639  -999.250000 0.8059000373 100000.00000 10.899600029
 8.9916000000  -999.250000 89.359901428  -999.250000 0.8352999687 100000.00000 10.118700027
 9.1440000000  -999.250000 84.099502563  -999.250000 0.8544999957 100000.00000 9.6471996307
 9.2964000000  -999.250000 86.541801453  -999.250000 0.8704000115 100000.00000 9.5583000183
 9.4488000000  -999.250000 99.967697144  -999.250000 0.8934999704 100000.00000 9.3942003250
 9.6012000000  -999.250000 109.12650299  -999.250000 0.9277999997 100000.00000 9.0366001129
 9.7536000000  -999.250000 106.97650146  -999.250000 0.9627000093 100000.00000 8.9722995758
 9.9060000000  -999.250000 103.25330353  -999.250000 0.9810000062 100000.00000 8.8992996216
 10.058400000  -999.250000 99.117401123  -999.250000 0.9803000093 100000.00000 8.7167997360
 10.210800000  -999.250000 100.39869690  -999.250000 0.9641000032 100000.00000 8.6598997116
 10.363200000  -999.250000 108.80709839  -999.250000 0.9237999916 100000.00000 8.6898002625
 10.515600000  -999.250000 108.91400146  -999.250000 0.8570999503 100000.00000 8.5867996216
 10.668000000  -999.250000 94.400199890  -999.250000 0.7820000052 100000.00000 8.8531999588
 10.820400000  -999.250000 71.756797791  -999.250000 0.7160999775 100000.00000 9.7566995621
 10.972800000  -999.250000 59.611900330  -999.250000 0.6610999703 100000.00000 10.552200317
 11.125200000  -999.250000 57.536399841  -999.250000 0.6134999990 100000.00000 11.025699615
 11.277600000  -999.250000 52.757198334  -999.250000 0.5749000311 100000.00000 11.198800087
 11.430000000  -999.250000 49.330898285  -999.250000 0.5460999608 100000.00000 11.281700134
 11.582400000  -999.250000 52.682998657  -999.250000 0.5215999484 100000.00000 11.940999985
 11.734800000  -999.250000 55.554000854  -999.250000 0.4987999797 100000.00000 13.585599899
 11.887200000  -999.250000 57.082401276  -999.250000 0.4833999872 100000.00000 15.583399773
 12.039600000  -999.250000 56.174701691  -999.250000 0.4794999957 100000.00000 17.714599609
 12.192000000  -999.250000 51.756000519  -999.250000 0.4877000153 100000.00000 19.814800262
 12.344400000  -999.250000 49.550098419  -999.250000 0.5187000036 100000.00000 21.161100388
 12.496800000  -999.250000 50.466899872  -999.250000 0.6044999957 100000.00000 22.413799286
 12.649200000  -999.250000 51.918399811  -999.250000 0.7761999965 100000.00000 23.794799805
 12.801600000  -999.250000 48.391899109  -999.250000 0.9980000257 100000.00000 25.427799225
 12.954000000  -999.250000 44.710098267  -999.250000 1.1741999388 100000.00000 27.824100494
 13.106400000  -999.250000 52.754199982  -999.250000 1.2554999590 100000.00000 30.952699661
