# LAS format log file from PETREL
# Project units are specified as depth units
#==================================================================
~Version information
VERS.   2.0:
WRAP.   NO:
#==================================================================
~Well
STRT .m      0.0000000000 :
STOP .m      1206.7032000 :
STEP .m     0.15240000 :
NULL .        -999.250000 :
COMP.           : COMPANY
WELL.  NELSON #9-16   : WELL
FLD.            : FIELD
LOC.            : LOCATION
SRVC.           : SERVICE COMPANY
DATE.  2020-08-25 09:56:37   : Log Export Date {yyyy-MM-dd HH:mm:ss}
PROV.           : PROVINCE
UWI.   NELSON #9-16   : UNIQUE WELL ID
API.            : API NUMBER
#==================================================================
~Curve
DEPT .m                   : DEPTH
FACIES ._                 : FACIES
GR .gAPI                  : GR
NPHI .m3/m3               : NPHI
RHOB .g/cm3               : RHOB
RM .ohm.m                 : RM
RT .ohm.m                 : RT
~Parameter
#==================================================================
~Ascii
# ...
 715.97520000  -999.250000 47.913898468 0.1157160029 1.9254000187 5.3220000267 5.5285000801
 716.12760000  -999.250000 49.002799988 0.1305039972 1.9361000061 4.4463000298 4.6718997955
 716.28000000  -999.250000 55.072601318 0.1528429985 1.9255000353 3.5869998932 3.9742999077
 716.43240000  -999.250000 63.444198608 0.1807480007 1.8895000219 2.9219000340 3.4949998856
 716.58480000  -999.250000 78.765701294 0.2107660025 1.8301999569 2.5223999023 3.1630001068
 716.73720000  -999.250000 94.733100891 0.2393220067 1.7518000603 2.3352000713 2.9249999523
 716.88960000  -999.250000 100.62370300 0.2635070086 1.6561000347 2.2614998817 2.7316000462
 717.04200000  -999.250000 93.659103394 0.2811320126 1.5515999794 2.2316999435 2.5913999081
 717.19440000  -999.250000 85.485397339 0.2905040085 1.4593000412 2.2462999821 2.5406999588
 717.34680000  -999.250000 86.265602112 0.2905089855 1.3974000216 2.3396000862 2.5931999683
 717.49920000  -999.250000 89.485099792 0.2811029851 1.3636000156 2.5165998936 2.7091999054
 717.65160000  -999.250000 86.676300049 0.2640880048 1.3414000273 2.7313001156 2.8647000790
 717.80400000  -999.250000 77.966300964 0.2433169931 1.3178000450 2.9263999462 3.0197000504
 717.95640000  -999.250000 70.212196350 0.2237430066 1.2914000750 3.0699000359 3.1322999001
 718.10880000  -999.250000 67.873199463 0.2094420046 1.2656999826 3.1473999023 3.2269999981
 718.26120000  -999.250000 67.970397949 0.2018709928 1.2430000305 3.1677999496 3.3089001179
 718.41360000  -999.250000 68.174797058 0.1997109950 1.2244000435 3.1468000412 3.3524999619
 718.56600000  -999.250000 68.495697021 0.2002310008 1.2114000320 3.0757000446 3.3929998875
 718.71840000  -999.250000 66.820503235 0.2008769959 1.2048000097 2.9965999126 3.4333000183
 718.87080000  -999.250000 71.368202209 0.2002499998 1.2008000612 3.0053000450 3.3966000080
 719.02320000  -999.250000 81.102996826 0.1985179931 1.1944000721 3.0864000320 3.3057999611
 719.17560000  -999.250000 77.989303589 0.1974260062 1.1850999594 3.0903000832 3.2007000446
 719.32800000  -999.250000 67.257698059 0.1992519945 1.1763000488 2.9356000423 3.0824000835
 719.48040000  -999.250000 63.074600220 0.2047349960 1.1723999977 2.7314000130 3.0364999771
 719.63280000  -999.250000 63.120300293 0.2116830051 1.1768000126 2.6308999062 3.0996000767
 719.78520000  -999.250000 67.992103577 0.2162519991 1.1908000708 2.6782000065 3.1173999310
 719.93760000  -999.250000 71.485000610 0.2160390019 1.2109999657 2.7597999573 3.0313999653
 720.09000000  -999.250000 71.354400635 0.2118600011 1.2290999889 2.7288999557 2.9184999466
 720.24240000  -999.250000 75.167297363 0.2066980004 1.2380999327 2.6177000999 2.8046000004
 720.39480000  -999.250000 80.531700134 0.2034330070 1.2386000156 2.5274000168 2.7133998871
 720.54720000  -999.250000 77.514701843 0.2037360072 1.2371999025 2.4512000084 2.6631999016
 720.69960000  -999.250000 72.114303589 0.2083210051 1.2389999628 2.3429000378 2.5901999474
 720.85200000  -999.250000 73.456100464 0.2170040011 1.2436999083 2.2116000652 2.4923000336
 721.00440000  -999.250000 78.658401489 0.2281569988 1.2474000454 2.1154999733 2.4395999908
 721.15680000  -999.250000 79.598899841 0.2387100011 1.2460999489 2.0933001041 2.4007999897
 721.30920000  -999.250000 77.517196655 0.2454899997 1.2394000292 2.1170001030 2.3368999958
 721.46160000  -999.250000 84.662101746 0.2469470054 1.2301999331 2.1228001118 2.2688999176
 721.61400000  -999.250000 93.767601013 0.2440170050 1.2224000692 2.0915000439 2.1914000511
 721.76640000  -999.250000 93.387298584 0.2395859957 1.2161999941 2.0385999680 2.1112000942
 721.91880000  -999.250000 84.495697021 0.2371149957 1.2100999355 1.9618999958 2.0587999821
 722.07120000  -999.250000 77.096496582 0.2394150048 1.2056000233 1.8660999537 2.0122001171
 722.22360000  -999.250000 77.473800659 0.2476159930 1.2041000128 1.7754000425 1.9566999674
 722.37600000  -999.250000 82.525497437 0.2606210113 1.2048000097 1.7069000006 1.9120999575
 722.52840000  -999.250000 89.248298645 0.2753869891 1.2076998949 1.6704000235 1.8684999943
 722.68080000  -999.250000 95.107002258 0.2884060144 1.2145999670 1.6663000584 1.8071999550
 722.83320000  -999.250000 99.312301636 0.2975629866 1.2268999815 1.6710000038 1.7546999454
 722.98560000  -999.250000 104.91419983 0.3029940128 1.2451000214 1.6664999723 1.7318999767
 723.13800000  -999.250000 113.13839722 0.3064129949 1.2675000429 1.6675000191 1.7235000134
 723.29040000  -999.250000 111.33439636 0.3094559908 1.2893999815 1.6828999519 1.7224999666
 723.44280000  -999.250000 104.47370148 0.3125930130 1.3051999807 1.6926000118 1.7301000357
 723.59520000  -999.250000 98.055099487 0.3150370121 1.3123000860 1.6812000275 1.7292000055
 723.74760000  -999.250000 87.932197571 0.3152680099 1.3120000362 1.6606999636 1.7156000137
 723.90000000  -999.250000 84.542198181 0.3118450046 1.3052999973 1.6475000381 1.7094999552
 724.05240000  -999.250000 95.037002563 0.3043499887 1.2937999964 1.6488000154 1.7172000408
 724.20480000  -999.250000 108.65329742 0.2940619886 1.2828999758 1.6728999615 1.7143000364
 724.35720000  -999.250000 108.10440063 0.2836689949 1.2755000591 1.7080999613 1.6991000175
 724.50960000  -999.250000 92.101997375 0.2758310139 1.2683000565 1.7203999758 1.7102999687
 724.66200000  -999.250000 82.425201416 0.2715519965 1.2599999905 1.7216999531 1.7638000250
 724.81440000  -999.250000 80.767799377 0.2697719932 1.2544000149 1.7769999504 1.8502999544
 724.96680000  -999.250000 78.602500916 0.2684650123 1.2536998987 1.9214999676 1.9660999775
 725.11920000  -999.250000 73.715103149 0.2661859989 1.2554000616 2.1208000183 2.0771999359
 725.27160000  -999.250000 63.603298187 0.2628329992 1.2544000149 2.2894999981 2.1328999996
 725.42400000  -999.250000 50.256599426 0.2590939999 1.2439999580 2.3540000916 2.1930000782
 725.57640000  -999.250000 46.486000061 0.2550129890 1.2236000299 2.3491001129 2.3422000408
 725.72880000  -999.250000 60.573699951 0.2490369976 1.2053999901 2.4080998898 2.5748999119
 725.88120000  -999.250000 76.134597778 0.2385859936 1.2020999193 2.6417000294 2.8540000916
 726.03360000  -999.250000 75.463996887 0.2220180035 1.2118999958 3.0508000851 3.1305999756
 726.18600000  -999.250000 62.520198822 0.2003280073 1.2249000072 3.4948999882 3.3039000034
 726.33840000  -999.250000 44.178100586 0.1771750003 1.2351000309 3.8024001122 3.4368999004
 726.49080000  -999.250000 30.185499191 0.1569470018 1.2413001060 4.0036001205 3.6702001095
 726.64320000  -999.250000 24.359699249 0.1424680054 1.2419999838 4.2347998619 4.0297999382
 726.79560000  -999.250000 25.793600082 0.1340830028 1.2355999947 4.5013999939 4.4279999733
 726.94800000  -999.250000 28.880699158 0.1306339949 1.2243000269 4.6940999031 4.7123999596
 727.10040000  -999.250000 29.628299713 0.1311990023 1.2135999203 4.7372999191 4.7059001923
 727.25280000  -999.250000 29.502099991 0.1360280067 1.2070000172 4.5569000244 4.4370999336
 727.40520000  -999.250000 32.641201019 0.1458510011 1.2029000521 4.1325998306 4.0942001343
 727.55760000  -999.250000 40.360900879 0.1603830010 1.1979999542 3.6379001141 3.7643001080
 727.71000000  -999.250000 50.405601501 0.1773229986 1.1881999969 3.2284998894 3.5085000992
 727.86240000  -999.250000 61.907501221 0.1926739961 1.1729999781 2.9600999355 3.3828999996
 728.01480000  -999.250000 73.154403687 0.2021329999 1.1624000072 2.8703999519 3.3129000664
 728.16720000  -999.250000 74.007400513 0.2027390003 1.1664000750 2.9491000175 3.2423999310
 728.31960000  -999.250000 59.532299042 0.1938280016 1.1820000410 3.1056001186 3.2288999557
 728.47200000  -999.250000 44.599300385 0.1769199967 1.1985999346 3.2579998970 3.2832000256
 728.62440000  -999.250000 41.032299042 0.1548800021 1.2068001032 3.4277999401 3.3849999905
 728.77680000  -999.250000 45.637699127 0.1309790015 1.2026998997 3.6463000774 3.6143999100
 728.92920000  -999.250000 52.684398651 0.1083419994 1.1913000345 3.9117000103 3.9881999493
 729.08160000  -999.250000 59.202499390 0.0895429999 1.1835000515 4.2218999863 4.4096999168
