# LAS format log file from PETREL
# Project units are specified as depth units
#==================================================================
~Version information
VERS.   2.0:
WRAP.   NO:
#==================================================================
~Well
STRT .m      0.0000000000 :
STOP .m      1206.7032000 :
STEP .m     0.15240000 :
NULL .        -999.250000 :
COMP.           : COMPANY
WELL.  NELSON #9-16   : WELL
FLD.            : FIELD
LOC.            : LOCATION
SRVC.           : SERVICE COMPANY
DATE.  2020-08-25 09:56:37   : Log Export Date {yyyy-MM-dd HH:mm:ss}
PROV.           : PROVINCE
UWI.   NELSON #9-16   : UNIQUE WELL ID
API.            : API NUMBER
#==================================================================
~Curve
DEPT .m                   : DEPTH
FACIES ._                 : FACIES
GR .gAPI                  : GR
NPHI .m3/m3               : NPHI
RHOB .g/cm3               : RHOB
RM .ohm.m                 : RM
RT .ohm.m                 : RT
~Parameter
#==================================================================
~Ascii
# ...
 318.21120000  -999.250000 74.782302856 0.2739489973 1.8940999508 8.4211997986 7.7325000763
 318.36360000  -999.250000 60.829101563 0.2548939884 1.8875999451 6.1848998070 6.3934998512
 318.51600000  -999.250000 41.059700012 0.2463590056 1.8815000057 4.3218002319 5.0503001213
 318.66840000  -999.250000 27.975000381 0.2451809943 1.8775000572 3.0938999653 4.3635001183
 318.82080000  -999.250000 21.514299393 0.2447859943 1.8792999983 2.4612998962 4.2806000710
 318.97320000  -999.250000 21.477399826 0.2391110063 1.9019000530 2.3217000961 4.3428001404
 319.12560000  -999.250000 27.603799820 0.2260479927 1.9493000507 2.5701000690 4.1756000519
 319.27800000  -999.250000 32.616901398 0.2084700018 1.9988000393 3.0062000751 3.7725999355
 319.43040000  -999.250000 29.464899063 0.1926790029 2.0197999477 3.2193999290 3.3405001163
 319.58280000  -999.250000 21.864999771 0.1854860038 2.0051999092 3.0657999516 3.2025001049
 319.73520000  -999.250000 19.265800476 0.1913519949 1.9778000116 2.8420999050 3.5420000553
 319.88760000  -999.250000 24.950799942 0.2107879966 1.9659000635 2.7655000687 4.2210001945
 320.04000000  -999.250000 35.835300446 0.2405589968 1.9733999968 2.8620998859 4.7263998985
 320.19240000  -999.250000 50.389499664 0.2752360106 1.9739999771 3.0459001064 4.6999001503
 320.34480000  -999.250000 67.253601074 0.3089779913 1.9448000193 3.2000999451 4.3273000717
 320.49720000  -999.250000 80.644401550 0.3365420103 1.8984999657 3.3145999908 4.0391998291
 320.64960000  -999.250000 89.221000671 0.3538759947 1.8636999130 3.4828999043 4.1076998711
 320.80200000  -999.250000 93.769203186 0.3587380052 1.8501999378 3.7516000271 4.4523000717
 320.95440000  -999.250000 93.023902893 0.3515250087 1.8478000164 4.0524997711 4.8228001595
 321.10680000  -999.250000 89.834396362 0.3358280063 1.8389999866 4.2659001350 5.0376000404
 321.25920000  -999.250000 86.613800049 0.3182109892 1.8115999699 4.3548998833 5.0970001221
 321.41160000  -999.250000 82.297500610 0.3068059981 1.7678999901 4.3763999939 4.9730000496
 321.56400000  -999.250000 82.723800659 0.3086929917 1.7114000320 4.3091001511 4.7256999016
 321.71640000  -999.250000 89.846099854 0.3270210028 1.6366999149 4.0588002205 4.4816999435
 321.86880000  -999.250000 93.182296753 0.3592649996 1.5500999689 3.6963999271 4.3151998520
 322.02120000  -999.250000 88.663803101 0.3975259960 1.4796999693 3.4191000462 4.2021999359
 322.17360000  -999.250000 80.519699097 0.4308150113 1.4503999949 3.3080999851 4.1076002121
 322.32600000  -999.250000 70.114501953 0.4487749934 1.4716999531 3.3359000683 3.9570999146
 322.47840000  -999.250000 62.381401062 0.4455870092 1.5394999981 3.3893001080 3.6538000107
 322.63080000  -999.250000 54.854698181 0.4223139882 1.6269000769 3.2574999332 3.3189001083
 322.78320000  -999.250000 41.808601379 0.3862659931 1.6983000040 2.8986999989 3.1391000748
 322.93560000  -999.250000 30.710800171 0.3473579884 1.7379000187 2.5576000214 3.1716001034
 323.08800000  -999.250000 30.087999344 0.3136459887 1.7470999956 2.4323999882 3.4277999401
 323.24040000  -999.250000 33.128898621 0.2887699902 1.7280999422 2.5810000896 3.8696999550
 323.39280000  -999.250000 32.564399719 0.2723599970 1.6906999350 3.0067000389 4.3221001625
 323.54520000  -999.250000 32.271900177 0.2627460063 1.6516000032 3.6828000546 4.7610998154
 323.69760000  -999.250000 31.849599838 0.2594270110 1.6150000095 4.5359997749 5.3791999817
 323.85000000  -999.250000 33.173500061 0.2636530101 1.5766999722 5.4113001823 6.4425001144
 324.00240000  -999.250000 40.218799591 0.2768479884 1.5425000191 6.0636000633 8.1513996124
 324.15480000  -999.250000 48.050998688 0.2983660102 1.5270999670 6.3545999527 10.573699951
 324.30720000  -999.250000 53.954299927 0.3244830072 1.5361999273 6.4443998337 12.855699539
 324.45960000  -999.250000 58.114898682 0.3492650092 1.5629999638 6.4109997749 13.130499840
 324.61200000  -999.250000 57.542198181 0.3667500019 1.6008000374 6.0956997871 11.297100067
 324.76440000  -999.250000 60.192600250 0.3731729984 1.6491999626 5.4893999100 8.9216995239
 324.91680000  -999.250000 69.830200195 0.3683719933 1.7066999674 4.7290000916 6.8621001244
 325.06920000  -999.250000 68.569000244 0.3561120033 1.7649999857 3.8447999954 5.2470002174
 325.22160000  -999.250000 51.116500854 0.3430800140 1.8105000257 2.9184000492 3.9858000278
 325.37400000  -999.250000 33.940498352 0.3364880085 1.8343000412 2.1554999352 3.0571000576
 325.52640000  -999.250000 25.959299088 0.3409790099 1.8395999670 1.6411000490 2.4138000011
 325.67880000  -999.250000 22.718599319 0.3562220037 1.8377000093 1.3163000345 1.9462000132
 325.83120000  -999.250000 21.024400711 0.3769769967 1.8371999264 1.1013000011 1.6031999588
 325.98360000  -999.250000 23.208000183 0.3957050145 1.8404999971 0.9495999813 1.3601000309
 326.13600000  -999.250000 29.174999237 0.4061470032 1.8464000225 0.8475999832 1.1987999678
 326.28840000  -999.250000 32.904499054 0.4056780040 1.8545999527 0.7950999737 1.1180000305
 326.44080000  -999.250000 35.415699005 0.3955230117 1.8660999537 0.7930999994 1.1130000353
 326.59320000  -999.250000 39.608001709 0.3793460131 1.8813000917 0.8436999917 1.1722999811
 326.74560000  -999.250000 41.929100037 0.3615449965 1.8959000111 0.9550999999 1.2922999859
 326.89800000  -999.250000 43.720500946 0.3460280001 1.8973000050 1.1463999748 1.4868999720
 327.05040000  -999.250000 46.263401031 0.3353990018 1.8710999489 1.4523999691 1.7814999819
 327.20280000  -999.250000 48.808101654 0.3305369914 1.8147000074 1.9311000109 2.2295000553
 327.35520000  -999.250000 53.486301422 0.3304019868 1.7386999130 2.6661999226 2.9342999458
 327.50760000  -999.250000 54.857498169 0.3323949873 1.6566998959 3.7300000191 3.9735000134
 327.66000000  -999.250000 52.050399780 0.3338750005 1.5803999901 5.0104999542 5.1820998192
 327.81240000  -999.250000 55.042098999 0.3341490030 1.5181999207 5.9288997650 6.1083998680
 327.96480000  -999.250000 59.612598419 0.3351520002 1.4747999907 5.9381999969 6.4885001183
 328.11720000  -999.250000 64.068603516 0.3396449983 1.4506000280 5.4535999298 6.4643998146
 328.26960000  -999.250000 70.345497131 0.3482309878 1.4431999922 5.0720000267 6.3524999619
 328.42200000  -999.250000 75.606201172 0.3581140041 1.4510999918 5.0229001045 6.3203001022
 328.57440000  -999.250000 74.062797546 0.3650070131 1.4706000090 5.3196997643 6.1483001709
 328.72680000  -999.250000 65.061302185 0.3665939867 1.4879000187 5.7027997971 5.8461999893
 328.87920000  -999.250000 59.958198547 0.3643450141 1.4871999025 5.7448000908 5.6199002266
 329.03160000  -999.250000 63.306301117 0.3622820079 1.4665999413 5.4604997635 5.4751000404
 329.18400000  -999.250000 68.897598267 0.3640460074 1.4358000755 5.1774997711 5.4293999672
 329.33640000  -999.250000 70.356796265 0.3703970015 1.4040000439 5.0058999062 5.5392999649
 329.48880000  -999.250000 74.995300293 0.3785730004 1.3775999546 4.9063000679 5.6085000038
 329.64120000  -999.250000 85.249900818 0.3835319877 1.3639999628 4.8692998886 5.5598001480
 329.79360000  -999.250000 92.916999817 0.3803830147 1.3655999899 4.9165000916 5.5100002289
 329.94600000  -999.250000 94.300598145 0.3669179976 1.3745999336 5.0427999496 5.4643998146
 330.09840000  -999.250000 84.929496765 0.3450630009 1.3801999092 5.1951999664 5.4279999733
 330.25080000  -999.250000 74.085098267 0.3202250004 1.3790999651 5.2987999916 5.4616999626
 330.40320000  -999.250000 69.990898132 0.2989490032 1.3738000393 5.3227000237 5.5434999466
 330.55560000  -999.250000 72.782997131 0.2862820029 1.3660999537 5.3011999130 5.6600999832
 330.70800000  -999.250000 83.407302856 0.2839779854 1.3568999767 5.2799000740 5.8417000771
 330.86040000  -999.250000 92.039901733 0.2898989916 1.3506000042 5.3138999939 6.0973000526
 331.01280000  -999.250000 91.503799438 0.2986139953 1.3539000750 5.5244002342 6.4408001900
 331.16520000  -999.250000 84.362602234 0.3035579920 1.3673000336 6.0748000145 6.8857002258
 331.31760000  -999.250000 72.741798401 0.3002710044 1.3854999542 7.0093002319 7.2671999931
