# LAS format log file from PETREL
# Project units are specified as depth units
#==================================================================
~Version information
VERS.   2.0:
WRAP.   NO:
#==================================================================
~Well
STRT .m      0.0000000000 :
STOP .m      1178.3568000 :
STEP .m     0.15240000 :
NULL .        -999.250000 :
COMP.           : COMPANY
WELL.  NELSON #6-16   : WELL
FLD.            : FIELD
LOC.            : LOCATION
SRVC.           : SERVICE COMPANY
DATE.  2020-08-19 21:46:58   : Log Export Date {yyyy-MM-dd HH:mm:ss}
PROV.           : PROVINCE
UWI.   NELSON #6-16   : UNIQUE WELL ID
API.            : API NUMBER
#==================================================================
~Curve
DEPT .m                   : DEPTH
GR .gAPI                  : GR
NPHI .m3/m3               : NPHI
RHOB .g/cm3               : RHOB
RM .ohm.m                 : RM
RT .ohm.m                 : RT
FACIES ._                 : FACIES
~Parameter
#==================================================================
~Ascii
# ...
 861.82200000 64.484298706 0.2618699968  -999.250000 1.2158999443 1.2167999744  -999.250000
 861.97440000 71.653999329 0.2571479976  -999.250000 1.3492000103 1.2927000523  -999.250000
 862.12680000 87.684600830 0.2537479997  -999.250000 1.4634000063 1.3546999693  -999.250000
 862.27920000 87.131401062 0.2521049976  -999.250000 1.5475000143 1.4171999693  -999.250000
 862.43160000 82.715202332 0.2512359917  -999.250000 1.6584000587 1.5219999552  -999.250000
 862.58400000 83.510597229 0.2498890013  -999.250000 1.8102999926 1.6548999548  -999.250000
 862.73640000 76.064102173 0.2474649996  -999.250000 1.9534000158 1.7673000097  -999.250000
 862.88880000 63.575901031 0.2440879941  -999.250000 2.0443000793 1.8503999710  -999.250000
 863.04120000 66.539199829 0.2404260039  -999.250000 2.0929000378 1.9043999910  -999.250000
 863.19360000 72.735298157 0.2375379950  -999.250000 2.1291999817 1.9140000343  -999.250000
 863.34600000 72.858703613 0.2363280058  -999.250000 2.1412999630 1.8882999420  -999.250000
 863.49840000 77.421096802 0.2368779927  -999.250000 2.0873999596 1.8451000452  -999.250000
 863.65080000 86.609397888 0.2383220047  -999.250000 1.9699000120 1.7894999981  -999.250000
 863.80320000 89.086502075 0.2393369973  -999.250000 1.8430999517 1.7326999903  -999.250000
 863.95560000 75.066497803 0.2391099930  -999.250000 1.7401000261 1.7055000067  -999.250000
 864.10800000 64.141998291 0.2381079942  -999.250000 1.6835999489 1.7249000072  -999.250000
 864.26040000 67.879402161 0.2369520068  -999.250000 1.7137999535 1.7719999552  -999.250000
 864.41280000 69.685997009 0.2346310019  -999.250000 1.8499000072 1.8427000046  -999.250000
 864.56520000 77.120399475 0.2293200046  -999.250000 2.0650999546 1.9443999529  -999.250000
 864.71760000 87.059501648 0.2207549959  -999.250000 2.3280000687 2.0761001110  -999.250000
 864.87000000 87.459800720 0.2113199979  -999.250000 2.6391000748 2.2606000900  -999.250000
 865.02240000 75.119201660 0.2046899945  -999.250000 2.9918000698 2.5399999619  -999.250000
 865.17480000 63.848899841 0.2017409950  -999.250000 3.3440999985 2.8857998848  -999.250000
 865.32720000 62.178600311 0.1977140009  -999.250000 3.6328999996 3.2551999092  -999.250000
 865.47960000 74.170196533 0.1869840026  -999.250000 3.8598999977 3.6294000149  -999.250000
 865.63200000 76.706802368 0.1734800041  -999.250000 4.0556998253 3.9635000229  -999.250000
 865.78440000 72.644401550 0.1681810021  -999.250000 4.2663002014 4.2547001839  -999.250000
 865.93680000 70.989997864 0.1714030057  -999.250000 4.5142998695 4.5595002174  -999.250000
 866.08920000 62.549198151 0.1721480042  -999.250000 4.8372998238 4.9039001465  -999.250000
 866.24160000 52.395698547 0.1652459949  -999.250000 5.2614002228 5.2806000710  -999.250000
 866.39400000 51.400299072 0.1550450027  -999.250000 5.7807998657 5.7012000084  -999.250000
 866.54640000 58.068000793 0.1471000016  -999.250000 6.3298997879 6.0580000877  -999.250000
 866.69880000 58.537998199 0.1439490020  -999.250000 6.7895002365 6.2238998413  -999.250000
 866.85120000 54.084800720 0.1456490010  -999.250000 6.9739999771 6.1203999519  -999.250000
 867.00360000 48.877201080 0.1505859941  -999.250000 6.7171998024 5.6483001709  -999.250000
 867.15600000 51.016998291 0.1558730006  -999.250000 6.0020999908 4.9217000008  -999.250000
 867.30840000 57.638401031 0.1587190032  -999.250000 5.0384001732 4.1712999344  -999.250000
 867.46080000 62.019100189 0.1580509990  -999.250000 4.1202001572 3.5044999123  -999.250000
 867.61320000 61.754398346 0.1552200019  -999.250000 3.3761000633 2.9516000748  -999.250000
 867.76560000 55.987998962 0.1531990021  -999.250000 2.8059999943 2.5171999931  -999.250000
 867.91800000 45.035198212 0.1543799937  -999.250000 2.3729000092 2.1851000786  -999.250000
 868.07040000 39.534698486 0.1588589996  -999.250000 2.0562999249 1.9509999752  -999.250000
 868.22280000 34.840801239 0.1647299975  -999.250000 1.8499000072 1.8011000156  -999.250000
 868.37520000 37.716400146 0.1696980000  -999.250000 1.7410000563 1.7182999849  -999.250000
 868.52760000 46.073200226 0.1724649966  -999.250000 1.7036000490 1.6877000332  -999.250000
 868.68000000 51.415798187 0.1730359942  -999.250000 1.7144999504 1.6965999603  -999.250000
 868.83240000 50.800498962 0.1720809937  -999.250000 1.7640999556 1.7353999615  -999.250000
 868.98480000 49.990699768 0.1703860015  -999.250000 1.8472000360 1.8072999716  -999.250000
 869.13720000 52.554698944 0.1690360010  -999.250000 1.9686000347 1.9269000292  -999.250000
 869.28960000 49.276798248 0.1690679938  -999.250000 2.1343998909 2.1034998894  -999.250000
 869.44200000 44.101501465 0.1698260009  -999.250000 2.3613998890 2.3412001133  -999.250000
 869.59440000 45.821399689 0.1685159951  -999.250000 2.6812000275 2.6282999516  -999.250000
 869.74680000 60.593498230 0.1630890071  -999.250000 3.1389000416 2.9233000278  -999.250000
 869.89920000 67.849502563 0.1565150023  -999.250000 3.7337999344 3.1531000137  -999.250000
 870.05160000 57.307899475 0.1573680043  -999.250000 4.2512998581 3.2362999916  -999.250000
 870.20400000 49.631900787 0.1738239974  -999.250000 4.2322998047 3.1851999760  -999.250000
 870.35640000 62.122001648 0.2069270015  -999.250000 3.6586000919 3.0490000248  -999.250000
 870.50880000 89.898002625 0.2494010031  -999.250000 3.0292000771 2.8743000031  -999.250000
 870.66120000 107.03130341 0.2884800136  -999.250000 2.5675001144 2.7054998875  -999.250000
 870.81360000 101.00559998 0.3119120002  -999.250000 2.2778999805 2.5708000660  -999.250000
 870.96600000 92.047996521 0.3149720132  -999.250000 2.1603999138 2.4400999546  -999.250000
 871.11840000 83.312301636 0.3012279868  -999.250000 2.1851000786 2.3106999397  -999.250000
 871.27080000 76.434501648 0.2786099911  -999.250000 2.2593998909 2.2214999199  -999.250000
 871.42320000 75.023300171 0.2563650012  -999.250000 2.3125000000 2.1926000118  -999.250000
 871.57560000 71.511802673 0.2409249991  -999.250000 2.3708999157 2.2306001186  -999.250000
 871.72800000 67.748199463 0.2327100039  -999.250000 2.4795999527 2.3454999924  -999.250000
 871.88040000 67.212097168 0.2286320031  -999.250000 2.6470999718 2.5122001171  -999.250000
 872.03280000 67.399200439 0.2265579998  -999.250000 2.8617999554 2.6391000748  -999.250000
 872.18520000 59.087100983 0.2269019932  -999.250000 3.0755000114 2.6914999485  -999.250000
 872.33760000 51.291801453 0.2312120050  -999.250000 3.1675999165 2.6717998981  -999.250000
 872.49000000 58.641300201 0.2394990027  -999.250000 3.0632998943 2.6017999649  -999.250000
 872.64240000 68.138801575 0.2486730069  -999.250000 2.8166999817 2.5399000645  -999.250000
 872.79480000 72.029899597 0.2543520033  -999.250000 2.5645999908 2.5148000717  -999.250000
 872.94720000 74.519599915 0.2546980083  -999.250000 2.4126999378 2.4927999973  -999.250000
 873.09960000 78.135902405 0.2520169914  -999.250000 2.3547999859 2.4446001053  -999.250000
 873.25200000 80.022003174 0.2499690056  -999.250000 2.3310000896 2.3714001179  -999.250000
 873.40440000 82.652000427 0.2490759939  -999.250000 2.2932999134 2.3017001152  -999.250000
 873.55680000 88.514602661 0.2454590052  -999.250000 2.2539000511 2.2880001068  -999.250000
 873.70920000 84.092796326 0.2343769968  -999.250000 2.2662999630 2.3603000641  -999.250000
 873.86160000 69.632400513 0.2151229978  -999.250000 2.3903000355 2.5060999393  -999.250000
 874.01400000 56.124198914 0.1928399950  -999.250000 2.6554999352 2.6782000065  -999.250000
 874.16640000 43.607898712 0.1760690063  -999.250000 3.0241000652 2.8297998905  -999.250000
 874.31880000 35.549098969 0.1720860004  -999.250000 3.3563001156 2.9056000710  -999.250000
 874.47120000 42.226600647 0.1829230040  -999.250000 3.5046000481 2.9098000526  -999.250000
 874.62360000 52.658699036 0.2044010013  -999.250000 3.4107000828 2.8784999847  -999.250000
 874.77600000 59.756500244 0.2277379930  -999.250000 3.1182999611 2.8020999432  -999.250000
 874.92840000 69.306999207 0.2428719997  -999.250000 2.7653999329 2.6877000332  -999.250000
