# LAS format log file from PETREL
# Project units are specified as depth units
#==================================================================
~Version information
VERS.   2.0:
WRAP.   NO:
#==================================================================
~Well
STRT .m      0.0000000000 :
STOP .m      1178.3568000 :
STEP .m     0.15240000 :
NULL .        -999.250000 :
COMP.           : COMPANY
WELL.  NELSON #6-16   : WELL
FLD.            : FIELD
LOC.            : LOCATION
SRVC.           : SERVICE COMPANY
DATE.  2020-08-19 21:46:58   : Log Export Date {yyyy-MM-dd HH:mm:ss}
PROV.           : PROVINCE
UWI.   NELSON #6-16   : UNIQUE WELL ID
API.            : API NUMBER
#==================================================================
~Curve
DEPT .m                   : DEPTH
GR .gAPI                  : GR
NPHI .m3/m3               : NPHI
RHOB .g/cm3               : RHOB
RM .ohm.m                 : RM
RT .ohm.m                 : RT
FACIES ._                 : FACIES
~Parameter
#==================================================================
~Ascii
# ...
 13.258800000 48.386398315  -999.250000  -999.250000 100000.00000 30.954099655  -999.250000
 13.411200000 46.492298126  -999.250000  -999.250000 100000.00000 26.335899353  -999.250000
 13.563600000 51.109600067  -999.250000  -999.250000 100000.00000 24.984500885  -999.250000
 13.716000000 52.199001312  -999.250000  -999.250000 100000.00000 25.306800842  -999.250000
 13.868400000 52.185600281  -999.250000  -999.250000 100000.00000 25.617399216  -999.250000
 14.020800000 53.388099670  -999.250000  -999.250000 100000.00000 25.508399963  -999.250000
 14.173200000 53.419498444  -999.250000  -999.250000 100000.00000 24.631500244  -999.250000
 14.325600000 51.942001343  -999.250000  -999.250000 100000.00000 21.961099625  -999.250000
 14.478000000 49.089000702  -999.250000  -999.250000 100000.00000 19.369800568  -999.250000
 14.630400000 43.572498322  -999.250000  -999.250000 100000.00000 18.284900665  -999.250000
 14.782800000 39.765998840  -999.250000  -999.250000 100000.00000 17.360700607  -999.250000
 14.935200000 43.967399597  -999.250000  -999.250000 100000.00000 16.420900345  -999.250000
 15.087600000 46.363601685  -999.250000  -999.250000 100000.00000 15.946599960  -999.250000
 15.240000000 40.808399200  -999.250000  -999.250000 100000.00000 15.932499886  -999.250000
 15.392400000 40.365398407  -999.250000  -999.250000 100000.00000 16.103500366  -999.250000
 15.544800000 46.399101257  -999.250000  -999.250000 100000.00000 16.418500900  -999.250000
 15.697200000 48.024799347  -999.250000  -999.250000 100000.00000 16.548400879  -999.250000
 15.849600000 48.270401001  -999.250000  -999.250000 100000.00000 16.499900818  -999.250000
 16.002000000 47.313201904  -999.250000  -999.250000 100000.00000 16.762300491  -999.250000
 16.154400000 41.015800476  -999.250000  -999.250000 100000.00000 17.151599884  -999.250000
 16.306800000 41.596900940  -999.250000  -999.250000 100000.00000 17.720199585  -999.250000
 16.459200000 44.451400757  -999.250000  -999.250000 100000.00000 18.270399094  -999.250000
 16.611600000 43.882900238  -999.250000  -999.250000 100000.00000 18.367599487  -999.250000
 16.764000000 42.961299896  -999.250000  -999.250000 100000.00000 18.862699509  -999.250000
 16.916400000 46.374801636  -999.250000  -999.250000 100000.00000 19.812099457  -999.250000
 17.068800000 49.583198547  -999.250000  -999.250000 100000.00000 20.415700912  -999.250000
 17.221200000 50.009399414  -999.250000  -999.250000 100000.00000 20.899599075  -999.250000
 17.373600000 45.686298370  -999.250000  -999.250000 100000.00000 21.420900345  -999.250000
 17.526000000 39.177299500  -999.250000  -999.250000 100000.00000 21.679100037  -999.250000
 17.678400000 40.820598602  -999.250000  -999.250000 100000.00000 21.666000366  -999.250000
 17.830800000 42.551799774  -999.250000  -999.250000 100000.00000 21.779699326  -999.250000
 17.983200000 44.870399475  -999.250000  -999.250000 100000.00000 22.402000427  -999.250000
 18.135600000 51.872600555  -999.250000  -999.250000 100000.00000 23.460699081  -999.250000
 18.288000000 56.880199432  -999.250000  -999.250000 100000.00000 25.134099960  -999.250000
 18.440400000 57.287498474  -999.250000  -999.250000 100000.00000 26.525299072  -999.250000
 18.592800000 53.632801056  -999.250000  -999.250000 100000.00000 27.516000748  -999.250000
 18.745200000 51.515800476  -999.250000  -999.250000 100000.00000 29.241699219  -999.250000
 18.897600000 55.392601013  -999.250000  -999.250000 100000.00000 30.888099670  -999.250000
 19.050000000 60.793300629  -999.250000  -999.250000 100000.00000 31.917699814  -999.250000
 19.202400000 59.814800262  -999.250000  -999.250000 100000.00000 32.566001892  -999.250000
 19.354800000 63.962501526  -999.250000  -999.250000 100000.00000 33.427398682  -999.250000
 19.507200000 71.413696289  -999.250000  -999.250000 100000.00000 34.347599030  -999.250000
 19.659600000 67.635002136  -999.250000  -999.250000 100000.00000 35.009998322  -999.250000
 19.812000000 67.526496887  -999.250000  -999.250000 100000.00000 35.720901489  -999.250000
 19.964400000 75.744796753  -999.250000  -999.250000 100000.00000 37.211700439  -999.250000
 20.116800000 79.974899292  -999.250000  -999.250000 100000.00000 38.119300842  -999.250000
 20.269200000 75.857398987  -999.250000  -999.250000 100000.00000 39.337001801  -999.250000
 20.421600000 65.794502258  -999.250000  -999.250000 100000.00000 41.318801880  -999.250000
 20.574000000 60.297199249  -999.250000  -999.250000 100000.00000 43.486099243  -999.250000
 20.726400000 56.454799652  -999.250000  -999.250000 100000.00000 45.588699341  -999.250000
 20.878800000 57.735698700  -999.250000  -999.250000 100000.00000 47.678501129  -999.250000
 21.031200000 63.140598297  -999.250000  -999.250000 100000.00000 50.372501373  -999.250000
 21.183600000 66.611396790  -999.250000  -999.250000 100000.00000 55.302200317  -999.250000
 21.336000000 68.946098328  -999.250000  -999.250000 100000.00000 62.834098816  -999.250000
 21.488400000 67.274803162  -999.250000  -999.250000 100000.00000 70.731101990  -999.250000
 21.640800000 65.894798279  -999.250000  -999.250000 100000.00000 79.074699402  -999.250000
 21.793200000 70.377601624  -999.250000  -999.250000 100000.00000 85.829803467  -999.250000
 21.945600000 75.126403809  -999.250000  -999.250000 100000.00000 88.099098206  -999.250000
 22.098000000 73.313499451  -999.250000  -999.250000 100000.00000 96.441398621  -999.250000
 22.250400000 68.100799561  -999.250000  -999.250000 100000.00000 113.16560364  -999.250000
 22.402800000 63.497299194  -999.250000  -999.250000 100000.00000 143.31340027  -999.250000
 22.555200000 61.769401550  -999.250000  -999.250000 100000.00000 306.03320313  -999.250000
 22.707600000 63.590400696  -999.250000  -999.250000 100000.00000 333.05371094  -999.250000
 22.860000000 50.720600128  -999.250000  -999.250000 100000.00000 142.13540649  -999.250000
 23.012400000 43.223999023  -999.250000  -999.250000 100000.00000 102.90039825  -999.250000
 23.164800000 49.281600952  -999.250000  -999.250000 100000.00000 108.51149750  -999.250000
 23.317200000 57.156200409  -999.250000  -999.250000 100000.00000 131.80149841  -999.250000
 23.469600000 67.567001343  -999.250000  -999.250000 100000.00000 149.22990417  -999.250000
 23.622000000 69.982597351  -999.250000  -999.250000 100000.00000 143.76040649  -999.250000
 23.774400000 63.710700989  -999.250000  -999.250000 100000.00000 141.44580078  -999.250000
 23.926800000 60.343498230  -999.250000  -999.250000 100000.00000 140.97189331  -999.250000
 24.079200000 58.456100464  -999.250000  -999.250000 100000.00000 137.76310730  -999.250000
 24.231600000 54.899101257  -999.250000  -999.250000 100000.00000 131.49249268  -999.250000
 24.384000000 48.269001007  -999.250000  -999.250000 100000.00000 125.11029816  -999.250000
 24.536400000 44.663101196  -999.250000  -999.250000 100000.00000 120.71510315  -999.250000
 24.688800000 45.269001007  -999.250000  -999.250000 100000.00000 116.30970001  -999.250000
 24.841200000 45.201599121  -999.250000  -999.250000 100000.00000 103.87550354  -999.250000
 24.993600000 44.744899750  -999.250000  -999.250000 100000.00000 90.711502075  -999.250000
 25.146000000 42.385200500  -999.250000  -999.250000 100000.00000 84.866203308  -999.250000
 25.298400000 41.137699127  -999.250000  -999.250000 100000.00000 76.319099426  -999.250000
 25.450800000 44.089801788  -999.250000  -999.250000 100000.00000 68.117301941  -999.250000
 25.603200000 46.840000153  -999.250000  -999.250000 100000.00000 56.725498199  -999.250000
 25.755600000 51.013401031  -999.250000  -999.250000 100000.00000 46.310199738  -999.250000
 25.908000000 59.886001587  -999.250000  -999.250000 100000.00000 39.628898621  -999.250000
 26.060400000 62.698898315  -999.250000  -999.250000 100000.00000 35.348201752  -999.250000
 26.212800000 55.129001617  -999.250000  -999.250000 100000.00000 31.056499481  -999.250000
 26.365200000 53.109199524  -999.250000  -999.250000 100000.00000 26.776599884  -999.250000
