# LAS format log file from PETREL
# Project units are specified as depth units
#==================================================================
~Version information
VERS.   2.0:
WRAP.   NO:
#==================================================================
~Well
STRT .m      0.0000000000 :
STOP .m      1206.7032000 :
STEP .m     0.15240000 :
NULL .        -999.250000 :
COMP.           : COMPANY
WELL.  NELSON #9-16   : WELL
FLD.            : FIELD
LOC.            : LOCATION
SRVC.           : SERVICE COMPANY
DATE.  2020-08-25 09:56:37   : Log Export Date {yyyy-MM-dd HH:mm:ss}
PROV.           : PROVINCE
UWI.   NELSON #9-16   : UNIQUE WELL ID
API.            : API NUMBER
#==================================================================
~Curve
DEPT .m                   : DEPTH
FACIES ._                 : FACIES
GR .gAPI                  : GR
NPHI .m3/m3               : NPHI
RHOB .g/cm3               : RHOB
RM .ohm.m                 : RM
RT .ohm.m                 : RT
~Parameter
#==================================================================
~Ascii
# ...
 636.42240000 7.0000000000 21.692300797 0.2183849961 1.0664000511 0.8993999958 9.5992002487
 636.57480000 7.0000000000 26.214500427 0.1843370050 1.0680999756 1.0319000483 19.716400146
 636.72720000 7.0000000000 30.421699524 0.1654250026 1.0706000328 1.3026000261 22.229799271
 636.87960000 7.0000000000 34.023601532 0.1658129990 1.0733000040 1.4724999666 18.700199127
 637.03200000 7.0000000000 35.251800537 0.1793379933 1.0729999542 1.4744999409 19.588100433
 637.18440000 7.0000000000 31.397300720 0.1944029927 1.0685999393 1.5599000454 23.748600006
 637.33680000 7.0000000000 29.118799210 0.2011599988 1.0623999834 1.7927000523 48.686599731
 637.48920000 7.0000000000 29.822700500 0.1957660019 1.0570999384 1.9565999508 100000.00000
 637.64160000 7.0000000000 25.796800613 0.1801729947 1.0535999537 1.9010000229 100000.00000
 637.79400000 7.0000000000 18.009899139 0.1596110016 1.0513000488 1.8079999685 100000.00000
 637.94640000 7.0000000000 14.290200233 0.1402859986 1.0490000248 1.7860000134 100000.00000
 638.09880000 7.0000000000 14.690999985 0.1274829954 1.0456999540 1.7690999508 100000.00000
 638.25120000 7.0000000000 16.117799759 0.1237450019 1.0418000221 1.6518000364 100000.00000
 638.40360000 7.0000000000 17.503900528 0.1279650033 1.0388000011 1.4237999916 103.35890198
 638.55600000 7.0000000000 20.802000046 0.1366620064 1.0411000252 1.1953999996 25.482099533
 638.70840000 7.0000000000 23.404100418 0.1464820057 1.0513000488 1.0578999519 15.676300049
 638.86080000 7.0000000000 22.213100433 0.1560750008 1.0663000345 1.0204999447 13.190999985
 639.01320000 7.0000000000 21.861200333 0.1656199992 1.0785000324 1.0789999962 18.923400879
 639.16560000 7.0000000000 24.310600281 0.1745789945 1.0809999704 1.2677999735 34.689399719
 639.31800000 7.0000000000 25.614700317 0.1798930019 1.0720999241 1.6168999672 24.601999283
 639.47040000 7.0000000000 23.789199829 0.1768639982 1.0573000908 1.9689999819 16.016199112
 639.62280000 7.0000000000 20.800100327 0.1626199931 1.0435999632 2.0188000202 12.612500191
 639.77520000 7.0000000000 21.031999588 0.1393020004 1.0340999365 1.8493000269 11.833399773
 639.92760000 7.0000000000 22.838100433 0.1136649996 1.0296000242 1.7101000547 17.250799179
 640.08000000 7.0000000000 22.891199112 0.0933829993 1.0313000679 1.6399999857 37.795799255
 640.23240000 7.0000000000 24.276699066 0.0835890025 1.0370999575 1.5677000284 32.663799286
 640.38480000 7.0000000000 29.070899963 0.0859600008 1.0410000086 1.4514000416 16.054800034
 640.53720000 7.0000000000 31.881399155 0.0996289998 1.0394999981 1.3140000105 10.079000473
 640.68960000 7.0000000000 31.586799622 0.1220280007 1.0365999937 1.2074999809 8.3227996826
 640.84200000 7.0000000000 31.803499222 0.1495559961 1.0371999741 1.2158000469 9.3081998825
 640.99440000 7.0000000000 34.728900909 0.1782770008 1.0414000750 1.4744999409 12.781200409
 641.14680000 7.0000000000 42.605998993 0.2044129968 1.0461000204 2.2974998951 19.003200531
 641.29920000 7.0000000000 52.135501862 0.2243389934 1.0491999388 4.6304998398 40.487998962
 641.45160000 7.0000000000 59.797000885 0.2346529961 1.0523999929 10.949099541 100000.00000
 641.60400000 7.0000000000 61.966999054 0.2332170010 1.0588001013 27.340000153 100000.00000
 641.75640000 7.0000000000 60.441699982 0.2208520025 1.0690000057 91.030296326 100000.00000
 641.90880000 7.0000000000 52.409900665 0.2020190060 1.0773000717 39.760898590 100000.00000
 642.06120000 7.0000000000 36.727901459 0.1838520020 1.0748000145 8.0682001114 100000.00000
 642.21360000 7.0000000000 27.331899643 0.1738560051 1.0594000816 3.0627000332 100000.00000
 642.36600000 7.0000000000 28.520700455 0.1770939976 1.0420999527 1.6999000311 18.715599060
 642.51840000 7.0000000000 32.768299103 0.1939080060 1.0358999968 1.1900999546 9.8513002396
 642.67080000 7.0000000000 32.654499054 0.2192679942 1.0403000116 0.9882000089 10.479100227
 642.82320000 7.0000000000 31.723699570 0.2443940043 1.0463000536 0.9932000041 15.332900047
 642.97560000 7.0000000000 31.998500824 0.2605549991 1.0508999825 1.2326999903 12.431699753
 643.12800000 7.0000000000 31.941099167 0.2631349862 1.0564000607 1.7403000593 8.5958003998
 643.28040000 7.0000000000 30.392799377 0.2535870075 1.0614999533 2.2349998951 6.9352998734
 643.43280000 7.0000000000 30.274099350 0.2378730029 1.0640000105 2.2662999630 6.3024997711
 643.58520000 7.0000000000 30.812500000 0.2226720005 1.0636999607 2.0899999142 8.5030002594
 643.73760000 7.0000000000 25.649999619 0.2119950056 1.0623999834 1.9954999685 28.508899689
 643.89000000 7.0000000000 18.011100769 0.2063419968 1.0608000755 1.9859000444 100000.00000
 644.04240000 7.0000000000 12.749099731 0.2042289972 1.0594999790 2.0050001144 100000.00000
 644.19480000 7.0000000000 11.195099831 0.2041170001 1.0593000650 2.0122001171 100000.00000
 644.34720000 7.0000000000 14.740200043 0.2054080069 1.0595999956 1.9934999943 100000.00000
 644.49960000 7.0000000000 18.103300095 0.2083840072 1.0578000546 1.9586000443 100000.00000
 644.65200000 7.0000000000 17.824699402 0.2133949995 1.0526000261 1.9194999933 717.79260254
 644.80440000 7.0000000000 19.631900787 0.2196969986 1.0476999283 1.8579000235 62.780700684
 644.95680000 7.0000000000 22.731399536 0.2243900001 1.0461999178 1.7287000418 28.270799637
 645.10920000 7.0000000000 23.816200256 0.2228969932 1.0455000401 1.5339000225 18.525299072
 645.26160000 7.0000000000 25.390499115 0.2116609961 1.0441999435 1.3557000160 16.252599716
 645.41400000 7.0000000000 27.367099762 0.1918639988 1.0444999933 1.2748999596 20.519599915
 645.56640000 7.0000000000 27.464199066 0.1708170027 1.0478000641 1.3339999914 45.765598297
 645.71880000 7.0000000000 28.758600235 0.1585679948 1.0533000231 1.5456000566 100.38580322
 645.87120000 7.0000000000 33.586101532 0.1611869931 1.0578000546 1.8299000263 60.108600616
 646.02360000 7.0000000000 36.918300629 0.1760990024 1.0584000349 1.9980000257 41.541500092
 646.17600000 7.0000000000 34.012199402 0.1940190047 1.0568000078 2.0085999966 43.439601898
 646.32840000 7.0000000000 29.371000290 0.2060460001 1.0550999641 1.9786000252 147.76829529
 646.48080000 7.0000000000 25.798400879 0.2096340060 1.0523999929 1.9427000284 100000.00000
 646.63320000 7.0000000000 23.949600220 0.2086080015 1.0458000898 1.8712999821 100000.00000
 646.78560000 7.0000000000 24.010000229 0.2083159983 1.0361000299 1.7690999508 100000.00000
 646.93800000 7.0000000000 21.367099762 0.2113510072 1.0291999578 1.6545000076 100000.00000
 647.09040000 7.0000000000 19.415199280 0.2170459926 1.0311999321 1.5068999529 100000.00000
 647.24280000 7.0000000000 18.944900513 0.2238059938 1.0411000252 1.3265000582 116.43060303
 647.39520000 7.0000000000 17.656799316 0.2311539948 1.0493000746 1.1728999615 28.101699829
 647.54760000 7.0000000000 19.032800674 0.2399010062 1.0486999750 1.0726000071 13.104700089
 647.70000000 7.0000000000 23.624900818 0.2509450018 1.0434000492 0.9983000159 10.095399857
 647.85240000 7.0000000000 26.506200790 0.2636060119 1.0443000793 0.9607999921 11.191100121
 648.00480000 7.0000000000 26.471700668 0.2747809887 1.0546998978 1.0045000315 9.7772998810
 648.15720000 7.0000000000 28.893100739 0.2794089913 1.0666999817 1.1111999750 7.7790999413
 648.30960000 7.0000000000 32.613700867 0.2724570036 1.0703999996 1.1887999773 7.9147000313
 648.46200000 7.0000000000 33.237800598 0.2514829934 1.0638000965 1.2237999439 8.6585998535
 648.61440000 7.0000000000 34.402400970 0.2185499966 1.0532000065 1.3161000013 11.683899879
 648.76680000 7.0000000000 33.049598694 0.1802449971 1.0464999676 1.5349999666 36.307998657
 648.91920000 7.0000000000 30.615600586 0.1453839988 1.0465999842 1.8349000216 100000.00000
 649.07160000 7.0000000000 27.334600449 0.1211970001 1.0503000021 2.0195000172 200.51310730
 649.22400000 7.0000000000 23.409400940 0.1102180034 1.0529000759 1.9910000563 148.40730286
 649.37640000 7.0000000000 22.431999207 0.1104350016 1.0520999432 1.8782000542 100000.00000
 649.52880000 7.0000000000 19.919099808 0.1183789968 1.0513000488 1.7926000357 100000.00000
