# LAS format log file from PETREL
# Project units are specified as depth units
#==================================================================
~Version information
VERS.   2.0:
WRAP.   NO:
#==================================================================
~Well
STRT .m      0.0000000000 :
STOP .m      1206.7032000 :
STEP .m     0.15240000 :
NULL .        -999.250000 :
COMP.           : COMPANY
WELL.  NELSON #9-16   : WELL
FLD.            : FIELD
LOC.            : LOCATION
SRVC.           : SERVICE COMPANY
DATE.  2020-08-25 09:56:37   : Log Export Date {yyyy-MM-dd HH:mm:ss}
PROV.           : PROVINCE
UWI.   NELSON #9-16   : UNIQUE WELL ID
API.            : API NUMBER
#==================================================================
~Curve
DEPT .m                   : DEPTH
FACIES ._                 : FACIES
GR .gAPI                  : GR
NPHI .m3/m3               : NPHI
RHOB .g/cm3               : RHOB
RM .ohm.m                 : RM
RT .ohm.m                 : RT
~Parameter
#==================================================================
~Ascii
# ...
 238.65840000  -999.250000 85.838798523 0.4040339887 2.0204999447 1.5918999910 3.1122000217
 238.81080000  -999.250000 81.593902588 0.4246700108 2.0041000843 1.4769999981 3.0999000072
 238.96320000  -999.250000 70.486900330 0.4413230121 1.9988000393 1.4743000269 3.2952001095
 239.11560000  -999.250000 60.804199219 0.4506070018 2.0044000149 1.6073000431 3.6168000698
 239.26800000  -999.250000 59.918399811 0.4509870112 2.0186998844 1.8983000517 3.7853999138
 239.42040000  -999.250000 68.301498413 0.4434620142 2.0367000103 2.3189001083 3.8132998943
 239.57280000  -999.250000 82.024597168 0.4311549962 2.0498001575 2.7304000854 3.9874000549
 239.72520000  -999.250000 92.475601196 0.4181489944 2.0520000458 3.0297999382 4.5331997871
 239.87760000  -999.250000 96.336799622 0.4080640078 2.0460999012 3.2939999104 5.7603998184
 240.03000000  -999.250000 94.210800171 0.4031499922 2.0425999165 3.5984001160 7.9779000282
 240.18240000  -999.250000 88.098396301 0.4037970006 2.0508000851 3.9261999130 10.147399902
 240.33480000  -999.250000 88.697799683 0.4086630046 2.0692999363 4.2337999344 10.369600296
 240.48720000  -999.250000 99.018600464 0.4154070020 2.0883998871 4.4467000961 9.3332996368
 240.63960000  -999.250000 106.33760071 0.4219030142 2.0996000767 4.4862999916 8.3724002838
 240.79200000  -999.250000 102.54979706 0.4275679886 2.0943000317 4.4246001244 8.1277999878
 240.94440000  -999.250000 94.369102478 0.4336670041 2.0648000240 4.3983001709 8.5817003250
 241.09680000  -999.250000 90.915397644 0.4419279993 2.0192999840 4.4053001404 9.1115999222
 241.24920000  -999.250000 87.902397156 0.4523209929 1.9809999466 4.3264999390 8.9034004211
 241.40160000  -999.250000 84.868797302 0.4620600045 1.9643000364 4.0725998878 7.9018998146
 241.55400000  -999.250000 86.004600525 0.4669139981 1.9646999836 3.6740999222 6.8902997971
 241.70640000  -999.250000 85.969596863 0.4639219940 1.9740999937 3.2588999271 6.2445001602
 241.85880000  -999.250000 81.719902039 0.4532060027 1.9918999672 2.9289999008 5.7842001915
 242.01120000  -999.250000 79.495002747 0.4377689958 2.0160999298 2.7046999931 5.3884000778
 242.16360000  -999.250000 80.392097473 0.4222260118 2.0362000465 2.5485999584 4.9187998772
 242.31600000  -999.250000 80.187202454 0.4115859866 2.0425000191 2.3994998932 4.3456001282
 242.46840000  -999.250000 79.281196594 0.4102720022 2.0350999832 2.2265000343 3.9035000801
 242.62080000  -999.250000 75.900497437 0.4205830097 2.0204999447 2.0567998886 3.6770999432
 242.77320000  -999.250000 70.941398621 0.4407469928 2.0070998669 1.9349999428 3.5685000420
 242.92560000  -999.250000 66.874801636 0.4644590020 2.0002999306 1.8704999685 3.4635000229
 243.07800000  -999.250000 68.789001465 0.4832290113 2.0004000664 1.8287999630 3.2950999737
 243.23040000  -999.250000 72.573699951 0.4904249907 2.0025000572 1.7766000032 3.1349000931
 243.38280000  -999.250000 71.000000000 0.4843280017 1.9915000200 1.7433999777 3.1675999165
 243.53520000  -999.250000 63.766201019 0.4677129984 1.9406999350 1.8085999489 3.4674000740
 243.68760000  -999.250000 58.309898376 0.4452260137 1.8321000338 2.0460000038 3.9751999378
 243.84000000  -999.250000 63.470901489 0.4206030071 1.6950000525 2.4988000393 4.5499000549
 243.99240000  -999.250000 77.788597107 0.3958609998 1.5993000269 3.1751999855 5.1297998428
 244.14480000  -999.250000 94.913902283 0.3722389936 1.5878000259 4.1112999916 6.0006999969
 244.29720000  -999.250000 107.46410370 0.3515839875 1.6449000835 5.5026998520 7.8109002113
 244.44960000  -999.250000 115.34770203 0.3365510106 1.7200999260 7.4804000854 10.888299942
 244.60200000  -999.250000 116.13490295 0.3295769989 1.7735999823 9.1262998581 14.182200432
 244.75440000  -999.250000 103.03530121 0.3310300112 1.8073000908 8.9549999237 15.204400063
 244.90680000  -999.250000 91.473197937 0.3381560147 1.8468999863 7.4183001518 13.171199799
 245.05920000  -999.250000 86.472099304 0.3458659947 1.8999999762 5.7680997849 10.654299736
 245.21160000  -999.250000 80.773803711 0.3490360081 1.9451999664 4.5524997711 8.6784000397
 245.36400000  -999.250000 73.229698181 0.3450469971 1.9620000124 3.7363998890 6.8583998680
 245.51640000  -999.250000 62.981998444 0.3348129988 1.9530999660 3.1105000973 5.4914999008
 245.66880000  -999.250000 51.561100006 0.3220179975 1.9298000336 2.6266999245 4.6841001511
 245.82120000  -999.250000 43.681900024 0.3116109967 1.8964999914 2.3715000153 4.3492999077
 245.97360000  -999.250000 42.672298431 0.3085680008 1.8583999872 2.3817000389 4.3470997810
 246.12600000  -999.250000 50.315498352 0.3169879913 1.8303999901 2.5875999928 4.3744997978
 246.27840000  -999.250000 67.031501770 0.3386789858 1.8306999207 2.7883000374 4.2230000496
 246.43080000  -999.250000 81.757400513 0.3716459870 1.8589000702 2.8025000095 4.1108999252
 246.58320000  -999.250000 88.803100586 0.4097439945 1.8925999403 2.7204999924 4.1736001968
 246.73560000  -999.250000 88.417602539 0.4442760050 1.9146000147 2.6684999466 4.2768001556
 246.88800000  -999.250000 85.652000427 0.4674549997 1.9256999493 2.5629000664 4.2470002174
 247.04040000  -999.250000 84.260200500 0.4755960107 1.9258000851 2.3124001026 4.0886001587
 247.19280000  -999.250000 79.088096619 0.4700550139 1.9143999815 2.0513999462 3.9007000923
 247.34520000  -999.250000 75.603302002 0.4557009935 1.8999999762 1.9057999849 3.7830998898
 247.49760000  -999.250000 78.875297546 0.4384300113 1.8905999660 1.8743000031 3.7709999084
 247.65000000  -999.250000 78.623298645 0.4230839908 1.8883000612 1.9359999895 3.7569000721
 247.80240000  -999.250000 74.380096436 0.4124859869 1.8959000111 2.0978000164 3.7832999229
 247.95480000  -999.250000 77.987701416 0.4074839950 1.9117000103 2.3533000946 3.9386000633
 248.10720000  -999.250000 82.045402527 0.4077759981 1.9213000536 2.6231999397 4.0531001091
 248.25960000  -999.250000 78.229896545 0.4128260016 1.9121999741 2.7618000507 4.0293998718
 248.41200000  -999.250000 66.637702942 0.4219740033 1.8916000128 2.6868999004 3.9295001030
 248.56440000  -999.250000 48.477100372 0.4335809946 1.8760000467 2.4303998947 3.6440000534
 248.71680000  -999.250000 30.467100143 0.4448010027 1.8733999729 2.0843000412 3.2504999638
 248.86920000  -999.250000 21.830400467 0.4525600076 1.8820999861 1.7659000158 2.9433999062
 249.02160000  -999.250000 22.176700592 0.4550389946 1.8961999416 1.5463999510 2.6333000660
 249.17400000  -999.250000 26.232599258 0.4529339969 1.9061999321 1.4118000269 2.2983000278
 249.32640000  -999.250000 29.635000229 0.4498859942 1.9016000032 1.3157000542 2.0515000820
 249.47880000  -999.250000 30.252599716 0.4520690143 1.8816000223 1.2473000288 1.8997000456
 249.63120000  -999.250000 34.257999420 0.4659979939 1.8589999676 1.2288000584 1.8372000456
 249.78360000  -999.250000 43.854400635 0.4946709871 1.8486000299 1.2690000534 1.8957999945
 249.93600000  -999.250000 51.788299561 0.5342350006 1.8575999737 1.3472000360 2.0120000839
 250.08840000  -999.250000 59.054100037 0.5741760135 1.8885999918 1.4278000593 2.0943000317
 250.24080000  -999.250000 70.031303406 0.6021900177 1.9379999638 1.4894000292 2.1747000217
 250.39320000  -999.250000 77.707702637 0.6105380058 1.9894000292 1.5361000299 2.3011999130
 250.54560000  -999.250000 70.885696411 0.5995090008 2.0241999626 1.5937000513 2.4600000381
 250.69800000  -999.250000 65.353202820 0.5759680271 2.0392999649 1.6907999516 2.6642999649
 250.85040000  -999.250000 75.521301270 0.5484600067 2.0424001217 1.8349000216 2.8859000206
 251.00280000  -999.250000 86.915298462 0.5226389766 2.0334000587 1.9876999855 2.9779000282
 251.15520000  -999.250000 86.115898132 0.4994190037 2.0083000660 2.0564000607 2.9021000862
 251.30760000  -999.250000 72.448501587 0.4762969911 1.9758000374 1.9859999418 2.8259000778
 251.46000000  -999.250000 51.801998138 0.4507229924 1.9526000023 1.8624000549 2.8638000488
 251.61240000  -999.250000 39.814998627 0.4234600067 1.9509999752 1.7983000278 2.9806001186
 251.76480000  -999.250000 46.810699463 0.3994840086 1.9743000269 1.8033000231 3.0529999733
