# LAS format log file from PETREL
# Project units are specified as depth units
#==================================================================
~Version information
VERS.   2.0:
WRAP.   NO:
#==================================================================
~Well
STRT .m      0.0000000000 :
STOP .m      1206.7032000 :
STEP .m     0.15240000 :
NULL .        -999.250000 :
COMP.           : COMPANY
WELL.  NELSON #9-16   : WELL
FLD.            : FIELD
LOC.            : LOCATION
SRVC.           : SERVICE COMPANY
DATE.  2020-08-25 09:56:37   : Log Export Date {yyyy-MM-dd HH:mm:ss}
PROV.           : PROVINCE
UWI.   NELSON #9-16   : UNIQUE WELL ID
API.            : API NUMBER
#==================================================================
~Curve
DEPT .m                   : DEPTH
FACIES ._                 : FACIES
GR .gAPI                  : GR
NPHI .m3/m3               : NPHI
RHOB .g/cm3               : RHOB
RM .ohm.m                 : RM
RT .ohm.m                 : RT
~Parameter
#==================================================================
~Ascii
# ...
 477.31680000  -999.250000 75.736602783 0.3542450070 1.6791999340 1.0622999668 1.5405000448
 477.46920000  -999.250000 68.996498108 0.3541840017 1.6478000879 1.0549999475 1.5042999983
 477.62160000  -999.250000 68.851097107 0.3540320098 1.6292999983 1.0362000465 1.4670000076
 477.77400000  -999.250000 70.570098877 0.3538939953 1.6259000301 1.0191999674 1.4481999874
 477.92640000  -999.250000 72.461997986 0.3523179889 1.6333000660 1.0175000429 1.4528000355
 478.07880000  -999.250000 73.115196228 0.3476569951 1.6389000416 1.0315999985 1.4558999538
 478.23120000  -999.250000 74.928298950 0.3400120139 1.6275999546 1.0493999720 1.4363000393
 478.38360000  -999.250000 81.194198608 0.3313440084 1.5980999470 1.0586999655 1.4118000269
 478.53600000  -999.250000 86.023002625 0.3235119879 1.5674999952 1.0618000031 1.4071999788
 478.68840000  -999.250000 85.914299011 0.3164600134 1.5590000153 1.0722999573 1.4268000126
 478.84080000  -999.250000 82.352798462 0.3086960018 1.5839999914 1.0954999924 1.4572000504
 478.99320000  -999.250000 80.922500610 0.2995199859 1.6346999407 1.1186000109 1.4682999849
 479.14560000  -999.250000 81.103202820 0.2902849913 1.6943000555 1.1202000380 1.4535000324
 479.29800000  -999.250000 80.236801147 0.2830869853 1.7519999743 1.1039999723 1.4565000534
 479.45040000  -999.250000 85.818298340 0.2785750031 1.8099999428 1.1035000086 1.5074000359
 479.60280000  -999.250000 86.167098999 0.2754830122 1.8780999184 1.1470999718 1.6004999876
 479.75520000  -999.250000 77.310302734 0.2722289860 1.9526998997 1.2365000248 1.7149000168
 479.90760000  -999.250000 75.465202332 0.2684760094 2.0126998425 1.3547999859 1.8488999605
 480.06000000  -999.250000 82.994598389 0.2650989890 2.0411999226 1.5029000044 2.0311000347
 480.21240000  -999.250000 92.808898926 0.2628380060 2.0429999828 1.7173999548 2.2909998894
 480.36480000  -999.250000 100.52500153 0.2612949908 2.0309000015 2.0260000229 2.6157999039
 480.51720000  -999.250000 104.85099792 0.2590300143 2.0073001385 2.3582999706 2.9144001007
 480.66960000  -999.250000 103.18360138 0.2547169924 1.9700000286 2.5306000710 3.0696001053
 480.82200000  -999.250000 96.666702271 0.2485920042 1.9203000069 2.4468998909 3.0866000652
 480.97440000  -999.250000 90.166297913 0.2431399971 1.8586999178 2.2091000080 3.0169999599
 481.12680000  -999.250000 87.150398254 0.2418909967 1.7853000164 1.9531999826 2.8594000340
 481.27920000  -999.250000 86.146003723 0.2469210029 1.7079000473 1.7437000275 2.6138999462
 481.43160000  -999.250000 82.835601807 0.2569819987 1.6360000372 1.5851999521 2.3413999081
 481.58400000  -999.250000 79.127700806 0.2682690024 1.5750000477 1.4651000500 2.0924999714
 481.73640000  -999.250000 76.908302307 0.2771629989 1.5289000273 1.3754999638 1.9026999474
 481.88880000  -999.250000 74.714202881 0.2824909985 1.5015000105 1.3150000572 1.7891000509
 482.04120000  -999.250000 74.837898254 0.2855879962 1.4925999641 1.2796000242 1.7230999470
 482.19360000  -999.250000 77.845497131 0.2885189950 1.4941999912 1.2560000420 1.6737999916
 482.34600000  -999.250000 79.828002930 0.2918289900 1.4980000257 1.2331999540 1.6363999844
 482.49840000  -999.250000 80.377799988 0.2938210070 1.5039999485 1.2102999687 1.5923999548
 482.65080000  -999.250000 78.648597717 0.2915129960 1.5134000778 1.1864000559 1.5420000553
 482.80320000  -999.250000 72.298500061 0.2826989889 1.5224000216 1.1589000225 1.5073000193
 482.95560000  -999.250000 70.937896729 0.2679229975 1.5311999321 1.1361999512 1.4874000549
 483.10800000  -999.250000 73.078498840 0.2511929870 1.5433000326 1.1318999529 1.4916000366
 483.26040000  -999.250000 72.175399780 0.2390619963 1.5580999851 1.1550999880 1.5412000418
 483.41280000  -999.250000 73.345802307 0.2378839999 1.5720999241 1.2151000500 1.6319999695
 483.56520000  -999.250000 79.564697266 0.2503469884 1.5870000124 1.3273999691 1.7681000233
 483.71760000  -999.250000 87.193496704 0.2734729946 1.6103000641 1.5116000175 1.9710999727
 483.87000000  -999.250000 94.059700012 0.2999509871 1.6454999447 1.7838000059 2.2314000130
 484.02240000  -999.250000 102.41680145 0.3220070004 1.6849000454 2.1440000534 2.5367999077
 484.17480000  -999.250000 103.42410278 0.3348839879 1.7174999714 2.5571000576 2.9200999737
 484.32720000  -999.250000 93.993698120 0.3376759887 1.7398999929 2.9389998913 3.3828001022
 484.47960000  -999.250000 89.362098694 0.3318330050 1.7556999922 3.2049000263 3.8608999252
 484.63200000  -999.250000 96.591598511 0.3193460107 1.7681000233 3.3362998962 4.2688999176
 484.78440000  -999.250000 101.39320374 0.3018330038 1.7793000937 3.3650000095 4.4749999046
 484.93680000  -999.250000 99.875000000 0.2809430063 1.7920999527 3.3254001141 4.4623999596
 485.08920000  -999.250000 96.849197388 0.2592810094 1.8099999428 3.2701001167 4.3920001984
 485.24160000  -999.250000 93.038200378 0.2409639955 1.8344999552 3.2604000568 4.3172998428
 485.39400000  -999.250000 92.746803284 0.2307700068 1.8636999130 3.3008000851 4.1793999672
 485.54640000  -999.250000 97.902297974 0.2318470031 1.8946999311 3.2992999554 3.9783000946
 485.69880000  -999.250000 103.29769897 0.2436310053 1.9258000851 3.1461999416 3.7039000988
 485.85120000  -999.250000 104.51650238 0.2616780102 1.9565999508 2.8550000191 3.4037001133
 486.00360000  -999.250000 97.934799194 0.2799269855 1.9905999899 2.5336000919 3.1493000984
 486.15600000  -999.250000 91.768501282 0.2939040065 2.0311999321 2.2441999912 2.8880999088
 486.30840000  -999.250000 88.688903809 0.3027639985 2.0746998787 1.9890999794 2.5985000134
 486.46080000  -999.250000 89.466499329 0.3087649941 2.1101999283 1.7677999735 2.3289999962
 486.61320000  -999.250000 89.543197632 0.3149409890 2.1268999577 1.5965000391 2.1157999039
 486.76560000  -999.250000 84.117996216 0.3228119910 2.1253998280 1.4867999554 1.9690999985
 486.91800000  -999.250000 78.570198059 0.3318429887 2.1164999008 1.4321000576 1.8947000504
 487.07040000  -999.250000 75.486701965 0.3403460085 2.1078999043 1.4208999872 1.8888000250
 487.22280000  -999.250000 77.378997803 0.3465690017 2.0976998806 1.4531999826 1.9472999573
 487.37520000  -999.250000 80.615898132 0.3491170108 2.0806999207 1.5456999540 2.0834000111
 487.52760000  -999.250000 82.603897095 0.3469940126 2.0532000065 1.7195999622 2.2983999252
 487.68000000  -999.250000 88.113296509 0.3400500119 2.0173001289 1.9847999811 2.5539000034
 487.83240000  -999.250000 99.651100159 0.3295759857 1.9830000401 2.3173999786 2.8268001080
 487.98480000  -999.250000 101.35729980 0.3180330098 1.9611999989 2.6480000019 3.1296000481
 488.13720000  -999.250000 92.704399109 0.3080019951 1.9523000717 2.9165999889 3.4995000362
 488.28960000  -999.250000 88.565498352 0.3011319935 1.9451999664 3.1168000698 3.9326000214
 488.44200000  -999.250000 88.585998535 0.2978979945 1.9289000034 3.2495999336 4.3408999443
 488.59440000  -999.250000 84.555900574 0.2977949977 1.9028999805 3.2913000584 4.5486998558
 488.74680000  -999.250000 85.349800110 0.2996720076 1.8751000166 3.2300000191 4.5033998489
 488.89920000  -999.250000 93.740196228 0.3022870123 1.8560999632 3.1117999554 4.3235001564
 489.05160000  -999.250000 98.621299744 0.3050580025 1.8542000055 2.9869000912 4.0061998367
 489.20400000  -999.250000 95.328697205 0.3083519936 1.8693000078 2.7980999947 3.5162000656
 489.35640000  -999.250000 87.932403564 0.3126809895 1.8898000717 2.4523000717 3.0011000633
 489.50880000  -999.250000 82.247001648 0.3176159859 1.9021999836 2.0288999081 2.5950999260
 489.66120000  -999.250000 79.989303589 0.3215900064 1.9031999111 1.6908999681 2.3254001141
 489.81360000  -999.250000 81.887702942 0.3230859935 1.8963000774 1.4855999947 2.1521999836
 489.96600000  -999.250000 81.586097717 0.3221940100 1.8834999800 1.3754999638 2.0118000507
 490.11840000  -999.250000 78.575996399 0.3212299943 1.8668000698 1.3130999804 1.8645000458
 490.27080000  -999.250000 76.752502441 0.3235569894 1.8515999317 1.2750999928 1.7367999554
 490.42320000  -999.250000 77.557502747 0.3311829865 1.8444999456 1.2609000206 1.6624000072
