# LAS format log file from PETREL
# Project units are specified as depth units
#==================================================================
~Version information
VERS.   2.0:
WRAP.   NO:
#==================================================================
~Well
STRT .m      0.0000000000 :
STOP .m      1206.7032000 :
STEP .m     0.15240000 :
NULL .        -999.250000 :
COMP.           : COMPANY
WELL.  NELSON #9-16   : WELL
FLD.            : FIELD
LOC.            : LOCATION
SRVC.           : SERVICE COMPANY
DATE.  2020-08-25 09:56:37   : Log Export Date {yyyy-MM-dd HH:mm:ss}
PROV.           : PROVINCE
UWI.   NELSON #9-16   : UNIQUE WELL ID
API.            : API NUMBER
#==================================================================
~Curve
DEPT .m                   : DEPTH
FACIES ._                 : FACIES
GR .gAPI                  : GR
NPHI .m3/m3               : NPHI
RHOB .g/cm3               : RHOB
RM .ohm.m                 : RM
RT .ohm.m                 : RT
~Parameter
#==================================================================
~Ascii
# ...
 556.86960000  -999.250000 112.13899994 0.3101539910 1.5311999321 1.9816999435 2.3004999161
 557.02200000  -999.250000 99.274803162 0.3099730015 1.5207999945 1.9370000362 2.2244999409
 557.17440000  -999.250000 86.174301147 0.3101400137 1.5048000813 1.9012000561 2.2188000679
 557.32680000  -999.250000 86.416297913 0.3120639920 1.4858000278 1.8895000219 2.2578001022
 557.47920000  -999.250000 86.586502075 0.3147979975 1.4679000378 1.9312000275 2.3508000374
 557.63160000  -999.250000 85.633300781 0.3162600100 1.4558000565 2.0332000256 2.4567000866
 557.78400000  -999.250000 89.825599670 0.3151629865 1.4541000128 2.1533000469 2.5081000328
 557.93640000  -999.250000 91.445701599 0.3119539917 1.4635000229 2.2263000011 2.5283999443
 558.08880000  -999.250000 88.704498291 0.3081800044 1.4793000221 2.2430999279 2.5545001030
 558.24120000  -999.250000 86.405998230 0.3051609993 1.4959000349 2.2456998825 2.5859999657
 558.39360000  -999.250000 83.543403625 0.3031170070 1.5113999844 2.2546000481 2.6468000412
 558.54600000  -999.250000 80.094200134 0.3011170030 1.5275999308 2.2679998875 2.7158999443
 558.69840000  -999.250000 77.189399719 0.2975969911 1.5489000082 2.3008000851 2.7725999355
 558.85080000  -999.250000 80.008697510 0.2910029888 1.5820000172 2.3942999840 2.8484001160
 559.00320000  -999.250000 86.193496704 0.2803579867 1.6339000463 2.5845999718 2.9351999760
 559.15560000  -999.250000 85.435203552 0.2658190131 1.7094999552 2.8638000488 2.9939999580
 559.30800000  -999.250000 79.221496582 0.2489410043 1.8039000034 3.1377999783 3.0241999626
 559.46040000  -999.250000 72.895202637 0.2324769944 1.8941999674 3.2295999527 3.0051999092
 559.61280000  -999.250000 71.482498169 0.2193879932 1.9541000128 3.0583000183 2.9741001129
 559.76520000  -999.250000 71.156402588 0.2113839984 1.9833999872 2.7864000797 2.9719998837
 559.91760000  -999.250000 71.479400635 0.2081280053 2.0060000420 2.5964999199 2.9765000343
 560.07000000  -999.250000 75.459098816 0.2080709934 2.0390999317 2.5264999866 2.9577000141
 560.22240000  -999.250000 81.808296204 0.2103649974 2.0782999992 2.5322999954 2.8701000214
 560.37480000  -999.250000 86.428596497 0.2158769965 2.1068999767 2.5390999317 2.6944000721
 560.52720000  -999.250000 80.941902161 0.2260150015 2.1068000793 2.4755001068 2.5392999649
 560.67960000  -999.250000 74.720199585 0.2404659986 2.0733001232 2.3671000004 2.5016000271
 560.83200000  -999.250000 81.104499817 0.2562899888 2.0302000046 2.3194999695 2.5536999702
 560.98440000  -999.250000 92.868499756 0.2694770098 2.0114998817 2.3843998909 2.6696999073
 561.13680000  -999.250000 95.495796204 0.2775410116 2.0259001255 2.5236999989 2.7913000584
 561.28920000  -999.250000 84.239097595 0.2808839977 2.0457999706 2.6373000145 2.8085000515
 561.44160000  -999.250000 71.089103699 0.2819789946 2.0320999622 2.6254000664 2.7298998833
 561.59400000  -999.250000 67.416496277 0.2830190063 1.9776999950 2.4934000969 2.6909000874
 561.74640000  -999.250000 70.661796570 0.2843649983 1.9164000750 2.3675999641 2.7277998924
 561.89880000  -999.250000 76.418601990 0.2848699987 1.8839999437 2.3513998985 2.7946000099
 562.05120000  -999.250000 81.122100830 0.2842499912 1.8831999302 2.4261999130 2.8334999084
 562.20360000  -999.250000 82.616699219 0.2851009965 1.8884999752 2.4786000252 2.8250000477
 562.35600000  -999.250000 81.348800659 0.2922930121 1.8795999289 2.4561998844 2.7818000317
 562.50840000  -999.250000 77.378501892 0.3093700111 1.8568000793 2.4245998859 2.7325000763
 562.66080000  -999.250000 71.591903687 0.3350670040 1.8229999542 2.4142000675 2.6767001152
 562.81320000  -999.250000 65.772903442 0.3635219932 1.7666000128 2.3512001038 2.5610001087
 562.96560000  -999.250000 63.292598724 0.3880349994 1.6720999479 2.1482000351 2.3589999676
 563.11800000  -999.250000 63.370601654 0.4049749970 1.5454000235 1.8446999788 2.1394999027
 563.27040000  -999.250000 65.302001953 0.4141040146 1.4176999331 1.5779000521 2.0013000965
 563.42280000  -999.250000 70.406799316 0.4157919884 1.3253000975 1.4378999472 1.9488999844
 563.57520000  -999.250000 76.566398621 0.4088700116 1.2905000448 1.4273999929 1.9056999683
 563.72760000  -999.250000 81.006599426 0.3915700018 1.3051999807 1.4823999405 1.8420000076
 563.88000000  -999.250000 90.271896362 0.3644819856 1.3394999504 1.5247000456 1.7716000080
 564.03240000  -999.250000 99.888000488 0.3323900104 1.3754000664 1.5420000553 1.6993000507
 564.18480000  -999.250000 99.302497864 0.3030320108 1.4103000164 1.5577000380 1.6808999777
 564.33720000  -999.250000 97.151496887 0.2836909890 1.4364999533 1.5672999620 1.7418999672
 564.48960000  -999.250000 103.32700348 0.2777729928 1.4466999769 1.5686999559 1.8315999508
 564.64200000  -999.250000 105.95549774 0.2832449973 1.4464000463 1.5810999870 1.9089000225
 564.79440000  -999.250000 99.615196228 0.2935909927 1.4445999861 1.6094000340 1.9848999977
 564.94680000  -999.250000 97.486503601 0.3013170063 1.4476000071 1.6505999565 2.0513999462
 565.09920000  -999.250000 97.335899353 0.3017869890 1.4641999006 1.7207000256 2.1243000031
 565.25160000  -999.250000 89.520599365 0.2953020036 1.5026999712 1.8387000561 2.2290000916
 565.40400000  -999.250000 82.582199097 0.2860580087 1.5580999851 1.9943000078 2.3306000233
 565.55640000  -999.250000 82.858001709 0.2791750133 1.6075999737 2.1328001022 2.3801000118
 565.70880000  -999.250000 80.339698792 0.2779380083 1.6227999926 2.1742999554 2.3831000328
 565.86120000  -999.250000 74.572303772 0.2825860083 1.5885000229 2.0818998814 2.3771998882
 566.01360000  -999.250000 73.834297180 0.2907229960 1.5200999975 1.9308999777 2.4233999252
 566.16600000  -999.250000 75.002601624 0.2986730039 1.4603000879 1.8609000444 2.5332999229
 566.31840000  -999.250000 80.513198853 0.3032439947 1.4466999769 1.9551000595 2.6182999611
 566.47080000  -999.250000 89.563598633 0.3034240007 1.4771999121 2.1749999523 2.6050999165
 566.62320000  -999.250000 88.157699585 0.3009670079 1.5138000250 2.3369998932 2.4811000824
 566.77560000  -999.250000 83.421699524 0.2995350063 1.5253000259 2.2987999916 2.3134999275
 566.92800000  -999.250000 84.014198303 0.3026080132 1.5184000731 2.1528999805 2.1937000751
 567.08040000  -999.250000 82.303199768 0.3114460111 1.5120999813 2.0092000961 2.1308999062
 567.23280000  -999.250000 82.581802368 0.3247219920 1.5055999756 1.8667000532 2.0567998886
 567.38520000  -999.250000 82.461898804 0.3399060071 1.4907000065 1.7072999477 1.9572000504
 567.53760000  -999.250000 83.477897644 0.3556160033 1.4729000330 1.5602999926 1.8444000483
 567.69000000  -999.250000 90.504798889 0.3726029992 1.4578000307 1.4520000219 1.7310999632
 567.84240000  -999.250000 97.682601929 0.3929030001 1.4358000755 1.3730000257 1.6373000145
 567.99480000  -999.250000 107.18920135 0.4180270135 1.3960999250 1.3094999790 1.5778000355
 568.14720000  -999.250000 115.22979736 0.4473429918 1.3456000090 1.2736999989 1.5511000156
 568.29960000  -999.250000 113.04190063 0.4771539867 1.3044999838 1.2864999771 1.5539000034
 568.45200000  -999.250000 104.69519806 0.5005980134 1.2861000299 1.3485000134 1.5895999670
 568.60440000  -999.250000 99.494903564 0.5094559789 1.2863000631 1.4385000467 1.6588000059
 568.75680000  -999.250000 106.93890381 0.4980860054 1.2914000750 1.5355000496 1.7582000494
 568.90920000  -999.250000 115.74230194 0.4674600065 1.2934999466 1.6394000053 1.9025000334
 569.06160000  -999.250000 114.08010101 0.4260230064 1.2946000099 1.7721999884 2.1061000824
 569.21400000  -999.250000 105.91850281 0.3858990073 1.2999000549 1.9726999998 2.3485000134
 569.36640000  -999.250000 97.305198669 0.3570779860 1.3116999865 2.2693998814 2.5706000328
 569.51880000  -999.250000 93.662803650 0.3431960046 1.3240000010 2.5903000832 2.7578999996
 569.67120000  -999.250000 91.960296631 0.3415910006 1.3248000145 2.7495999336 2.9114000797
 569.82360000  -999.250000 84.096603394 0.3466109931 1.3091000319 2.6914999485 3.0515000820
 569.97600000  -999.250000 77.712196350 0.3535490036 1.2825999260 2.5597999096 3.2386000156
