# LAS format log file from PETREL
# Project units are specified as depth units
#==================================================================
~Version information
VERS.   2.0:
WRAP.   NO:
#==================================================================
~Well
STRT .m      0.0000000000 :
STOP .m      1206.7032000 :
STEP .m     0.15240000 :
NULL .        -999.250000 :
COMP.           : COMPANY
WELL.  NELSON #9-16   : WELL
FLD.            : FIELD
LOC.            : LOCATION
SRVC.           : SERVICE COMPANY
DATE.  2020-08-25 09:56:37   : Log Export Date {yyyy-MM-dd HH:mm:ss}
PROV.           : PROVINCE
UWI.   NELSON #9-16   : UNIQUE WELL ID
API.            : API NUMBER
#==================================================================
~Curve
DEPT .m                   : DEPTH
FACIES ._                 : FACIES
GR .gAPI                  : GR
NPHI .m3/m3               : NPHI
RHOB .g/cm3               : RHOB
RM .ohm.m                 : RM
RT .ohm.m                 : RT
~Parameter
#==================================================================
~Ascii
# ...
 875.08080000  -999.250000 29.869300842 0.1561280042 1.1157000065 2.2614998817 2.5601000786
 875.23320000  -999.250000 33.964599609 0.1653590053 1.1286000013 2.2153999805 2.5376000404
 875.38560000  -999.250000 39.926101685 0.1720360070 1.1456999779 2.2558000088 2.5890998840
 875.53800000  -999.250000 40.232498169 0.1749400049 1.1545000076 2.3922998905 2.7244000435
 875.69040000  -999.250000 39.741298676 0.1745769978 1.1511999369 2.6487998962 2.9425001144
 875.84280000  -999.250000 42.953701019 0.1720499992 1.1425999403 3.0380001068 3.2151000500
 875.99520000  -999.250000 52.900199890 0.1679760069 1.1354000568 3.5399999619 3.5118000507
 876.14760000  -999.250000 69.575302124 0.1626790017 1.1316000223 4.0591998100 3.7358999252
 876.30000000  -999.250000 78.702003479 0.1575170010 1.1341999769 4.3488001823 3.8132998943
 876.45240000  -999.250000 75.892799377 0.1556400061 1.1453000307 4.1845998764 3.7409000397
 876.60480000  -999.250000 75.024696350 0.1609759927 1.1603000164 3.6926999092 3.5411000252
 876.75720000  -999.250000 81.884300232 0.1755030006 1.1730999947 3.1461000443 3.2699000835
 876.90960000  -999.250000 92.656600952 0.1970739961 1.1829999685 2.6865000725 2.9992001057
 877.06200000  -999.250000 99.419296265 0.2197359949 1.1935999393 2.3622999191 2.7795999050
 877.21440000  -999.250000 99.281402588 0.2366809994 1.2110999823 2.1914000511 2.6231000423
 877.36680000  -999.250000 100.12680054 0.2437310070 1.2401000261 2.1638000011 2.5134000778
 877.51920000  -999.250000 102.82559967 0.2410629988 1.2796999216 2.2297000885 2.4288001060
 877.67160000  -999.250000 100.06849670 0.2325250059 1.3276998997 2.3138000965 2.3754999638
 877.82400000  -999.250000 91.955398560 0.2234389931 1.3854999542 2.3726999760 2.3750998974
 877.97640000  -999.250000 83.409797668 0.2181700021 1.4560999870 2.4238998890 2.4407000542
 878.12880000  -999.250000 77.640502930 0.2184759974 1.5396000147 2.4939999580 2.5627000332
 878.28120000  -999.250000 76.622001648 0.2232709974 1.6339000463 2.5813000202 2.6970999241
 878.43360000  -999.250000 75.715599060 0.2297389954 1.7430000305 2.6742000580 2.7787001133
 878.58600000  -999.250000 77.337898254 0.2351039946 1.8695999384 2.7546999454 2.7769000530
 878.73840000  -999.250000 86.344902039 0.2376600057 1.9998999834 2.7730000019 2.7102000713
 878.89080000  -999.250000 92.764396667 0.2368610054 2.1080000401 2.6854000092 2.6184999943
 879.04320000  -999.250000 91.549400330 0.2330159992 2.1818997860 2.5329999924 2.5573999882
 879.19560000  -999.250000 90.731903076 0.2273160070 2.2372000217 2.4082999229 2.5348000526
 879.34800000  -999.250000 97.261299133 0.2219129950 2.2945001125 2.3519999981 2.5162999630
 879.50040000  -999.250000 99.068496704 0.2193810046 2.3543999195 2.3348000050 2.4767999649
 879.65280000  -999.250000 91.305496216 0.2212139964 2.4040000439 2.3189001083 2.4170000553
 879.80520000  -999.250000 83.120903015 0.2266460061 2.4391999245 2.3034999371 2.3633999825
 879.95760000  -999.250000 79.822402954 0.2327660024 2.4656999111 2.3025000095 2.3526999950
 880.11000000  -999.250000 82.946800232 0.2359420061 2.4853000641 2.3285999298 2.4079999924
 880.26240000  -999.250000 90.464599609 0.2334039956 2.4979000092 2.4126000404 2.5288999081
 880.41480000  -999.250000 89.167396545 0.2240889966 2.5091998577 2.5876998901 2.6772999763
 880.56720000  -999.250000 75.034202576 0.2087910026 2.5269999504 2.8477001190 2.8327000141
 880.71960000  -999.250000 60.296501160 0.1899919957 2.5508000851 3.1410999298 2.9760999680
 880.87200000  -999.250000 52.410099030 0.1713600010 2.5687999725 3.4126000404 3.0971999168
 881.02440000  -999.250000 49.877700806 0.1566450000 2.5696001053 3.6159000397 3.2151999474
 881.17680000  -999.250000 51.127799988 0.1481900066 2.5526001453 3.6995000839 3.3276998997
 881.32920000  -999.250000 52.466800690 0.1460189968 2.5231001377 3.6507000923 3.3870999813
 881.48160000  -999.250000 52.440498352 0.1481730044 2.4838998318 3.5213999748 3.4107000828
 881.63400000  -999.250000 51.582599640 0.1519829929 2.4384999275 3.3775000572 3.4465999603
 881.78640000  -999.250000 47.732200623 0.1552069932 2.3935999870 3.2890999317 3.5048000813
 881.93880000  -999.250000 41.654300690 0.1564060003 2.3586001396 3.3271000385 3.5706999302
 882.09120000 7.0000000000 36.291099548 0.1548510045 2.3401000500 3.5150001049 3.6417000294
 882.24360000 7.0000000000 30.034000397 0.1506499946 2.3388998508 3.8127999306 3.7109000683
 882.39600000 7.0000000000 23.972099304 0.1450230032 2.3516001701 4.1262001991 3.7655000687
 882.54840000 7.0000000000 21.201400757 0.1401160061 2.3696999550 4.3249001503 3.8364999294
 882.70080000 7.0000000000 23.194299698 0.1379870027 2.3783998489 4.3280000687 3.8910999298
 882.85320000 7.0000000000 30.493700027 0.1394930035 2.3626999855 4.1524000168 3.8222000599
 883.00560000 7.0000000000 38.025501251 0.1440400034 2.3191001415 3.8454999924 3.5627999306
 883.15800000 7.0000000000 37.943901062 0.1501920074 2.2578001022 3.4365000725 3.1609001160
 883.31040000 7.0000000000 31.289699554 0.1565079987 2.1893999577 2.9684000015 2.7209999561
 883.46280000 7.0000000000 27.005899429 0.1620209962 2.1098999977 2.5209999084 2.3582000732
 883.61520000 7.0000000000 28.029399872 0.1664330065 2.0091998577 2.1707999706 2.1113998890
 883.76760000 7.0000000000 28.970899582 0.1701039970 1.8906999826 1.9430999756 1.9357999563
 883.92000000 7.0000000000 26.944099426 0.1736530066 1.7660000324 1.8121999502 1.7962000370
 884.07240000 7.0000000000 25.737699509 0.1771190017 1.6424000263 1.7365000248 1.6756000519
 884.22480000 7.0000000000 25.292400360 0.1795260012 1.5256999731 1.6828000546 1.5665999651
 884.37720000 7.0000000000 26.791599274 0.1792120039 1.4226999283 1.6375000477 1.4853999615
 884.52960000 7.0000000000 30.892000198 0.1749459952 1.3381999731 1.6015000343 1.4416999817
 884.68200000 7.0000000000 35.408298492 0.1668120027 1.2748000622 1.5753999949 1.4210000038
 884.83440000 7.0000000000 36.836299896 0.1564909965 1.2319999933 1.5561000109 1.4041999578
 884.98680000 7.0000000000 33.075000763 0.1468269974 1.2036999464 1.5358999968 1.3787000179
 885.13920000 7.0000000000 30.638000488 0.1408340037 1.1805999279 1.5061999559 1.3445999622
 885.29160000 7.0000000000 32.232700348 0.1405300051 1.1584000587 1.4665999413 1.3115999699
 885.44400000 7.0000000000 34.747600555 0.1460559964 1.1389000416 1.4275000095 1.2875000238
 885.59640000 7.0000000000 33.820098877 0.1556479931 1.1275999546 1.4016000032 1.2747999430
 885.74880000 7.0000000000 31.434099197 0.1665000021 1.1283999681 1.3931000233 1.2711000443
 885.90120000 7.0000000000 33.505001068 0.1760469973 1.1398999691 1.3974000216 1.2702000141
 886.05360000 7.0000000000 37.178398132 0.1828649938 1.1569999456 1.4081000090 1.2728999853
 886.20600000 7.0000000000 36.271999359 0.1868029982 1.1746000051 1.4230999947 1.2846000195
 886.35840000 7.0000000000 35.703498840 0.1884839982 1.1903001070 1.4442000389 1.3035000563
 886.51080000 7.0000000000 36.334300995 0.1885659993 1.2058000565 1.4718999863 1.3286999464
 886.66320000 7.0000000000 37.250499725 0.1872709990 1.2251999378 1.5011999607 1.3573999405
 886.81560000 7.0000000000 38.417701721 0.1842789948 1.2498999834 1.5256999731 1.3823000193
 886.96800000 7.0000000000 36.277400970 0.1790259928 1.2749999762 1.5433000326 1.4023000002
 887.12040000 7.0000000000 37.451000214 0.1713459939 1.2908000946 1.5554000139 1.4228999615
 887.27280000 7.0000000000 42.157600403 0.1622170061 1.2920000553 1.5656000376 1.4462000132
 887.42520000 7.0000000000 44.294399261 0.1539289951 1.2864000797 1.5787999630 1.4722000360
 887.57760000 7.0000000000 47.730499268 0.1491730064 1.2881000042 1.5995999575 1.5031000376
 887.73000000 7.0000000000 49.429100037 0.1494520009 1.3048000336 1.6316000223 1.5420000553
 887.88240000 7.0000000000 46.638900757 0.1540410072 1.3331999779 1.6755000353 1.5899000168
 888.03480000 7.0000000000 43.720798492 0.1604599953 1.3633000851 1.7309000492 1.6455999613
 888.18720000 7.0000000000 44.997200012 0.1660269946 1.3869000673 1.7976000309 1.7115999460
