# LAS format log file from PETREL
# Project units are specified as depth units
#==================================================================
~Version information
VERS.   2.0:
WRAP.   NO:
#==================================================================
~Well
STRT .m      0.0000000000 :
STOP .m      1206.7032000 :
STEP .m     0.15240000 :
NULL .        -999.250000 :
COMP.           : COMPANY
WELL.  NELSON #9-16   : WELL
FLD.            : FIELD
LOC.            : LOCATION
SRVC.           : SERVICE COMPANY
DATE.  2020-08-25 09:56:37   : Log Export Date {yyyy-MM-dd HH:mm:ss}
PROV.           : PROVINCE
UWI.   NELSON #9-16   : UNIQUE WELL ID
API.            : API NUMBER
#==================================================================
~Curve
DEPT .m                   : DEPTH
FACIES ._                 : FACIES
GR .gAPI                  : GR
NPHI .m3/m3               : NPHI
RHOB .g/cm3               : RHOB
RM .ohm.m                 : RM
RT .ohm.m                 : RT
~Parameter
#==================================================================
~Ascii
# ...
 795.52800000  -999.250000 52.776298523 0.1458200067 2.2551000118 3.7860000134 4.4338002205
 795.68040000  -999.250000 48.631599426 0.1395719945 2.2283999920 3.6988999844 4.3049001694
 795.83280000  -999.250000 48.789798737 0.1291880012 2.2143001556 3.6916999817 4.4018001556
 795.98520000  -999.250000 53.190399170 0.1160089970 2.2188000679 3.8701000214 4.6862001419
 796.13760000  -999.250000 58.864799500 0.1008730009 2.2368998528 4.3438000679 5.0317001343
 796.29000000  -999.250000 57.842098236 0.0848179981 2.2516999245 5.0107998848 5.2302999496
 796.44240000  -999.250000 49.130500793 0.0702920035 2.2462999821 5.3783001900 5.1209001541
 796.59480000  -999.250000 43.890201569 0.0611989982 2.2179999352 5.0612998009 4.8396000862
 796.74720000  -999.250000 42.901599884 0.0610340014 2.1760001183 4.3926000595 4.5988998413
 796.89960000  -999.250000 46.203098297 0.0704779997 2.1277999878 3.7959001064 4.3492999077
 797.05200000  -999.250000 54.364299774 0.0870430022 2.0704998970 3.3629999161 3.9853000641
 797.20440000  -999.250000 60.328601837 0.1074400023 1.9993000031 3.0264999866 3.5599000454
 797.35680000  -999.250000 64.178901672 0.1302600056 1.9193999767 2.7328999043 3.1282000542
 797.50920000  -999.250000 65.906997681 0.1560900062 1.8428000212 2.4674000740 2.7428998947
 797.66160000  -999.250000 68.139900208 0.1852539927 1.7798000574 2.2376000881 2.4774000645
 797.81400000  -999.250000 75.993499756 0.2157279998 1.7339999676 2.0771000385 2.3159999847
 797.96640000  -999.250000 83.806999207 0.2434979975 1.6991999149 1.9946000576 2.2046999931
 798.11880000  -999.250000 86.571601868 0.2643649876 1.6622999907 1.9537999630 2.1294000149
 798.27120000  -999.250000 87.068199158 0.2755109966 1.6183000803 1.9213000536 2.0840001106
 798.42360000  -999.250000 85.486900330 0.2759290040 1.5803999901 1.9076000452 2.0492999554
 798.57600000  -999.250000 84.735603333 0.2663440108 1.5670000315 1.9338999987 2.0423998833
 798.72840000  -999.250000 84.104797363 0.2493049949 1.5794999599 1.9888999462 2.0627999306
 798.88080000  -999.250000 81.177803040 0.2290530056 1.6039999723 2.0406999588 2.0890998840
 799.03320000  -999.250000 79.105796814 0.2105650008 1.6284999847 2.0755000114 2.1203999519
 799.18560000  -999.250000 78.178298950 0.1978709996 1.6498000622 2.1082999706 2.1623001099
 799.33800000  -999.250000 74.628997803 0.1927749962 1.6693999767 2.1494998932 2.2061998844
 799.49040000  -999.250000 68.235397339 0.1948139966 1.6881999969 2.1900000572 2.2425999641
 799.64280000  -999.250000 64.381401062 0.2022760063 1.7038999796 2.2118999958 2.2725000381
 799.79520000  -999.250000 64.272300720 0.2131589949 1.7144999504 2.2158000469 2.3064999580
 799.94760000  -999.250000 68.928001404 0.2253410071 1.7226999998 2.2218000889 2.3440999985
 800.10000000  -999.250000 74.243896484 0.2365449965 1.7344000340 2.2421000004 2.3761000633
 800.25240000  -999.250000 75.114898682 0.2447090000 1.7516999245 2.2711999416 2.3942999840
 800.40480000  -999.250000 72.081298828 0.2488110065 1.7705999613 2.2939999104 2.3963000774
 800.55720000  -999.250000 68.299003601 0.2492090017 1.7858999968 2.2955000401 2.3798000813
 800.70960000  -999.250000 68.521202087 0.2470950037 1.7971999645 2.2741000652 2.3547000885
 800.86200000  -999.250000 67.526702881 0.2436259985 1.8116999865 2.2367000580 2.3236999512
 801.01440000  -999.250000 62.775600433 0.2394119948 1.8380000591 2.1853001118 2.2897000313
 801.16680000  -999.250000 63.627899170 0.2349289954 1.8759000301 2.1243000031 2.2606000900
 801.31920000  -999.250000 72.895301819 0.2308579981 1.9167000055 2.0741000175 2.2393000126
 801.47160000  -999.250000 78.901100159 0.2278449982 1.9516999722 2.0557000637 2.2193999290
 801.62400000  -999.250000 79.703002930 0.2256630063 1.9776999950 2.0699999332 2.1854999065
 801.77640000  -999.250000 76.256301880 0.2229429930 1.9986999035 2.0855998993 2.1166999340
 801.92880000  -999.250000 69.963600159 0.2182489932 2.0209000111 2.0492999554 2.0216000080
 802.08120000  -999.250000 68.317596436 0.2118420005 2.0418999195 1.9457000494 1.9375000000
 802.23360000  -999.250000 68.719100952 0.2063979954 2.0533001423 1.8295999765 1.8876999617
 802.38600000  -999.250000 65.296897888 0.2057400048 2.0546998978 1.7608000040 1.8653000593
 802.53840000  -999.250000 67.314102173 0.2124499977 2.0506000519 1.7472000122 1.8463000059
 802.69080000  -999.250000 74.971702576 0.2261890024 2.0409998894 1.7555999756 1.8162000179
 802.84320000  -999.250000 82.668899536 0.2438780069 2.0262000561 1.7594000101 1.7828999758
 802.99560000  -999.250000 93.727798462 0.2612499893 2.0125999451 1.7668999434 1.7704999447
 803.14800000  -999.250000 103.52760315 0.2744939923 2.0065000057 1.7936999798 1.7863999605
 803.30040000  -999.250000 97.545501709 0.2812399864 2.0065999031 1.8269000053 1.8104000092
 803.45280000  -999.250000 83.051200867 0.2804610133 2.0067999363 1.8371000290 1.8306000233
 803.60520000  -999.250000 76.022300720 0.2718400061 2.0034000874 1.8233000040 1.8597999811
 803.75760000  -999.250000 77.801803589 0.2550239861 1.9953000546 1.8242000341 1.9170999527
 803.91000000  -999.250000 84.080596924 0.2295520008 1.9808000326 1.8877999783 2.0302999020
 804.06240000  -999.250000 81.027999878 0.1957810074 1.9606000185 2.0629000664 2.1993000507
 804.21480000  -999.250000 67.920898438 0.1562680006 1.9441999197 2.4033000469 2.3791000843
 804.36720000  -999.250000 53.411300659 0.1165340021 1.9426999092 2.9231998920 2.5297999382
 804.51960000  -999.250000 38.222400665 0.0839620009 1.9541999102 3.4774999619 2.6394000053
 804.67200000  -999.250000 27.238500595 0.0649259984 1.9615999460 3.7774999142 2.7237000465
 804.82440000  -999.250000 22.585399628 0.0617020018 1.9523000717 3.7311000824 2.7901999950
 804.97680000  -999.250000 20.842100143 0.0714399964 1.9349000454 3.4930999279 2.8245000839
 805.12920000  -999.250000 19.060100555 0.0879810005 1.9233000278 3.1840000153 2.7578999996
 805.28160000  -999.250000 16.786100388 0.1050620005 1.9226999283 2.8445000648 2.5685000420
 805.43400000  -999.250000 17.588499069 0.1185889989 1.9400999546 2.5232999325 2.3343999386
 805.58640000  -999.250000 23.843500137 0.1270540059 1.9865000248 2.2764000893 2.1349000931
 805.73880000  -999.250000 30.799800873 0.1307680011 2.0559999943 2.1233000755 1.9995000362
 805.89120000  -999.250000 38.006401062 0.1309140027 2.1205999851 2.0532999039 1.9262000322
 806.04360000  -999.250000 49.375499725 0.1288969964 2.1554999352 2.0483999252 1.9013999701
 806.19600000  -999.250000 60.310501099 0.1258839965 2.1621000767 2.0938000679 1.9127999544
 806.34840000  -999.250000 64.455902100 0.1226050034 2.1582000256 2.1767001152 1.9541000128
 806.50080000  -999.250000 59.341999054 0.1194389984 2.1546001434 2.2855999470 2.0269999504
 806.65320000  -999.250000 52.288600922 0.1165720001 2.1518001556 2.4133999348 2.1242001057
 806.80560000  -999.250000 48.006301880 0.1141100004 2.1500999928 2.5536000729 2.2346999645
 806.95800000  -999.250000 48.442600250 0.1120940000 2.1501998901 2.6875998974 2.3382000923
 807.11040000  -999.250000 51.275199890 0.1105410010 2.1517000198 2.7897999287 2.4226999283
 807.26280000  -999.250000 53.151100159 0.1096360013 2.1584999561 2.8429999352 2.4767000675
 807.41520000  -999.250000 54.309299469 0.1098650023 2.1746001244 2.8313000202 2.4939000607
 807.56760000  -999.250000 53.484298706 0.1118640006 2.1968998909 2.7448000908 2.4827001095
 807.72000000  -999.250000 56.770698547 0.1160190031 2.2207000256 2.5934998989 2.4474000931
 807.87240000  -999.250000 69.544700623 0.1220109984 2.2461998463 2.4149999619 2.3965001106
 808.02480000  -999.250000 81.108497620 0.1287450045 2.2711000443 2.2622001171 2.3457000256
 808.17720000  -999.250000 79.412696838 0.1347250044 2.2846000195 2.1640999317 2.2904000282
 808.32960000  -999.250000 72.380096436 0.1388089955 2.2816998959 2.1073999405 2.2256999016
 808.48200000  -999.250000 73.527900696 0.1407600045 2.2685000896 2.0659000874 2.1663000584
 808.63440000  -999.250000 75.453903198 0.1414200068 2.2513999939 2.0325000286 2.1275999546
