# LAS format log file from PETREL
# Project units are specified as depth units
#==================================================================
~Version information
VERS.   2.0:
WRAP.   NO:
#==================================================================
~Well
STRT .m      0.0000000000 :
STOP .m      1178.3568000 :
STEP .m     0.15240000 :
NULL .        -999.250000 :
COMP.           : COMPANY
WELL.  NELSON #6-16   : WELL
FLD.            : FIELD
LOC.            : LOCATION
SRVC.           : SERVICE COMPANY
DATE.  2020-08-19 21:46:58   : Log Export Date {yyyy-MM-dd HH:mm:ss}
PROV.           : PROVINCE
UWI.   NELSON #6-16   : UNIQUE WELL ID
API.            : API NUMBER
#==================================================================
~Curve
DEPT .m                   : DEPTH
GR .gAPI                  : GR
NPHI .m3/m3               : NPHI
RHOB .g/cm3               : RHOB
RM .ohm.m                 : RM
RT .ohm.m                 : RT
FACIES ._                 : FACIES
~Parameter
#==================================================================
~Ascii
# ...
 1007.6688000 61.403900146 0.1407960057 2.6089999676 6.3587999344 5.1567997932  -999.250000
 1007.8212000 67.871200562 0.1634410024 2.5793998241 5.2066001892 4.8730998039  -999.250000
 1007.9736000 77.509399414 0.1849189997 2.5621001720 4.2876000404 4.4548997879  -999.250000
 1008.1260000 85.892799377 0.2021850049 2.5546000004 3.7444999218 3.9354000092  -999.250000
 1008.2784000 85.195602417 0.2152999938 2.5568001270 3.3066999912 3.4217998981  -999.250000
 1008.4308000 84.611099243 0.2252279967 2.5580000877 2.9219999313 2.9653000832  -999.250000
 1008.5832000 89.948898315 0.2316730022 2.5443999767 2.6284999847 2.7070000172  -999.250000
 1008.7356000 91.638702393 0.2342150062 2.5443999767 2.4934000969 2.6001000404  -999.250000
 1008.8880000 87.538497925 0.2333240062 2.5639998913 2.5013000965 2.5646998882  -999.250000
 1009.0404000 84.972503662 0.2280289978 2.5755000114 2.5485000610 2.6010000706  -999.250000
 1009.1928000 89.122497559 0.2147170007 2.5899999142 2.5776998997 2.7276999950  -999.250000
 1009.3452000 89.029602051 0.1904049963 2.6205000877 2.7462999821 2.9300000668  -999.250000
 1009.4976000 80.228202820 0.1568219960 2.6528000832 3.3280999660 3.2379999161  -999.250000
 1009.6500000 61.448898315 0.1214480028 2.6719999313 4.2802000046 3.6510000229  -999.250000
 1009.8024000 46.702301025 0.0937789977 2.6712999344 5.2396998405 4.0991001129  -999.250000
 1009.9548000 38.508201599 0.0784810036 2.6463000774 5.9503998756 4.5397000313  -999.250000
 1010.1072000 30.596300125 0.0732119977 2.6182000637 6.5922999382 5.1652002335  -999.250000
 1010.2596000 24.967699051 0.0731770024 2.6038999557 7.2192001343 5.9546999931  -999.250000
 1010.4120000 22.654199600 0.0749489963 2.6052999496 7.5883002281 6.6325001717  -999.250000
 1010.5644000 27.834299088 0.0763069987 2.6068999767 7.7927999496 7.1237998009  -999.250000
 1010.7168000 39.387199402 0.0755169988 2.6068000793 7.9707999229 7.4696002007  -999.250000
 1010.8692000 50.043300629 0.0717710033 2.6136999130 8.3537998199 7.8165998459  -999.250000
 1011.0216000 53.949001312 0.0656559989 2.6168999672 9.0822000504 8.4055004120  -999.250000
 1011.1740000 48.577201843 0.0585170016 2.6329998970 10.169899940 9.3338003159  -999.250000
 1011.3264000 44.238399506 0.0502340011 2.6693999767 11.427599907 10.664999962  -999.250000
 1011.4788000 47.125301361 0.0381600000 2.6963999271 12.668899536 12.297800064  -999.250000
 1011.6312000 57.045600891 0.0231270008 2.6933000088 14.102800369 14.182200432  -999.250000
 1011.7836000 67.484199524 0.0151960002 2.6741001606 15.870800018 16.243099213  -999.250000
 1011.9360000 73.172698975 0.0223190002 2.6630001068 18.137500763 17.930799484  -999.250000
 1012.0884000 71.561500549 0.0381480008 2.6601998806 20.233699799 18.942800522  -999.250000
 1012.2408000 69.344001770 0.0529009998 2.6689000130 20.655500412 18.965700150  -999.250000
 1012.3932000 78.737197876 0.0654639974 2.6866002083 19.576900482 17.931999207  -999.250000
 1012.5456000 90.658500671 0.0789650008 2.6895999908 17.711000443 15.878199577  -999.250000
 1012.6980000 91.056701660 0.0947979987 2.6738998890 15.081600189 13.310899734  -999.250000
 1012.8504000 79.950698853 0.1132910028 2.6616001129 12.182499886 10.454999924  -999.250000
 1013.0028000 67.561996460 0.1350280046 2.6548998356 9.4291000366 7.8930997849  -999.250000
 1013.1552000 69.499801636 0.1598249972 2.6416001320 6.8642997742 6.0268001556  -999.250000
 1013.3076000 88.185997009 0.1856720001 2.6176002026 4.8741002083 4.7431998253  -999.250000
 1013.4600000 102.19560242 0.2073220015 2.5822999477 3.6473999023 3.8120000362  -999.250000
 1013.6124000 99.657402039 0.2163240016 2.5499999523 2.9544999599 3.2130999565  -999.250000
 1013.7648000 93.946800232 0.2071499974 2.5261001587 2.5581998825 2.8701999187  -999.250000
 1013.9172000 82.180397034 0.1829449981 2.5171999931 2.4175000191 2.6338999271  -999.250000
 1014.0696000 56.877799988 0.1536590010 2.5366001129 2.4419999123 2.4382998943  -999.250000
 1014.2220000 37.151901245 0.1301420033 2.5566000938 2.4939000607 2.2690000534  -999.250000
 1014.3744000 31.131200790 0.1181090027 2.5573000908 2.4944999218 2.1384000778  -999.250000
 1014.5268000 32.370399475 0.1160679981 2.5498998165 2.4491000175 2.0827000141  -999.250000
 1014.6792000 34.689201355 0.1193260029 2.5396001339 2.4077999592 2.0873999596  -999.250000
 1014.8316000 32.680999756 0.1246450022 2.5262999535 2.3508000374 2.0871999264  -999.250000
 1014.9840000 29.991500854 0.1311209947 2.5264999866 2.2321000099 2.0336999893  -999.250000
 1015.1364000 30.388000488 0.1384930015 2.5386002064 2.0655000210 1.9522000551  -999.250000
 1015.2888000 33.181400299 0.1457519978 2.5421998501 1.9085999727 1.9019999504  -999.250000
 1015.4412000 40.438999176 0.1513359994 2.5383999348 1.8126000166 1.9096000195  -999.250000
 1015.5936000 51.520999908 0.1539410055 2.5483000278 1.8144999743 1.9731999636  -999.250000
 1015.7460000 60.204399109 0.1528010070 2.5769000053 1.9448000193 2.0769999027  -999.250000
 1015.8984000 64.108001709 0.1479820013 2.6011998653 2.1851000786 2.2058000565  -999.250000
 1016.0508000 64.388801575 0.1406130046 2.6059999466 2.4967000484 2.3761999607  -999.250000
 1016.2032000 59.205600739 0.1324629933 2.6094999313 2.8852000237 2.5852000713  -999.250000
 1016.3556000 49.084098816 0.1258489937 2.6226000786 3.3171000481 2.7836999893  -999.250000
 1016.5080000 43.558601379 0.1237109974 2.6205000877 3.6754000187 2.8787999153  -999.250000
 1016.6604000 45.006500244 0.1284359992 2.5916001797 3.6758999825 2.8032999039  -999.250000
 1016.8128000 48.812698364 0.1404570043 2.5574998856 3.2581999302 2.6084001064  -999.250000
 1016.9652000 53.668498993 0.1578039974 2.5423998833 2.7283999920 2.3910999298  -999.250000
 1017.1176000 57.281600952 0.1759310067 2.5468997955 2.3017001152 2.2153000832  -999.250000
 1017.2700000 62.508701324 0.1887709945 2.5483999252 2.0401000977 2.0706000328  -999.250000
 1017.4224000 68.580703735 0.1922110021 2.5313000679 1.9134000540 1.9289000034  -999.250000
 1017.5748000 64.786598206 0.1867959946 2.5038001537 1.8751000166 1.8071999550  -999.250000
 1017.7272000 48.631000519 0.1764409989 2.4867000580 1.8729000092 1.7135000229  -999.250000
 1017.8796000 32.959598541 0.1654140055 2.4916999340 1.8667000532 1.6727999449  -999.250000
 1018.0320000 28.320800781 0.1563860029 2.5013000965 1.8702000380 1.6833000183  -999.250000
 1018.1844000 33.230300903 0.1496970057 2.5103001595 1.9154000282 1.7354999781  -999.250000
 1018.3368000 39.125701904 0.1443639994 2.5296001434 2.0088000298 1.8272000551  -999.250000
 1018.4892000 43.442100525 0.1398669928 2.5574998856 2.1319000721 1.9269000292  -999.250000
 1018.6416000 47.740600586 0.1361790001 2.5841000080 2.2311000824 1.9982999563  -999.250000
 1018.7940000 53.063499451 0.1329620034 2.5886001587 2.3146998882 2.0502998829  -999.250000
 1018.9464000 52.236400604 0.1299279928 2.5741999149 2.4005999565 2.0927000046  -999.250000
 1019.0988000 46.793899536 0.1272570044 2.5692999363 2.4849998951 2.1157999039  -999.250000
 1019.2512000 46.190700531 0.1252720058 2.5713000298 2.5408000946 2.1245999336  -999.250000
 1019.4036000 46.564498901 0.1241559982 2.5727000237 2.5546998978 2.1182000637  -999.250000
 1019.5560000 43.516601563 0.1238970011 2.5771999359 2.5295999050 2.0850999355  -999.250000
 1019.7084000 42.999000549 0.1244729981 2.5785000324 2.4746999741 2.0255000591  -999.250000
 1019.8608000 44.641300201 0.1260800064 2.5711998940 2.4038999081 1.9399000406  -999.250000
 1020.0132000 45.276901245 0.1290259957 2.5586001873 2.3162999153 1.8332999945  -999.250000
 1020.1656000 49.948200226 0.1333940029 2.5362999439 2.1833999157 1.7201000452  -999.250000
 1020.3180000 56.768398285 0.1387439966 2.5134999752 2.0106999874 1.6198999882  -999.250000
 1020.4704000 58.332698822 0.1441970021 2.4967000484 1.8480999470 1.5348000526  -999.250000
 1020.6228000 56.633598328 0.1489180028 2.4863998890 1.7077000141 1.4680000544  -999.250000
 1020.7752000 59.302700043 0.1522939950 2.4890999794 1.6055999994 1.4247000217  -999.250000
