# LAS format log file from PETREL
# Project units are specified as depth units
#==================================================================
~Version information
VERS.   2.0:
WRAP.   NO:
#==================================================================
~Well
STRT .m      0.0000000000 :
STOP .m      1178.3568000 :
STEP .m     0.15240000 :
NULL .        -999.250000 :
COMP.           : COMPANY
WELL.  NELSON #6-16   : WELL
FLD.            : FIELD
LOC.            : LOCATION
SRVC.           : SERVICE COMPANY
DATE.  2020-08-19 21:46:58   : Log Export Date {yyyy-MM-dd HH:mm:ss}
PROV.           : PROVINCE
UWI.   NELSON #6-16   : UNIQUE WELL ID
API.            : API NUMBER
#==================================================================
~Curve
DEPT .m                   : DEPTH
GR .gAPI                  : GR
NPHI .m3/m3               : NPHI
RHOB .g/cm3               : RHOB
RM .ohm.m                 : RM
RT .ohm.m                 : RT
FACIES ._                 : FACIES
~Parameter
#==================================================================
~Ascii
# ...
 782.26920000 83.779502869 0.2894360125  -999.250000 1.6582000256 1.6104999781  -999.250000
 782.42160000 96.208503723 0.2984330058  -999.250000 1.6480000019 1.6470999718  -999.250000
 782.57400000 110.31569672 0.2987569869  -999.250000 1.6737999916 1.6868000031  -999.250000
 782.72640000 102.24230194 0.2899500132  -999.250000 1.6987999678 1.7354999781  -999.250000
 782.87880000 87.016601563 0.2685199976  -999.250000 1.7411999702 1.8414000273  -999.250000
 783.03120000 82.390197754 0.2301450074  -999.250000 1.9002000093 2.0420999527  -999.250000
 783.18360000 79.796401978 0.1771900058  -999.250000 2.2962000370 2.3383998871  -999.250000
 783.33600000 69.472297668 0.1209850013  -999.250000 2.9955999851 2.7088000774  -999.250000
 783.48840000 56.207099915 0.0764269978  -999.250000 3.9177999496 3.1054999828  -999.250000
 783.64080000 44.264301300 0.0534950010  -999.250000 4.8313999176 3.4907000065  -999.250000
 783.79320000 33.967098236 0.0522149988  -999.250000 5.4632000923 3.8591001034  -999.250000
 783.94560000 30.915700912 0.0649959967  -999.250000 5.4660000801 4.1009001732  -999.250000
 784.09800000 37.863300323 0.0831490010  -999.250000 4.8168001175 4.0246000290  -999.250000
 784.25040000 45.350299835 0.1013360023  -999.250000 3.9921998978 3.6301000118  -999.250000
 784.40280000 50.090400696 0.1178750023  -999.250000 3.2662999630 3.1336998940  -999.250000
 784.55520000 49.387199402 0.1327909976  -999.250000 2.6696999073 2.7060000896  -999.250000
 784.70760000 53.408901215 0.1456730068  -999.250000 2.2572000027 2.3975999355  -999.250000
 784.86000000 58.133598328 0.1550650001  -999.250000 2.0497999191 2.1842999458  -999.250000
 785.01240000 63.402698517 0.1596010029  -999.250000 1.9783999920 2.0381000042  -999.250000
 785.16480000 74.373397827 0.1592929959  -999.250000 1.9629000425 1.9535000324  -999.250000
 785.31720000 84.007698059 0.1563480049  -999.250000 1.9795000553 1.9180999994  -999.250000
 785.46960000 95.022102356 0.1545239985  -999.250000 2.0357999802 1.9218000174  -999.250000
 785.62200000 102.61350250 0.1564909965  -999.250000 2.0948998928 1.9567999840  -999.250000
 785.77440000 98.888397217 0.1626410037  -999.250000 2.1073000431 2.0090000629  -999.250000
 785.92680000 86.540397644 0.1718270034  -999.250000 2.1019999981 2.0748999119  -999.250000
 786.07920000 74.528297424 0.1804520041  -999.250000 2.1477000713 2.1784000397  -999.250000
 786.23160000 70.327301025 0.1818509996  -999.250000 2.2730998993 2.3415000439  -999.250000
 786.38400000 80.395401001 0.1696359962  -999.250000 2.4804000854 2.5780000687  -999.250000
 786.53640000 84.960700989 0.1427060068  -999.250000 2.8420000076 2.9003000259  -999.250000
 786.68880000 72.509201050 0.1075240001  -999.250000 3.4921000004 3.3134000301  -999.250000
 786.84120000 52.257198334 0.0752919987  -999.250000 4.4450998306 3.7950000763  -999.250000
 786.99360000 44.054199219 0.0550940000  -999.250000 5.4425001144 4.2799000740  -999.250000
 787.14600000 43.655700684 0.0492210016  -999.250000 6.1045999527 4.7374000549  -999.250000
 787.29840000 46.646800995 0.0552159995  -999.250000 6.2701001167 5.1279001236  -999.250000
 787.45080000 55.714000702 0.0700490028  -999.250000 5.9302000999 5.2581000328  -999.250000
 787.60320000 61.516498566 0.0910480022  -999.250000 5.1275000572 5.0068001747  -999.250000
 787.75560000 59.895599365 0.1149950027  -999.250000 4.2362999916 4.5233998299  -999.250000
 787.90800000 56.657100677 0.1380659938  -999.250000 3.5789999962 4.0251002312  -999.250000
 788.06040000 54.277698517 0.1563809961  -999.250000 3.1709001064 3.5987999439  -999.250000
 788.21280000 55.556098938 0.1671119928  -999.250000 2.9267001152 3.2525000572  -999.250000
 788.36520000 58.197101593 0.1701570004  -999.250000 2.7662999630 2.9832000732  -999.250000
 788.51760000 57.241600037 0.1683599949  -999.250000 2.6565001011 2.7709000111  -999.250000
 788.67000000 52.258998871 0.1649979949  -999.250000 2.5678999424 2.6006000042  -999.250000
 788.82240000 49.384799957 0.1609580070  -999.250000 2.4453001022 2.5246999264  -999.250000
 788.97480000 45.253700256 0.1543399990  -999.250000 2.3373999596 2.5659999847  -999.250000
 789.12720000 40.183498383 0.1426510066  -999.250000 2.3775000572 2.6893000603  -999.250000
 789.27960000 37.337100983 0.1265159994  -999.250000 2.6486999989 2.8299999237  -999.250000
 789.43200000 36.748600006 0.1117900014  -999.250000 3.0478999615 2.8936998844  -999.250000
 789.58440000 39.095798492 0.1066619977  -999.250000 3.2537999153 2.8329999447  -999.250000
 789.73680000 43.205799103 0.1157630011  -999.250000 3.0822000504 2.7372999191  -999.250000
 789.88920000 46.869800568 0.1369809955  -999.250000 2.7527999878 2.7004001141  -999.250000
 790.04160000 41.703899384 0.1631460041  -999.250000 2.5111999512 2.6970000267  -999.250000
 790.19400000 39.819499969 0.1856839955  -999.250000 2.3901998997 2.6294000149  -999.250000
 790.34640000 55.845798492 0.1976400018  -999.250000 2.2918999195 2.4698998928  -999.250000
 790.49880000 65.896896362 0.1945559978  -999.250000 2.1468000412 2.2885999680  -999.250000
 790.65120000 57.871799469 0.1742430031  -999.250000 2.0202999115 2.1533000469  -999.250000
 790.80360000 49.282001495 0.1428479999  -999.250000 1.9902000427 2.0727999210  -999.250000
 790.95600000 40.218498230 0.1253280044  -999.250000 2.0369999409 2.0123999119  -999.250000
 791.10840000 40.128101349 0.1504749954  -999.250000 2.0476000309 1.9429999590  -999.250000
 791.26080000 56.622898102 0.2136099935  -999.250000 1.9519000053 1.8816000223  -999.250000
 791.41320000 75.370002747 0.2791680098  -999.250000 1.8353999853 1.8430999517  -999.250000
 791.56560000 87.570899963 0.3193329871  -999.250000 1.7740999460 1.8289999962  -999.250000
 791.71800000 99.062896729 0.3286539912  -999.250000 1.7580000162 1.8339999914  -999.250000
 791.87040000 94.939903259 0.3149980009  -999.250000 1.7690999508 1.8351999521  -999.250000
 792.02280000 81.816596985 0.2901369929  -999.250000 1.8216999769 1.8203999996  -999.250000
 792.17520000 78.833198547 0.2640509903  -999.250000 1.8968000412 1.8135000467  -999.250000
 792.32760000 76.736099243 0.2433380038  -999.250000 1.9532999992 1.8226000071  -999.250000
 792.48000000 77.265098572 0.2305330038  -999.250000 1.9814000130 1.8471000195  -999.250000
 792.63240000 85.231399536 0.2240979970  -999.250000 2.0074000359 1.8977999687  -999.250000
 792.78480000 80.202301025 0.2216700017  -999.250000 2.0469000340 1.9666999578  -999.250000
 792.93720000 65.892303467 0.2229930013  -999.250000 2.0903000832 2.0304999352  -999.250000
 793.08960000 58.697399139 0.2285439968  -999.250000 2.1187000275 2.0803999901  -999.250000
 793.24200000 61.513698578 0.2370849997  -999.250000 2.1300001144 2.1259000301  -999.250000
 793.39440000 73.370697021 0.2458000034  -999.250000 2.1396000385 2.1742999554  -999.250000
 793.54680000 83.708000183 0.2518520057  -999.250000 2.1784999371 2.2258000374  -999.250000
 793.69920000 88.631599426 0.2535110116  -999.250000 2.2546999454 2.2760999203  -999.250000
 793.85160000 95.476196289 0.2509090006  -999.250000 2.3385999203 2.3199000359  -999.250000
 794.00400000 88.781196594 0.2463950068  -999.250000 2.4075000286 2.3426001072  -999.250000
 794.15640000 73.020500183 0.2437530011  -999.250000 2.4514999390 2.3524999619  -999.250000
 794.30880000 64.171699524 0.2455680072  -999.250000 2.4572000504 2.3512001038  -999.250000
 794.46120000 64.292999268 0.2507379949  -999.250000 2.4133999348 2.3236000538  -999.250000
 794.61360000 73.570701599 0.2554369867  -999.250000 2.3196001053 2.2871999741  -999.250000
 794.76600000 86.305496216 0.2556039989  -999.250000 2.2081000805 2.2599000931  -999.250000
 794.91840000 91.960098267 0.2487919927  -999.250000 2.1324000359 2.2200000286  -999.250000
 795.07080000 89.747299194 0.2364220023  -999.250000 2.0975999832 2.1459000111  -999.250000
 795.22320000 81.827499390 0.2238660008  -999.250000 2.0659000874 2.0376000404  -999.250000
 795.37560000 70.059898376 0.2168300003  -999.250000 1.9847999811 1.9170000553  -999.250000
