# LAS format log file from PETREL
# Project units are specified as depth units
#==================================================================
~Version information
VERS.   2.0:
WRAP.   NO:
#==================================================================
~Well
STRT .m      0.0000000000 :
STOP .m      1178.3568000 :
STEP .m     0.15240000 :
NULL .        -999.250000 :
COMP.           : COMPANY
WELL.  NELSON #6-16   : WELL
FLD.            : FIELD
LOC.            : LOCATION
SRVC.           : SERVICE COMPANY
DATE.  2020-08-19 21:46:58   : Log Export Date {yyyy-MM-dd HH:mm:ss}
PROV.           : PROVINCE
UWI.   NELSON #6-16   : UNIQUE WELL ID
API.            : API NUMBER
#==================================================================
~Curve
DEPT .m                   : DEPTH
GR .gAPI                  : GR
NPHI .m3/m3               : NPHI
RHOB .g/cm3               : RHOB
RM .ohm.m                 : RM
RT .ohm.m                 : RT
FACIES ._                 : FACIES
~Parameter
#==================================================================
~Ascii
# ...
 318.21120000 33.847801208 0.2898769975  -999.250000 2.1928999424 3.3055000305  -999.250000
 318.36360000 34.241901398 0.2790580094  -999.250000 2.3889999390 3.4670000076  -999.250000
 318.51600000 40.572399139 0.2606840134  -999.250000 2.8454999924 3.7007000446  -999.250000
 318.66840000 45.965099335 0.2431059927  -999.250000 3.5933001041 4.0711998940  -999.250000
 318.82080000 41.754001617 0.2320190072  -999.250000 4.6237998009 4.7196998596  -999.250000
 318.97320000 42.760299683 0.2248580009  -999.250000 6.0198998451 5.9130997658  -999.250000
 319.12560000 45.524898529 0.2155520022  -999.250000 7.9492001534 7.9429998398  -999.250000
 319.27800000 40.039901733 0.2075490057  -999.250000 9.8844995499 10.570699692  -999.250000
 319.43040000 41.557998657 0.2139369994  -999.250000 10.680199623 12.370300293  -999.250000
 319.58280000 48.902801514 0.2437759936  -999.250000 10.054699898 12.399999619  -999.250000
 319.73520000 50.028499603 0.2961800098  -999.250000 8.5949001312 11.226900101  -999.250000
 319.88760000 47.841598511 0.3626439869  -999.250000 7.2217998505 9.8036003113  -999.250000
 320.04000000 53.311500549 0.4268499911  -999.250000 6.3350000381 8.6194000244  -999.250000
 320.19240000 69.127700806 0.4675759971  -999.250000 5.7901000977 7.6441998482  -999.250000
 320.34480000 81.200897217 0.4701159894  -999.250000 5.3843002319 6.6342000961  -999.250000
 320.49720000 77.944602966 0.4381879866  -999.250000 4.9516000748 5.5946998596  -999.250000
 320.64960000 58.039600372 0.3929739892  -999.250000 4.3140001297 4.6139998436  -999.250000
 320.80200000 44.243499756 0.3564279974  -999.250000 3.4967000484 3.7571001053  -999.250000
 320.95440000 40.178501129 0.3369579911  -999.250000 2.7179000378 3.0715000629  -999.250000
 321.10680000 36.894001007 0.3310259879  -999.250000 2.1127998829 2.5820999146  -999.250000
 321.25920000 33.271900177 0.3317340016  -999.250000 1.7038999796 2.2750999928  -999.250000
 321.41160000 32.733699799 0.3339590132  -999.250000 1.4750000238 2.1145000458  -999.250000
 321.56400000 36.958301544 0.3361989856  -999.250000 1.3978999853 2.0559999943  -999.250000
 321.71640000 42.545600891 0.3401400149  -999.250000 1.4463000298 2.0653998852  -999.250000
 321.86880000 47.398300171 0.3471960127  -999.250000 1.6030999422 2.1287999153  -999.250000
 322.02120000 53.337501526 0.3547250032  -999.250000 1.8646999598 2.2637999058  -999.250000
 322.17360000 45.839298248 0.3559089899  -999.250000 2.2490999699 2.5288000107  -999.250000
 322.32600000 39.473098755 0.3446019888  -999.250000 2.7969000340 2.9986999035  -999.250000
 322.47840000 49.292598724 0.3229529858  -999.250000 3.5629999638 3.7402000427  -999.250000
 322.63080000 56.212501526 0.3037219942  -999.250000 4.5404000282 4.7379999161  -999.250000
 322.78320000 59.015701294 0.3008869886  -999.250000 5.5562000275 5.7274999619  -999.250000
 322.93560000 65.258796692 0.3174659908  -999.250000 6.2178001404 6.4008002281  -999.250000
 323.08800000 70.109001160 0.3420720100  -999.250000 6.2669000626 6.6827998161  -999.250000
 323.24040000 81.276702881 0.3554550111  -999.250000 6.0380001068 6.8141999245  -999.250000
 323.39280000 85.229499817 0.3457849920  -999.250000 5.9977998734 6.9769001007  -999.250000
 323.54520000 76.269798279 0.3195570111  -999.250000 6.4095997810 7.0876998901  -999.250000
 323.69760000 55.907901764 0.2941960096  -999.250000 7.0966000557 7.0011000633  -999.250000
 323.85000000 42.229400635 0.2842780054  -999.250000 7.3158001900 6.7364997864  -999.250000
 324.00240000 44.686500549 0.2940340042  -999.250000 6.8397002220 6.4696002007  -999.250000
 324.15480000 59.983898163 0.3164429963  -999.250000 6.2583999634 6.2473001480  -999.250000
 324.30720000 76.888198853 0.3406090140  -999.250000 5.8705000877 6.1222000122  -999.250000
 324.45960000 82.514602661 0.3596529961  -999.250000 5.5813999176 6.0268001556  -999.250000
 324.61200000 87.265800476 0.3700880110  -999.250000 5.3345999718 5.8880000114  -999.250000
 324.76440000 89.724700928 0.3692539930  -999.250000 5.1578998566 5.7220001221  -999.250000
 324.91680000 93.347099304 0.3575240076  -999.250000 5.1483001709 5.5900998116  -999.250000
 325.06920000 87.736099243 0.3402830064  -999.250000 5.3418002129 5.4932999611  -999.250000
 325.22160000 76.198097229 0.3257350028  -999.250000 5.5563998222 5.4425997734  -999.250000
 325.37400000 76.350303650 0.3208250105  -999.250000 5.6051001549 5.4491000175  -999.250000
 325.52640000 78.525703430 0.3267619908  -999.250000 5.5426998138 5.5363001823  -999.250000
 325.67880000 68.550498962 0.3372539878  -999.250000 5.5050997734 5.6978998184  -999.250000
 325.83120000 63.336200714 0.3417020142  -999.250000 5.4864997864 5.9776000977  -999.250000
 325.98360000 76.274803162 0.3297699988  -999.250000 5.5771999359 6.3557000160  -999.250000
 326.13600000 81.886497498 0.2973079979  -999.250000 5.9671998024 6.8429999352  -999.250000
 326.28840000 77.228302002 0.2537080050  -999.250000 6.8885998726 7.3663001060  -999.250000
 326.44080000 70.184303284 0.2205400020  -999.250000 8.2976999283 7.7435998917  -999.250000
 326.59320000 50.413700104 0.2162570059  -999.250000 9.3631000519 7.8864002228  -999.250000
 326.74560000 45.353099823 0.2408169955  -999.250000 9.0538997650 7.9551000595  -999.250000
 326.89800000 54.754299164 0.2796069980  -999.250000 8.1400003433 8.0366001129  -999.250000
 327.05040000 60.618099213 0.3206149936  -999.250000 7.3930997849 8.0373001099  -999.250000
 327.20280000 69.700897217 0.3594270051  -999.250000 6.7242999077 7.9566998482  -999.250000
 327.35520000 82.035896301 0.3926370144  -999.250000 6.2329998016 7.6528000832  -999.250000
 327.50760000 88.078002930 0.4154250026  -999.250000 6.0318999290 7.1793999672  -999.250000
 327.66000000 81.406501770 0.4242849946  -999.250000 5.9257001877 6.6984000206  -999.250000
 327.81240000 89.508300781 0.4197239876  -999.250000 5.7586002350 6.2600002289  -999.250000
 327.96480000 104.79309845 0.4068630040  -999.250000 5.5977001190 5.9253997803  -999.250000
 328.11720000 93.789299011 0.3931429982  -999.250000 5.4966998100 5.7776999474  -999.250000
 328.26960000 75.772300720 0.3846200109  -999.250000 5.4352998734 5.6999001503  -999.250000
 328.42200000 73.033699036 0.3851810098  -999.250000 5.3864002228 5.6290001869  -999.250000
 328.57440000 73.204597473 0.3976590037  -999.250000 5.3274998665 5.5480999947  -999.250000
 328.72680000 69.949501038 0.4218569994  -999.250000 5.2000999451 5.4629998207  -999.250000
 328.87920000 74.134300232 0.4496510029  -999.250000 5.0053000450 5.4047999382  -999.250000
 329.03160000 83.961997986 0.4662309885  -999.250000 4.8070998192 5.4025001526  -999.250000
 329.18400000 87.655197144 0.4615109861  -999.250000 4.7410998344 5.4665999413  -999.250000
 329.33640000 91.265403748 0.4369199872  -999.250000 4.9166002274 5.4682998657  -999.250000
 329.48880000 91.521400452 0.4004719853  -999.250000 5.1904001236 5.3397002220  -999.250000
 329.64120000 83.428497314 0.3610759974  -999.250000 5.1679000854 5.2452001572  -999.250000
 329.79360000 72.103897095 0.3267239928  -999.250000 4.8738999367 5.3276000023  -999.250000
 329.94600000 56.518199921 0.3048749864  -999.250000 4.7648000717 5.5415000916  -999.250000
 330.09840000 51.344898224 0.3019500077  -999.250000 4.9774999619 5.7944998741  -999.250000
 330.25080000 63.694900513 0.3182300031  -999.250000 5.2337999344 5.9809999466  -999.250000
 330.40320000 76.432601929 0.3440400064  -999.250000 5.2782998085 6.0700998306  -999.250000
 330.55560000 87.414398193 0.3657220006  -999.250000 5.3214998245 6.1258997917  -999.250000
 330.70800000 93.567100525 0.3772850037  -999.250000 5.6108999252 6.1329002380  -999.250000
 330.86040000 92.189102173 0.3842180073  -999.250000 5.8112998009 5.9345998764  -999.250000
 331.01280000 89.153099060 0.3941549957  -999.250000 5.3454999924 5.4949002266  -999.250000
 331.16520000 79.908996582 0.4054529965  -999.250000 4.5026998520 5.0515999794  -999.250000
 331.31760000 70.266502380 0.4066630006  -999.250000 3.8197000027 4.8569998741  -999.250000
