# LAS format log file from PETREL
# Project units are specified as depth units
#==================================================================
~Version information
VERS.   2.0:
WRAP.   NO:
#==================================================================
~Well
STRT .m      0.0000000000 :
STOP .m      1206.7032000 :
STEP .m     0.15240000 :
NULL .        -999.250000 :
COMP.           : COMPANY
WELL.  NELSON #9-16   : WELL
FLD.            : FIELD
LOC.            : LOCATION
SRVC.           : SERVICE COMPANY
DATE.  2020-08-25 09:56:37   : Log Export Date {yyyy-MM-dd HH:mm:ss}
PROV.           : PROVINCE
UWI.   NELSON #9-16   : UNIQUE WELL ID
API.            : API NUMBER
#==================================================================
~Curve
DEPT .m                   : DEPTH
FACIES ._                 : FACIES
GR .gAPI                  : GR
NPHI .m3/m3               : NPHI
RHOB .g/cm3               : RHOB
RM .ohm.m                 : RM
RT .ohm.m                 : RT
~Parameter
#==================================================================
~Ascii
# ...
 1193.2920000  -999.250000 17.434999466 0.0431689993 2.6396000385 26.765399933 26.635299683
 1193.4444000  -999.250000 17.181499481 0.0495890006 2.6201000214 25.687799454 26.761999130
 1193.5968000  -999.250000 17.058500290 0.0547889993 2.6110000610 24.208999634 26.293100357
 1193.7492000  -999.250000 16.340799332 0.0574910007 2.6143999100 22.769699097 25.220100403
 1193.9016000  -999.250000 15.124600410 0.0571609996 2.6231999397 21.113800049 24.336500168
 1194.0540000  -999.250000 11.378000259 0.0542370006 2.6296999454 19.769300461 24.356199265
 1194.2064000  -999.250000 3.7507998943 0.0499630012 2.6341998577 19.524900436 25.275800705
 1194.3588000  -999.250000 -2.644500017 0.0459339991 2.6401998997 20.708499908 26.642099380
 1194.5112000  -999.250000 -4.728400230 0.0435380004 2.6447000504 23.280899048 28.295999527
 1194.6636000  -999.250000 -4.987800121 0.0434349999 2.6421999931 27.049400330 29.864099503
 1194.8160000  -999.250000 -5.000000000 0.0453040004 2.6354999542 31.735300064 32.489700317
 1194.9684000  -999.250000  -999.250000 0.0480669998 2.6298999786 36.795299530 36.833599091
 1195.1208000  -999.250000  -999.250000 0.0505129993 2.6247999668 40.802700043 40.691898346
 1195.2732000  -999.250000  -999.250000 0.0519330017 2.6205000877 42.095001221 41.120498657
 1195.4256000  -999.250000  -999.250000 0.0523529984 2.6218998432 39.187099457 37.669200897
 1195.5780000  -999.250000  -999.250000 0.0523100011 2.6282000542 32.778800964 33.014499664
 1195.7304000  -999.250000  -999.250000 0.0523400009 2.6286001205 26.341499329 29.329200745
 1195.8828000  -999.250000  -999.250000 0.0524870008 2.6175000668 22.185100555 27.871400833
 1196.0352000  -999.250000  -999.250000 0.0521470010 2.6038000584 20.937099457 27.541599274
 1196.1876000  -999.250000  -999.250000 0.0504410006 2.6026000977 22.231899261 27.245100021
 1196.3400000  -999.250000  -999.250000 0.0469559990 2.6217999458 24.825199127 26.687099457
 1196.4924000  -999.250000  -999.250000 0.0423050001 2.6565001011 26.872800827 26.041999817
 1196.6448000  -999.250000  -999.250000 0.0378939994 2.6916999817 27.929700851 26.428300858
 1196.7972000  -999.250000  -999.250000 0.0350879990 2.7123000622 29.256999969 28.175199509
 1196.9496000  -999.250000  -999.250000 0.0343730003 2.7167999744 31.606500626 30.582599640
 1197.1020000  -999.250000  -999.250000 0.0352189988 2.7163000107 34.680198669 32.668899536
 1197.2544000  -999.250000  -999.250000 0.0365119986 2.7196998596 37.064498901 33.992298126
 1197.4068000  -999.250000  -999.250000 0.0370829999 2.7266001701 38.026000977 35.157100677
 1197.5592000  -999.250000  -999.250000 0.0359929986 2.7304999828 38.478500366 35.793800354
 1197.7116000  -999.250000  -999.250000 0.0326990001 2.7279999256 39.731700897 36.060199738
 1197.8640000  -999.250000  -999.250000 0.0273000002 2.7242000103 42.770801544 37.769699097
 1198.0164000  -999.250000  -999.250000 0.0207390003 2.7246999741 46.610900879 40.025901794
 1198.1688000  -999.250000  -999.250000 0.0146709997 2.7276000977 48.781700134 39.702201843
 1198.3212000  -999.250000  -999.250000 0.0108369999 2.7390000820 48.534301758 39.015998840
 1198.4736000  -999.250000  -999.250000 0.0102209998 2.7998001575 47.171798706 39.462299347
 1198.6260000  -999.250000  -999.250000 0.0125390003 3.0550000668 45.434398651 40.020900726
 1198.7784000  -999.250000  -999.250000 0.0164069999  -999.250000 43.935501099 40.276699066
 1198.9308000  -999.250000  -999.250000 0.0201249998  -999.250000 43.269901276 40.398399353
 1199.0832000  -999.250000  -999.250000 0.0225610007  -999.250000 43.507099152 39.084201813
 1199.2356000  -999.250000  -999.250000 0.0235750005  -999.250000 43.902301788 37.979301453
 1199.3880000  -999.250000  -999.250000 0.0237910002  -999.250000 43.143398285 37.358699799
 1199.5404000  -999.250000  -999.250000 0.0239799991  -999.250000 41.370098114 37.142799377
 1199.6928000  -999.250000  -999.250000 0.0245340001  -999.250000 40.827800751 38.506801605
 1199.8452000  -999.250000  -999.250000 0.0253299996  -999.250000 42.455898285 40.498100281
 1199.9976000  -999.250000  -999.250000 0.0259819999  -999.250000 44.493000031 40.886299133
 1200.1500000  -999.250000  -999.250000 0.0261850003  -999.250000 45.359298706 40.251499176
 1200.3024000  -999.250000  -999.250000 0.0259039998  -999.250000 44.069301605 37.960899353
 1200.4548000  -999.250000  -999.250000 0.0253229998  -999.250000 40.498298645 35.972900391
 1200.6072000  -999.250000  -999.250000 0.0246380009  -999.250000 35.773498535 34.428798676
 1200.7596000  -999.250000  -999.250000 0.0238450002  -999.250000 31.315799713 31.955099106
 1200.9120000  -999.250000  -999.250000 0.0224820003  -999.250000 27.870500565 30.354700089
 1201.0644000  -999.250000  -999.250000 0.0192939993  -999.250000 25.650100708 30.134500504
 1201.2168000  -999.250000  -999.250000 0.0118659995  -999.250000 24.742799759 30.670600891
 1201.3692000  -999.250000  -999.250000 -0.003383000  -999.250000 25.345500946 31.357400894
 1201.5216000  -999.250000  -999.250000 -0.030239999  -999.250000 26.974100113 31.176099777
 1201.6740000  -999.250000  -999.250000 -0.070646003  -999.250000 28.123500824 31.533399582
 1201.8264000  -999.250000  -999.250000 -0.122566998  -999.250000 28.326299667 32.836399078
 1201.9788000  -999.250000  -999.250000 -0.179567993  -999.250000 28.370500565 33.758998871
 1202.1312000  -999.250000  -999.250000 -0.233041003  -999.250000 28.319000244 34.311500549
 1202.2836000  -999.250000  -999.250000 -0.275907993  -999.250000 28.075099945 34.930000305
 1202.4360000  -999.250000  -999.250000 -0.305274010  -999.250000 27.962600708 33.252700806
 1202.5884000  -999.250000  -999.250000 -0.322463989  -999.250000 28.059099197 35.959800720
 1202.7408000  -999.250000  -999.250000 -0.331063002  -999.250000 28.205400467 78.764602661
 1202.8932000  -999.250000  -999.250000 -0.334737986  -999.250000 28.292100906 100000.00000
 1203.0456000  -999.250000  -999.250000 -0.336080015  -999.250000 28.469999313 100000.00000
 1203.1980000  -999.250000  -999.250000 -0.336497992  -999.250000 28.652299881 100000.00000
 1203.3504000  -999.250000  -999.250000 -0.336609989  -999.250000 28.669500351 597.00518799
 1203.5028000  -999.250000  -999.250000  -999.250000  -999.250000 28.996999741 647.29547119
 1203.6552000  -999.250000  -999.250000  -999.250000  -999.250000 33.698200226 1513.0200195
 1203.8076000  -999.250000  -999.250000  -999.250000  -999.250000 72.482902527 100000.00000
 1203.9600000  -999.250000  -999.250000  -999.250000  -999.250000 100000.00000 100000.00000
 1204.1124000  -999.250000  -999.250000  -999.250000  -999.250000 100000.00000 100000.00000
 1204.2648000  -999.250000  -999.250000  -999.250000  -999.250000 100000.00000 100000.00000
 1204.4172000  -999.250000  -999.250000  -999.250000  -999.250000 100000.00000 100000.00000
 1204.5696000  -999.250000  -999.250000  -999.250000  -999.250000 1437.3912354 100000.00000
 1204.7220000  -999.250000  -999.250000  -999.250000  -999.250000 1443.6346436 100000.00000
 1204.8744000  -999.250000  -999.250000  -999.250000  -999.250000 1442.0281982 100000.00000
 1205.0268000  -999.250000  -999.250000  -999.250000  -999.250000 1458.0871582 100000.00000
 1205.1792000  -999.250000  -999.250000  -999.250000  -999.250000 1687.1475830 100000.00000
 1205.3316000  -999.250000  -999.250000  -999.250000  -999.250000 3753.5180664  -999.250000
 1205.4840000  -999.250000  -999.250000  -999.250000  -999.250000 100000.00000  -999.250000
 1205.6364000  -999.250000  -999.250000  -999.250000  -999.250000 100000.00000  -999.250000
 1205.7888000  -999.250000  -999.250000  -999.250000  -999.250000 100000.00000  -999.250000
 1205.9412000  -999.250000  -999.250000  -999.250000  -999.250000 100000.00000  -999.250000
 1206.0936000  -999.250000  -999.250000  -999.250000  -999.250000 100000.00000  -999.250000
 1206.2460000  -999.250000  -999.250000  -999.250000  -999.250000 100000.00000  -999.250000
 1206.3984000  -999.250000  -999.250000  -999.250000  -999.250000 100000.00000  -999.250000
