# LAS format log file from PETREL
# Project units are specified as depth units
#==================================================================
~Version information
VERS.   2.0:
WRAP.   NO:
#==================================================================
~Well
STRT .m      0.0000000000 :
STOP .m      1178.3568000 :
STEP .m     0.15240000 :
NULL .        -999.250000 :
COMP.           : COMPANY
WELL.  NELSON #6-16   : WELL
FLD.            : FIELD
LOC.            : LOCATION
SRVC.           : SERVICE COMPANY
DATE.  2020-08-19 21:46:58   : Log Export Date {yyyy-MM-dd HH:mm:ss}
PROV.           : PROVINCE
UWI.   NELSON #6-16   : UNIQUE WELL ID
API.            : API NUMBER
#==================================================================
~Curve
DEPT .m                   : DEPTH
GR .gAPI                  : GR
NPHI .m3/m3               : NPHI
RHOB .g/cm3               : RHOB
RM .ohm.m                 : RM
RT .ohm.m                 : RT
FACIES ._                 : FACIES
~Parameter
#==================================================================
~Ascii
# ...
 477.31680000 63.982799530 0.3630230129  -999.250000 2.0476999283 2.4653000832  -999.250000
 477.46920000 64.330200195 0.3720969856  -999.250000 2.0280001163 2.4191999435  -999.250000
 477.62160000 66.038696289 0.3784190118  -999.250000 2.0348999500 2.4235999584  -999.250000
 477.77400000 67.440597534 0.3774510026  -999.250000 2.0420999527 2.4418001175  -999.250000
 477.92640000 75.671897888 0.3704130054  -999.250000 2.0446999073 2.4324998856  -999.250000
 478.07880000 89.157897949 0.3624910116  -999.250000 2.0445001125 2.3840000629  -999.250000
 478.23120000 86.621101379 0.3579829931  -999.250000 2.0118000507 2.3324000835  -999.250000
 478.38360000 76.737998962 0.3574900031  -999.250000 1.9582999945 2.2885000706  -999.250000
 478.53600000 74.989799500 0.3581070006  -999.250000 1.9212000370 2.2602000237  -999.250000
 478.68840000 73.897796631 0.3567900062  -999.250000 1.9098000526 2.2888000011  -999.250000
 478.84080000 72.883399963 0.3532249928  -999.250000 1.9362000227 2.3743000031  -999.250000
 478.99320000 75.023902893 0.3488720059  -999.250000 2.0318000317 2.4758000374  -999.250000
 479.14560000 83.440200806 0.3449519873  -999.250000 2.2126998901 2.6031000614  -999.250000
 479.29800000 81.740600586 0.3418110013  -999.250000 2.4621000290 2.7569999695  -999.250000
 479.45040000 71.723800659 0.3395690024  -999.250000 2.7435998917 2.9235000610  -999.250000
 479.60280000 70.248497009 0.3390559852  -999.250000 3.0306000710 3.1242001057  -999.250000
 479.75520000 80.806602478 0.3414489925  -999.250000 3.2790999413 3.3808000088  -999.250000
 479.90760000 89.495597839 0.3468950093  -999.250000 3.4489998817 3.6700000763  -999.250000
 480.06000000 83.462600708 0.3535270095  -999.250000 3.5362000465 3.9282999039  -999.250000
 480.21240000 72.410697937 0.3566319942  -999.250000 3.5801000595 4.1023998260  -999.250000
 480.36480000 84.626296997 0.3489350080  -999.250000 3.6150000095 4.1444001198  -999.250000
 480.51720000 102.90229797 0.3269670010  -999.250000 3.6368999481 4.1100001335  -999.250000
 480.66960000 104.12339783 0.3027549982  -999.250000 3.6449000835 4.0880999565  -999.250000
 480.82200000 93.835502625 0.2972269952  -999.250000 3.6545000076 4.0638999939  -999.250000
 480.97440000 94.703903198 0.3127149940  -999.250000 3.6803998947 3.9934999943  -999.250000
 481.12680000 104.63670349 0.3318229914  -999.250000 3.6528000832 3.8578000069  -999.250000
 481.27920000 96.348098755 0.3435490131  -999.250000 3.4721999168 3.6670999527  -999.250000
 481.43160000 83.442001343 0.3495759964  -999.250000 3.1512000561 3.4586000443  -999.250000
 481.58400000 79.225402832 0.3533189893  -999.250000 2.8262000084 3.2616999149  -999.250000
 481.73640000 72.204002380 0.3557220101  -999.250000 2.5675001144 3.0599999428  -999.250000
 481.88880000 63.521800995 0.3567290008  -999.250000 2.3566999435 2.8359000683  -999.250000
 482.04120000 58.461200714 0.3564049900  -999.250000 2.1698999405 2.6440999508  -999.250000
 482.19360000 58.574501038 0.3554860055  -999.250000 2.0281000137 2.5171000957  -999.250000
 482.34600000 70.610099792 0.3551810086  -999.250000 1.9584000111 2.4474999905  -999.250000
 482.49840000 95.879402161 0.3558210135  -999.250000 1.9530999660 2.4245998859  -999.250000
 482.65080000 101.90460205 0.3564279974  -999.250000 1.9895000458 2.4532999992  -999.250000
 482.80320000 88.354698181 0.3554689884  -999.250000 2.0743000507 2.5397000313  -999.250000
 482.95560000 78.855003357 0.3514910042  -999.250000 2.2335999012 2.6940000057  -999.250000
 483.10800000 77.890098572 0.3445200026  -999.250000 2.4821999073 2.9105000496  -999.250000
 483.26040000 88.785003662 0.3367519975  -999.250000 2.7999000549 3.1350998878  -999.250000
 483.41280000 96.504096985 0.3304829895  -999.250000 3.1152000427 3.3192999363  -999.250000
 483.56520000 91.311897278 0.3271499872  -999.250000 3.3371999264 3.5018999577  -999.250000
 483.71760000 84.357803345 0.3283649981  -999.250000 3.4593999386 3.6975998878  -999.250000
 483.87000000 83.461997986 0.3347899914  -999.250000 3.5157001019 3.8824000359  -999.250000
 484.02240000 81.781600952 0.3441550136  -999.250000 3.5153000355 4.0128002167  -999.250000
 484.17480000 84.598197937 0.3512530029  -999.250000 3.4512999058 4.0293002129  -999.250000
 484.32720000 99.994796753 0.3505960107  -999.250000 3.3592000008 3.9491999149  -999.250000
 484.47960000 110.83319855 0.3413709998  -999.250000 3.3064999580 3.8122000694  -999.250000
 484.63200000 102.96070099 0.3293800056  -999.250000 3.2841000557 3.5894000530  -999.250000
 484.78440000 89.773803711 0.3226509988  -999.250000 3.1503999233 3.2941999435  -999.250000
 484.93680000 76.464996338 0.3253329992  -999.250000 2.8157999516 3.0143001080  -999.250000
 485.08920000 72.752998352 0.3351840079  -999.250000 2.4216001034 2.8210999966  -999.250000
 485.24160000 68.283996582 0.3463129997  -999.250000 2.1459999084 2.7269999981  -999.250000
 485.39400000 72.246597290 0.3540189862  -999.250000 2.0209000111 2.6816999912  -999.250000
 485.54640000 75.070098877 0.3569529951  -999.250000 1.9982000589 2.6270000935  -999.250000
 485.69880000 69.102401733 0.3562310040  -999.250000 2.0172998905 2.5455000401  -999.250000
 485.85120000 67.070098877 0.3536039889  -999.250000 2.0488998890 2.4702999592  -999.250000
 486.00360000 67.329399109 0.3502750099  -999.250000 2.0952999592 2.4382998943  -999.250000
 486.15600000 68.944900513 0.3469400108  -999.250000 2.1466999054 2.4698998928  -999.250000
 486.30840000 70.506500244 0.3441300094  -999.250000 2.1881000996 2.5608999729  -999.250000
 486.46080000 72.921798706 0.3421840072  -999.250000 2.2351000309 2.7086000443  -999.250000
 486.61320000 79.349998474 0.3407469988  -999.250000 2.3329999447 2.8882999420  -999.250000
 486.76560000 84.010597229 0.3385950029  -999.250000 2.5088999271 3.0429000854  -999.250000
 486.91800000 83.149299622 0.3348479867  -999.250000 2.7490000725 3.1445000172  -999.250000
 487.07040000 84.583396912 0.3302989900  -999.250000 3.0018999577 3.2058999538  -999.250000
 487.22280000 91.894500732 0.3265129924  -999.250000 3.2093000412 3.2439000607  -999.250000
 487.37520000 97.429901123 0.3241350055  -999.250000 3.2778000832 3.2569000721  -999.250000
 487.52760000 101.20420074 0.3234220147  -999.250000 3.1458001137 3.2328000069  -999.250000
 487.68000000 93.856101990 0.3252019882  -999.250000 2.8945000172 3.1493999958  -999.250000
 487.83240000 83.676498413 0.3289960027  -999.250000 2.6391000748 3.0232000351  -999.250000
 487.98480000 78.005401611 0.3323909938  -999.250000 2.4347000122 2.9028999805  -999.250000
 488.13720000 85.586799622 0.3346160054  -999.250000 2.2892000675 2.8118999004  -999.250000
 488.28960000 99.074996948 0.3375129998  -999.250000 2.2227001190 2.7507998943  -999.250000
 488.44200000 104.92880249 0.3419080079  -999.250000 2.2446999550 2.7456998825  -999.250000
 488.59440000 95.884101868 0.3454569876  -999.250000 2.3417000771 2.8081998825  -999.250000
 488.74680000 81.203102112 0.3444550037  -999.250000 2.5076000690 2.9470999241  -999.250000
 488.89920000 78.672698975 0.3377639949  -999.250000 2.7646999359 3.1819000244  -999.250000
 489.05160000 81.461303711 0.3293260038  -999.250000 3.1368000507 3.4971001148  -999.250000
 489.20400000 83.784400940 0.3254500031  -999.250000 3.5413999557 3.8459000587  -999.250000
 489.35640000 87.484901428 0.3290809989  -999.250000 3.8419001102 4.1621999741  -999.250000
 489.50880000 82.795196533 0.3372350037  -999.250000 4.0460000038 4.4228000641  -999.250000
 489.66120000 75.503700256 0.3431890011  -999.250000 4.2097997665 4.6272997856  -999.250000
 489.81360000 83.518302917 0.3416100144  -999.250000 4.3224000931 4.7361001968  -999.250000
 489.96600000 99.864898682 0.3328070045  -999.250000 4.3192000389 4.6345000267  -999.250000
 490.11840000 99.800300598 0.3219920099  -999.250000 4.1121001244 4.3516001701  -999.250000
 490.27080000 89.680801392 0.3150340021  -999.250000 3.6835000515 3.9993000031  -999.250000
 490.42320000 83.329696655 0.3152360022  -999.250000 3.1652998924 3.6426000595  -999.250000
