# LAS format log file from PETREL
# Project units are specified as depth units
#==================================================================
~Version information
VERS.   2.0:
WRAP.   NO:
#==================================================================
~Well
STRT .m      0.0000000000 :
STOP .m      1206.7032000 :
STEP .m     0.15240000 :
NULL .        -999.250000 :
COMP.           : COMPANY
WELL.  NELSON #9-16   : WELL
FLD.            : FIELD
LOC.            : LOCATION
SRVC.           : SERVICE COMPANY
DATE.  2020-08-25 09:56:37   : Log Export Date {yyyy-MM-dd HH:mm:ss}
PROV.           : PROVINCE
UWI.   NELSON #9-16   : UNIQUE WELL ID
API.            : API NUMBER
#==================================================================
~Curve
DEPT .m                   : DEPTH
FACIES ._                 : FACIES
GR .gAPI                  : GR
NPHI .m3/m3               : NPHI
RHOB .g/cm3               : RHOB
RM .ohm.m                 : RM
RT .ohm.m                 : RT
~Parameter
#==================================================================
~Ascii
# ...
 79.552800000  -999.250000 75.551696777 0.0605989993 1.7109000683 100000.00000 11.317899704
 79.705200000  -999.250000 72.688201904 0.0664850026 1.7041999102 100000.00000 10.409399986
 79.857600000  -999.250000 75.906799316 0.0716589987 1.6964999437 100000.00000 9.4343004227
 80.010000000  -999.250000 74.888099670 0.0767119974 1.6811000109 100000.00000 8.7112998962
 80.162400000  -999.250000 70.806198120 0.0840890035 1.6481000185 100000.00000 10.695500374
 80.314800000  -999.250000 68.859596252 0.0978860036 1.6089000702 100000.00000 15.611200333
 80.467200000  -999.250000 70.145103455 0.1230079979 1.5930999517 100000.00000 12.217900276
 80.619600000  -999.250000 72.665199280 0.1632899940 1.6133999825 100000.00000 8.8893995285
 80.772000000  -999.250000 73.694999695 0.2193090022 1.6555999517 100000.00000 7.8001999855
 80.924400000  -999.250000 76.804397583 0.2874149978 1.6970000267 100000.00000 8.0986003876
 81.076800000  -999.250000 81.489402771 0.3622080088 1.7183001041 100000.00000 37.471099854
 81.229200000  -999.250000 80.976600647 0.4406990111 1.6973999739 100000.00000 100000.00000
 81.381600000  -999.250000 77.634300232 0.5250930190 1.6090999842 100000.00000 42.613098145
 81.534000000  -999.250000 79.115699768 0.6208630204 1.4551999569 100000.00000 8.5770998001
 81.686400000  -999.250000 85.066902161 0.7315719724 1.2849000692 100000.00000 12.806900024
 81.838800000  -999.250000 88.607101440 0.8549360037 1.1545000076 100000.00000 33.331199646
 81.991200000  -999.250000 89.007003784 0.9832599759 1.0839999914 100000.00000 100000.00000
 82.143600000  -999.250000 89.591300964 1.1066670418 1.0578000546 100000.00000 15.220199585
 82.296000000  -999.250000 89.749801636 1.2155729532 1.0513000488 5.7304000854 2.2753000259
 82.448400000  -999.250000 90.644897461 1.3010419607 1.0493999720 2.9223999977 1.9838000536
 82.600800000  -999.250000 93.187500000 1.3544850349 1.0464000702 2.8773000240 3.2118000984
 82.753200000  -999.250000 94.700500488 1.3679159880 1.0411999226 3.1250998974 4.8666000366
 82.905600000  -999.250000 95.334701538 1.3359440565 1.0368000269 3.1777999401 7.8354001045
 83.058000000  -999.250000 96.280097961 1.2600220442 1.0367000103 3.3383998871 9.5340003967
 83.210400000  -999.250000 94.160301208 1.1532260180 1.0418000221 3.5854001045 4.7880001068
 83.362800000  -999.250000 92.253097534 1.0402439833 1.0523999929 3.5285999775 3.5985999107
 83.515200000  -999.250000 93.894500732 0.9484310150 1.0694999695 3.2938001156 3.5155999660
 83.667600000  -999.250000 94.899597168 0.8932960033 1.1006000042 3.1624999046 3.5536000729
 83.820000000  -999.250000 91.361801147 0.8701570034 1.1615999937 3.1221001148 3.6191000938
 83.972400000  -999.250000 87.222099304 0.8596289754 1.2619000673 3.1307001114 3.6659998894
 84.124800000  -999.250000 87.638198853 0.8424699903 1.3818000555 3.1903998852 3.6147000790
 84.277200000  -999.250000 91.726997375 0.8116090298 1.4809999466 3.2736999989 3.5880999565
 84.429600000  -999.250000 98.481399536 0.7727410197 1.5425000191 3.3317999840 3.6280000210
 84.582000000  -999.250000 105.78739929 0.7366480231 1.5812000036 3.3907999992 3.7186000347
 84.734400000  -999.250000 109.91940308 0.7105330229 1.6101999283 3.4890000820 3.8415999413
 84.886800000  -999.250000 110.42549896 0.6942819953 1.6334000826 3.6206998825 3.9741001129
 85.039200000  -999.250000 111.21980286 0.6818429828 1.6514999866 3.7572000027 4.0781002045
 85.191600000  -999.250000 113.38310242 0.6650699973 1.6613000631 3.8620998859 4.1371998787
 85.344000000  -999.250000 114.35559845 0.6375129819 1.6615999937 3.9119999409 4.1911997795
 85.496400000  -999.250000 110.19760132 0.5970039964 1.6610000134 3.9189000130 4.2414999008
 85.648800000  -999.250000 107.23249817 0.5474470258 1.6676999331 3.9024000168 4.2871999741
 85.801200000  -999.250000 111.33280182 0.4989539981 1.6785000563 3.8785998821 4.3298997879
 85.953600000  -999.250000 111.55919647 0.4653800130 1.6878000498 3.8635001183 4.3769001961
 86.106000000  -999.250000 109.56169891 0.4584130049 1.7001999617 3.8692998886 4.4407000542
 86.258400000  -999.250000 112.39140320 0.4809769988 1.7224999666 3.9265999794 4.5332999229
 86.410800000  -999.250000 114.05789948 0.5246319771 1.7542999983 4.0692000389 4.6655998230
 86.563200000  -999.250000 113.82289886 0.5746840239 1.7958000898 4.3098001480 4.8491001129
 86.715600000  -999.250000 113.86609650 0.6194279790 1.8460999727 4.6406998634 5.0269999504
 86.868000000  -999.250000 111.14900208 0.6558799744 1.8911999464 4.9903001785 5.1304001808
 87.020400000  -999.250000 107.24040222 0.6872100234 1.9184000492 5.1823000908 5.1549000740
 87.172800000  -999.250000 103.29750061 0.7150369883 1.9336999655 5.1055998802 5.1482000351
 87.325200000  -999.250000 102.98179626 0.7350050211 1.9503000975 4.8548998833 5.1048002243
 87.477600000  -999.250000 105.66339874 0.7398939729 1.9725999832 4.5672001839 5.0152001381
 87.630000000  -999.250000 108.50640106 0.7266600132 1.9943000078 4.3021001816 4.8618998528
 87.782400000  -999.250000 111.62439728 0.7007089853 2.0100998878 4.0752000809 4.6550002098
 87.934800000  -999.250000 115.06649780 0.6732609868 2.0234999657 3.8986001015 4.4528999329
 88.087200000  -999.250000 119.29709625 0.6547189951 2.0378000736 3.7809000015 4.2821002007
 88.239600000  -999.250000 123.48079681 0.6490839720 2.0478000641 3.7132999897 4.1729001999
 88.392000000  -999.250000 122.80789948 0.6530659795 2.0480000973 3.6807999611 4.1220002174
 88.544400000  -999.250000 122.29609680 0.6592140198 2.0401999950 3.6756000519 4.1083998680
 88.696800000  -999.250000 122.40859985 0.6599050164 2.0285999775 3.6914999485 4.1236000061
 88.849200000  -999.250000 117.24600220 0.6510139704 2.0141999722 3.7230000496 4.1630997658
 89.001600000  -999.250000 114.61229706 0.6333079934 1.9977999926 3.7736999989 4.2217998505
 89.154000000  -999.250000 113.50900269 0.6110000014 1.9830000401 3.8484001160 4.2705998421
 89.306400000  -999.250000 115.35340118 0.5880720019 1.9742000103 3.9286000729 4.2993001938
 89.458800000  -999.250000 125.45780182 0.5658959746 1.9720000029 3.9823999405 4.2968001366
 89.611200000  -999.250000 130.24470520 0.5448380113 1.9742000103 3.9725999832 4.2820000648
 89.763600000  -999.250000 121.15670013 0.5280389786 1.9803999662 3.8973999023 4.2694001198
 89.916000000  -999.250000 111.64260101 0.5220280290 1.9889999628 3.8127000332 4.2536997795
 90.068400000  -999.250000 112.73829651 0.5321660042 1.9960000515 3.7588000298 4.2392997742
 90.220800000  -999.250000 119.80190277 0.5576040149 1.9976999760 3.7306001186 4.2182998657
 90.373200000  -999.250000 123.03919983 0.5902780294 1.9925999641 3.7051000595 4.1845002174
 90.525600000  -999.250000 121.94460297 0.6190140247 1.9839999676 3.6833999157 4.1582999229
 90.678000000  -999.250000 123.75509644 0.6347990036 1.9799000025 3.6856999397 4.1456999779
 90.830400000  -999.250000 121.95989990 0.6348310113 1.9846999645 3.7095000744 4.1508002281
 90.982800000  -999.250000 118.54429626 0.6235809922 1.9916999340 3.7386000156 4.1517000198
 91.135200000  -999.250000 119.70890045 0.6102489829 1.9919999838 3.7609999180 4.1535000801
 91.287600000 4.0000000000 121.57740021 0.6028720140 1.9866999388 3.7704000473 4.1424999237
 91.440000000 4.0000000000 123.27590179 0.6021389961 1.9824000597 3.7685999870 4.1259999275
 91.592400000 4.0000000000 121.93180084 0.6011189818 1.9800999165 3.7753999233 4.1076002121
 91.744800000 4.0000000000 114.18979645 0.5920749903 1.9780000448 3.7676000595 4.0900998116
 91.897200000 4.0000000000 103.00309753 0.5737940073 1.9780000448 3.7121999264 4.0795001984
 92.049600000 4.0000000000 103.25160217 0.5521780252 1.9815999269 3.6684000492 4.0736999512
 92.202000000 4.0000000000 115.01039886 0.5341240168 1.9873000383 3.6570999622 4.0525999069
 92.354400000 4.0000000000 122.68720245 0.5221210122 1.9963999987 3.6540000439 4.0237002373
 92.506800000 4.0000000000 123.02140045 0.5148280263 2.0094001293 3.6470999718 4.0174999237
 92.659200000 4.0000000000 124.00679779 0.5113059878 2.0211999416 3.6382999420 4.0332999229
