# LAS format log file from PETREL
# Project units are specified as depth units
#==================================================================
~Version information
VERS.   2.0:
WRAP.   NO:
#==================================================================
~Well
STRT .m      0.0000000000 :
STOP .m      1178.3568000 :
STEP .m     0.15240000 :
NULL .        -999.250000 :
COMP.           : COMPANY
WELL.  NELSON #6-16   : WELL
FLD.            : FIELD
LOC.            : LOCATION
SRVC.           : SERVICE COMPANY
DATE.  2020-08-19 21:46:58   : Log Export Date {yyyy-MM-dd HH:mm:ss}
PROV.           : PROVINCE
UWI.   NELSON #6-16   : UNIQUE WELL ID
API.            : API NUMBER
#==================================================================
~Curve
DEPT .m                   : DEPTH
GR .gAPI                  : GR
NPHI .m3/m3               : NPHI
RHOB .g/cm3               : RHOB
RM .ohm.m                 : RM
RT .ohm.m                 : RT
FACIES ._                 : FACIES
~Parameter
#==================================================================
~Ascii
# ...
 238.65840000 39.311901093 0.4601829946  -999.250000 1.7389999628 3.5933001041  -999.250000
 238.81080000 43.669898987 0.4652189910  -999.250000 1.6245000362 3.3612000942  -999.250000
 238.96320000 49.008800507 0.4705500007  -999.250000 1.6010999680 3.4307999611  -999.250000
 239.11560000 59.190700531 0.4766309857  -999.250000 1.7082999945 3.5785999298  -999.250000
 239.26800000 73.158302307 0.4813939929  -999.250000 1.8955999613 3.4744000435  -999.250000
 239.42040000 84.814498901 0.4829019904  -999.250000 1.9802000523 3.2565000057  -999.250000
 239.57280000 92.243797302 0.4810470045  -999.250000 1.8918999434 3.1289999485  -999.250000
 239.72520000 86.808898926 0.4780760109  -999.250000 1.7927000523 3.1696000099  -999.250000
 239.87760000 67.355796814 0.4759280086  -999.250000 1.7888000011 3.4247000217  -999.250000
 240.03000000 57.713199615 0.4736779928  -999.250000 1.8631999493 3.6354999542  -999.250000
 240.18240000 63.788398743 0.4704039991  -999.250000 1.9127000570 3.4800999165  -999.250000
 240.33480000 62.517601013 0.4676370025  -999.250000 1.8715000153 3.2116999626  -999.250000
 240.48720000 56.629901886 0.4686459899  -999.250000 1.8222999573 2.9858999252  -999.250000
 240.63960000 49.431400299 0.4774959981  -999.250000 1.8221000433 2.7464001179  -999.250000
 240.79200000 48.409599304 0.4965159893  -999.250000 1.7804000378 2.5975000858  -999.250000
 240.94440000 50.729499817 0.5218330026  -999.250000 1.6477999687 2.6580998898  -999.250000
 241.09680000 46.651199341 0.5429580212  -999.250000 1.5858999491 2.9393999577  -999.250000
 241.24920000 57.637699127 0.5496670008  -999.250000 1.7578999996 3.3852000237  -999.250000
 241.40160000 73.584999084 0.5385019779  -999.250000 2.2030000687 3.7660000324  -999.250000
 241.55400000 62.175399780 0.5144630075  -999.250000 2.7207000256 3.8338999748  -999.250000
 241.70640000 43.054698944 0.4889549911  -999.250000 3.0178000927 3.8224999905  -999.250000
 241.85880000 36.024600983 0.4717760086  -999.250000 3.1240000725 4.0980000496  -999.250000
 242.01120000 31.915199280 0.4641189873  -999.250000 3.0752000809 4.6757001877  -999.250000
 242.16360000 39.062099457 0.4616990089  -999.250000 2.7711999416 5.1771998405  -999.250000
 242.31600000 40.755199432 0.4610880017  -999.250000 2.3534998894 5.2042999268  -999.250000
 242.46840000 29.858299255 0.4607970119  -999.250000 2.0134999752 4.7112002373  -999.250000
 242.62080000 30.721599579 0.4599669874  -999.250000 1.7704000473 4.0067000389  -999.250000
 242.77320000 35.916301727 0.4587039948  -999.250000 1.5801999569 3.4114999771  -999.250000
 242.92560000 36.626399994 0.4583640099  -999.250000 1.4301999807 3.0336999893  -999.250000
 243.07800000 33.184299469 0.4599829912  -999.250000 1.3329000473 2.8294000626  -999.250000
 243.23040000 30.309999466 0.4626710117  -999.250000 1.2932000160 2.7260000706  -999.250000
 243.38280000 26.296600342 0.4637979865  -999.250000 1.2956000566 2.6491000652  -999.250000
 243.53520000 26.070699692 0.4609380066  -999.250000 1.3106000423 2.5441999435  -999.250000
 243.68760000 31.104799271 0.4541589916  -999.250000 1.3069000244 2.4049999714  -999.250000
 243.84000000 38.333801270 0.4463059902  -999.250000 1.2628999949 2.2488999367  -999.250000
 243.99240000 40.137001038 0.4410659969  -999.250000 1.1868000031 2.0897998810  -999.250000
 244.14480000 34.281398773 0.4418700039  -999.250000 1.1030000448 1.9307999611  -999.250000
 244.29720000 27.476999283 0.4520950019  -999.250000 1.0261000395 1.7791999578  -999.250000
 244.44960000 31.233200073 0.4727059901  -999.250000 0.9628000259 1.6534999609  -999.250000
 244.60200000 36.536399841 0.4978230000  -999.250000 0.9240000248 1.5746999979  -999.250000
 244.75440000 34.550201416 0.5166680217  -999.250000 0.9269999862 1.5396000147  -999.250000
 244.90680000 38.093498230 0.5231950283  -999.250000 0.9771999717 1.5312999487  -999.250000
 245.05920000 49.150501251 0.5219089985  -999.250000 1.0535999537 1.5607999563  -999.250000
 245.21160000 50.156501770 0.5232750177  -999.250000 1.1373000145 1.6704000235  -999.250000
 245.36400000 45.638599396 0.5321050286  -999.250000 1.2598999739 1.9206999540  -999.250000
 245.51640000 46.793399811 0.5402389765  -999.250000 1.5085999966 2.3373999596  -999.250000
 245.66880000 58.244400024 0.5347170234  -999.250000 1.9687999487 2.7514998913  -999.250000
 245.82120000 60.193599701 0.5134090185  -999.250000 2.5225999355 2.8629999161  -999.250000
 245.97360000 50.426898956 0.4911719859  -999.250000 2.6928000450 2.6714999676  -999.250000
 246.12600000 43.904201508 0.4906649888  -999.250000 2.3273999691 2.4447000027  -999.250000
 246.27840000 34.343700409 0.5234619975  -999.250000 1.8525999784 2.3787999153  -999.250000
 246.43080000 34.312198639 0.5772320032  -999.250000 1.5477999449 2.5065000057  -999.250000
 246.58320000 41.543701172 0.6232320070  -999.250000 1.4549000263 2.6861000061  -999.250000
 246.73560000 58.325801849 0.6381620169  -999.250000 1.5569000244 2.7239999771  -999.250000
 246.88800000 74.626899719 0.6189180017  -999.250000 1.8006999493 2.5824999809  -999.250000
 247.04040000 65.194999695 0.5796390176  -999.250000 2.0941998959 2.4353001118  -999.250000
 247.19280000 46.091400146 0.5392969847  -999.250000 2.3959999084 2.4732999802  -999.250000
 247.34520000 35.245899200 0.5104770064  -999.250000 2.7172000408 2.7330000401  -999.250000
 247.49760000 31.930200577 0.4945800006  -999.250000 2.8956999779 3.0490000248  -999.250000
 247.65000000 36.373901367 0.4856919944  -999.250000 2.6700000763 3.1291999817  -999.250000
 247.80240000 33.242198944 0.4787929952  -999.250000 2.1891999245 2.8626000881  -999.250000
 247.95480000 27.996500015 0.4738039970  -999.250000 1.7515000105 2.4205000401  -999.250000
 248.10720000 31.061599731 0.4748060107  -999.250000 1.4376000166 2.0039000511  -999.250000
 248.25960000 38.463199615 0.4881959856  -999.250000 1.2158000469 1.6936000586  -999.250000
 248.41200000 46.389099121 0.5179939866  -999.250000 1.0586999655 1.5120999813  -999.250000
 248.56440000 48.698501587 0.5575299859  -999.250000 0.9743999839 1.4586999416  -999.250000
 248.71680000 51.067699432 0.5886409879  -999.250000 0.9826999903 1.5096000433  -999.250000
 248.86920000 52.069099426 0.5943379998  -999.250000 1.1022000313 1.6146999598  -999.250000
 249.02160000 51.310798645 0.5710260272  -999.250000 1.3294999599 1.7348999977  -999.250000
 249.17400000 50.186000824 0.5303760171  -999.250000 1.6071000099 1.8740999699  -999.250000
 249.32640000 43.249801636 0.4917809963  -999.250000 1.8532999754 2.0557999611  -999.250000
 249.47880000 34.566898346 0.4681940079  -999.250000 2.0181999207 2.2911000252  -999.250000
 249.63120000 27.573299408 0.4585689902  -999.250000 2.0218000412 2.5027999878  -999.250000
 249.78360000 19.727399826 0.4547559917  -999.250000 1.8352999687 2.5785999298  -999.250000
 249.93600000 16.294799805 0.4506179988  -999.250000 1.5949000120 2.5569000244  -999.250000
 250.08840000 21.196899414 0.4442969859  -999.250000 1.4359999895 2.5023999214  -999.250000
 250.24080000 29.108200073 0.4366300106  -999.250000 1.3909000158 2.4014000893  -999.250000
 250.39320000 30.990600586 0.4286270142  -999.250000 1.4212000370 2.2490999699  -999.250000
 250.54560000 27.697399139 0.4197129905  -999.250000 1.4650000334 2.0992000103  -999.250000
 250.69800000 20.528699875 0.4088689983  -999.250000 1.4763000011 2.0058999062  -999.250000
 250.85040000 13.874899864 0.3977890015  -999.250000 1.4513000250 2.0129001141  -999.250000
 251.00280000 18.555099487 0.3910540044  -999.250000 1.4039000273 2.1433000565  -999.250000
 251.15520000 27.171100616 0.3920010030  -999.250000 1.3609999418 2.3206000328  -999.250000
 251.30760000 30.610700607 0.3998680115  -999.250000 1.3538000584 2.4056999683  -999.250000
 251.46000000 30.970699310 0.4108760059  -999.250000 1.3693000078 2.3020000458  -999.250000
 251.61240000 35.890998840 0.4200980067  -999.250000 1.3587000370 2.0678999424  -999.250000
 251.76480000 33.512298584 0.4238910079  -999.250000 1.3051999807 1.8652000427  -999.250000
