# LAS format log file from PETREL
# Project units are specified as depth units
#==================================================================
~Version information
VERS.   2.0:
WRAP.   NO:
#==================================================================
~Well
STRT .m      0.0000000000 :
STOP .m      1178.3568000 :
STEP .m     0.15240000 :
NULL .        -999.250000 :
COMP.           : COMPANY
WELL.  NELSON #6-16   : WELL
FLD.            : FIELD
LOC.            : LOCATION
SRVC.           : SERVICE COMPANY
DATE.  2020-08-19 21:46:58   : Log Export Date {yyyy-MM-dd HH:mm:ss}
PROV.           : PROVINCE
UWI.   NELSON #6-16   : UNIQUE WELL ID
API.            : API NUMBER
#==================================================================
~Curve
DEPT .m                   : DEPTH
GR .gAPI                  : GR
NPHI .m3/m3               : NPHI
RHOB .g/cm3               : RHOB
RM .ohm.m                 : RM
RT .ohm.m                 : RT
FACIES ._                 : FACIES
~Parameter
#==================================================================
~Ascii
# ...
 623.16360000 70.286102295 0.1885859966  -999.250000 2.6343998909 10.076999664  -999.250000
 623.31600000 62.770099640 0.2529369891  -999.250000 1.8032000065 11.201899529  -999.250000
 623.46840000 61.982498169 0.2967230082  -999.250000 1.5750999451 14.509599686  -999.250000
 623.62080000 59.505199432 0.2991099954  -999.250000 1.6031999588 16.029800415  -999.250000
 623.77320000 52.219600677 0.2645829916  -999.250000 1.6569999456 13.096599579  -999.250000
 623.92560000 43.142700195 0.2190369964  -999.250000 1.6440999508 9.1224002838  -999.250000
 624.07800000 39.200801849 0.1909999996  -999.250000 1.6378999949 7.4965000153  -999.250000
 624.23040000 34.402000427 0.1866230071  -999.250000 1.6563999653 8.2449998856  -999.250000
 624.38280000 30.857700348 0.1865279973  -999.250000 1.6384999752 11.053099632  -999.250000
 624.53520000 32.844898224 0.1744389981  -999.250000 1.5640000105 17.358699799  -999.250000
 624.68760000 34.536899567 0.1582780033  -999.250000 1.4897999763 46.349300385  -999.250000
 624.84000000 33.779399872 0.1526560038  -999.250000 1.4695999622 100000.00000  -999.250000
 624.99240000 34.924598694 0.1562249959  -999.250000 1.4848999977 100000.00000  -999.250000
 625.14480000 40.862098694 0.1574050039  -999.250000 1.4694000483 7856.8022461  -999.250000
 625.29720000 40.054100037 0.1504849941  -999.250000 1.3444000483 19.268899918  -999.250000
 625.44960000 35.981098175 0.1403930038  -999.250000 1.1174000502 8.4114999771  -999.250000
 625.60200000 31.286399841 0.1341069937  -999.250000 0.8948000073 5.5131998062  -999.250000
 625.75440000 30.293300629 0.1324360073  -999.250000 0.7286000252 5.1318998337  -999.250000
 625.90680000 36.708099365 0.1331170052  -999.250000 0.6448000073 7.8256001472  -999.250000
 626.05920000 39.631900787 0.1346019953  -999.250000 0.6998000145 17.989299774  -999.250000
 626.21160000 43.626499176 0.1372279972  -999.250000 0.9754999876 21.488599777  -999.250000
 626.36400000 47.062198639 0.1435589939  -999.250000 1.4542000294 12.606100082  -999.250000
 626.51640000 41.461799622 0.1536789984  -999.250000 1.6101000309 8.3951997757  -999.250000
 626.66880000 37.082000732 0.1656560004  -999.250000 1.3968000412 7.6999998093  -999.250000
 626.82120000 36.832500458 0.1800460070  -999.250000 1.2323000431 10.772700310  -999.250000
 626.97360000 39.846900940 0.1910649985  -999.250000 1.1188000441 17.075700760  -999.250000
 627.12600000 40.787300110 0.1839230061  -999.250000 0.9682999849 16.653799057  -999.250000
 627.27840000 41.544101715 0.1571370065  -999.250000 0.8077999949 17.494899750  -999.250000
 627.43080000 41.096599579 0.1325799972  -999.250000 0.7305999994 19.485000610  -999.250000
 627.58320000 43.419300079 0.1349869967  -999.250000 0.7569000125 10.958700180  -999.250000
 627.73560000 45.888099670 0.1705339998  -999.250000 0.8335999846 6.1579999924  -999.250000
 627.88800000 45.374000549 0.2200250030  -999.250000 0.8700000048 4.2933001518  -999.250000
 628.04040000 41.759899139 0.2512210011  -999.250000 0.8422999978 3.7943000793  -999.250000
 628.19280000 41.730300903 0.2476300001  -999.250000 0.8292000294 5.1038999557  -999.250000
 628.34520000 46.631698608 0.2166199982  -999.250000 0.9397000074 13.711000443  -999.250000
 628.49760000 46.831199646 0.1671140045  -999.250000 1.3429000378 1783.3302002  -999.250000
 628.65000000 45.166801453 0.1070490032  -999.250000 2.2774000168 100000.00000  -999.250000
 628.80240000 49.209499359 0.0651739985  -999.250000 2.9405999184 100000.00000  -999.250000
 628.95480000 52.066699982 0.0812629983  -999.250000 2.2706999779 37.126201630  -999.250000
 629.10720000 53.085899353 0.1558129936  -999.250000 1.6751999855 36.559501648  -999.250000
 629.25960000 46.084400177 0.2335170060  -999.250000 1.3671000004 100000.00000  -999.250000
 629.41200000 36.791500092 0.2632220089  -999.250000 1.1578999758 172.84379578  -999.250000
 629.56440000 37.140300751 0.2498829961  -999.250000 0.9656000137 23.217699051  -999.250000
 629.71680000 40.059501648 0.2301259935  -999.250000 0.8539999723 14.114800453  -999.250000
 629.86920000 43.113498688 0.2261240035  -999.250000 0.8783000112 9.2737998962  -999.250000
 630.02160000 37.012001038 0.2344920039  -999.250000 1.0037000179 5.8322000504  -999.250000
 630.17400000 26.510599136 0.2370730042  -999.250000 1.0577000380 4.7399001122  -999.250000
 630.32640000 23.741500854 0.2192309946  -999.250000 0.9764000177 4.8871002197  -999.250000
 630.47880000 25.792200089 0.1895380020  -999.250000 0.9398999810 5.5791001320  -999.250000
 630.63120000 30.232599258 0.1727969944  -999.250000 1.0463000536 7.5040998459  -999.250000
 630.78360000 35.643398285 0.1803469956  -999.250000 1.2792999744 11.714599609  -999.250000
 630.93600000 40.775901794 0.1992900074  -999.250000 1.4738999605 16.085699081  -999.250000
 631.08840000 46.207801819 0.2088810056  -999.250000 1.5290999413 23.812299728  -999.250000
 631.24080000 49.431701660 0.2012780011  -999.250000 1.6039999723 64.999397278  -999.250000
 631.39320000 52.325298309 0.1881469935  -999.250000 1.7565000057 243.41929626  -999.250000
 631.54560000 46.023899078 0.1837580055  -999.250000 1.8444000483 100000.00000  -999.250000
 631.69800000 33.567699432 0.1880899966  -999.250000 1.7973999977 100000.00000  -999.250000
 631.85040000 33.275100708 0.1942739934  -999.250000 1.7188999653 100000.00000  -999.250000
 632.00280000 33.732700348 0.1982830018  -999.250000 1.6827000380 100000.00000  -999.250000
 632.15520000 29.371599197 0.1957689971  -999.250000 1.6581000090 100000.00000  -999.250000
 632.30760000 28.367099762 0.1818339974  -999.250000 1.5501999855 294.87091064  -999.250000
 632.46000000 30.257799149 0.1579609960  -999.250000 1.3253999949 24.743200302  -999.250000
 632.61240000 29.345199585 0.1364250034  -999.250000 1.1035000086 14.220199585  -999.250000
 632.76480000 32.683399200 0.1310310066  -999.250000 0.9825999737 10.808300018  -999.250000
 632.91720000 38.222900391 0.1425630003  -999.250000 0.9598000050 10.802300453  -999.250000
 633.06960000 38.227001190 0.1624539942  -999.250000 1.0170999765 15.835499763  -999.250000
 633.22200000 36.344501495 0.1838459969  -999.250000 1.1759999990 22.111999512  -999.250000
 633.37440000 38.580101013 0.2003799975  -999.250000 1.4290000200 15.826299667  -999.250000
 633.52680000 44.647499084 0.2053620070  -999.250000 1.6167999506 11.450499535  -999.250000
 633.67920000 51.226100922 0.1981389970  -999.250000 1.6168999672 10.684100151  -999.250000
 633.83160000 46.718299866 0.1881269962  -999.250000 1.5298000574 11.736300468  -999.250000
 633.98400000 37.181999207 0.1904069930  -999.250000 1.4332000017 13.558699608  -999.250000
 634.13640000 34.310298920 0.2117259949  -999.250000 1.3079999685 12.675499916  -999.250000
 634.28880000 31.913600922 0.2400999963  -999.250000 1.1398999691 7.7248997688  -999.250000
 634.44120000 23.705900192 0.2549209893  -999.250000 0.9503999949 4.6438999176  -999.250000
 634.59360000 22.171300888 0.2470909953  -999.250000 0.7766000032 3.9310998917  -999.250000
 634.74600000 30.298900604 0.2236600071  -999.250000 0.6917999983 4.8656001091  -999.250000
 634.89840000 39.245899200 0.1986539960  -999.250000 0.7796000242 6.8845000267  -999.250000
 635.05080000 47.024799347 0.1849080026  -999.250000 1.1780999899 8.1461000443  -999.250000
 635.20320000 55.472400665 0.1856530011  -999.250000 2.1101000309 7.9349999428  -999.250000
 635.35560000 57.960201263 0.1903579980  -999.250000 3.3118000031 7.6775999069  -999.250000
 635.50800000 53.700801849 0.1844660044  -999.250000 4.3688001633 13.318200111  -999.250000
 635.66040000 49.170501709 0.1617999971  -999.250000 7.2546000481 100000.00000  -999.250000
 635.81280000 45.843601227 0.1262309998  -999.250000 25.242900848 100000.00000  -999.250000
 635.96520000 43.438999176 0.0916320011  -999.250000 100000.00000 100000.00000  -999.250000
 636.11760000 38.898998260 0.0813969970  -999.250000 44.768299103 100000.00000  -999.250000
 636.27000000 38.662601471 0.1107430011  -999.250000 6.9102001190 100000.00000  -999.250000
