# LAS format log file from PETREL
# Project units are specified as depth units
#==================================================================
~Version information
VERS.   2.0:
WRAP.   NO:
#==================================================================
~Well
STRT .m      0.0000000000 :
STOP .m      1206.7032000 :
STEP .m     0.15240000 :
NULL .        -999.250000 :
COMP.           : COMPANY
WELL.  NELSON #9-16   : WELL
FLD.            : FIELD
LOC.            : LOCATION
SRVC.           : SERVICE COMPANY
DATE.  2020-08-25 09:56:37   : Log Export Date {yyyy-MM-dd HH:mm:ss}
PROV.           : PROVINCE
UWI.   NELSON #9-16   : UNIQUE WELL ID
API.            : API NUMBER
#==================================================================
~Curve
DEPT .m                   : DEPTH
FACIES ._                 : FACIES
GR .gAPI                  : GR
NPHI .m3/m3               : NPHI
RHOB .g/cm3               : RHOB
RM .ohm.m                 : RM
RT .ohm.m                 : RT
~Parameter
#==================================================================
~Ascii
# ...
 159.10560000 5.0000000000 63.612899780 0.5372729897 1.9512000084 9.8208999634 10.819000244
 159.25800000 5.0000000000 59.876499176 0.5298429728 1.9364000559 8.8889999390 10.594499588
 159.41040000 5.0000000000 64.262702942 0.5230770111 1.9190999269 8.1189002991 10.708100319
 159.56280000 5.0000000000 71.971397400 0.5213999748 1.9113000631 7.9071998596 10.867199898
 159.71520000 5.0000000000 71.841201782 0.5266979933 1.9181998968 8.3612003326 10.989999771
 159.86760000 5.0000000000 65.746200562 0.5379940271 1.9330999851 9.1920995712 11.050000191
 160.02000000 5.0000000000 61.228500366 0.5523369908 1.9435999393 9.7898998260 11.064100266
 160.17240000 5.0000000000 59.388099670 0.5655570030 1.9473000765 9.9598999023 11.218899727
 160.32480000 5.0000000000 59.870399475 0.5728729963 1.9521999359 10.131600380 11.703800201
 160.47720000 5.0000000000 59.838600159 0.5702580214 1.9629000425 10.540900230 12.434700012
 160.62960000 5.0000000000 54.427299500 0.5565429926 1.9735000134 11.074999809 12.940099716
 160.78200000 5.0000000000 45.900901794 0.5348500013 1.9765999317 11.451399803 13.204099655
 160.93440000 5.0000000000 41.331798553 0.5117890239 1.9703999758 11.511199951 13.656100273
 161.08680000 5.0000000000 39.687198639 0.4945650101 1.9568001032 11.409000397 13.917699814
 161.23920000 5.0000000000 39.598400116 0.4874559939 1.9373000860 11.248700142 13.290100098
 161.39160000 5.0000000000 41.497798920 0.4898290038 1.9111000299 10.794400215 12.168700218
 161.54400000 5.0000000000 44.762500763 0.4970920086 1.8743000031 9.7805004120 10.723500252
 161.69640000  -999.250000 48.982799530 0.5042719841 1.8221999407 8.2903995514 9.0982999802
 161.84880000  -999.250000 54.037700653 0.5095909834 1.7569000721 6.6612000465 7.8324999809
 162.00120000  -999.250000 64.920997620 0.5150570273 1.6983000040 5.4495000839 7.1715002060
 162.15360000  -999.250000 80.116996765 0.5235329866 1.6723999977 4.9376997948 6.7790999413
 162.30600000  -999.250000 86.600700378 0.5353369713 1.6825000048 4.9643998146 6.3973999023
 162.45840000  -999.250000 78.252998352 0.5471789837 1.7059000731 5.1318001747 6.0392999649
 162.61080000  -999.250000 68.617401123 0.5540210009 1.7200999260 5.1617999077 5.6742000580
 162.76320000  -999.250000 62.707099915 0.5521330237 1.7194000483 5.1332001686 5.3975000381
 162.91560000  -999.250000 54.766300201 0.5415650010 1.7071000338 5.1206002235 5.3172001839
 163.06800000  -999.250000 49.748298645 0.5265709758 1.6897000074 5.0148000717 5.2616000175
 163.22040000  -999.250000 51.675300598 0.5136579871 1.6758000851 4.7388000488 5.0682997704
 163.37280000  -999.250000 50.666099548 0.5080990195 1.6646000147 4.3645000458 4.7811999321
 163.52520000  -999.250000 41.038600922 0.5110859871 1.6446999311 3.9254999161 4.4800000191
 163.67760000  -999.250000 34.353401184 0.5194100142 1.6139000654 3.5079998970 4.3225002289
 163.83000000  -999.250000 36.557300568 0.5272909999 1.5934000015 3.3324999809 4.3882999420
 163.98240000  -999.250000 44.280700684 0.5291669965 1.6053000689 3.5827000141 4.5680999756
 164.13480000  -999.250000 49.140800476 0.5221729875 1.6453000307 4.2754001617 4.7473001480
 164.28720000  -999.250000 45.123298645 0.5078629851 1.6909999847 5.0840997696 4.8821001053
 164.43960000  -999.250000 41.858299255 0.4921270013 1.7304999828 5.5320000648 5.0350999832
 164.59200000  -999.250000 44.633399963 0.4827400148 1.7678000927 5.7238001823 5.4271998405
 164.74440000  -999.250000 50.513198853 0.4852569997 1.8000999689 6.0106000900 6.2111001015
 164.89680000  -999.250000 62.090198517 0.4999000132 1.8149000406 6.4218997955 7.1394000053
 165.04920000  -999.250000 76.414398193 0.5217040181 1.8113000393 6.7512001991 7.7736001015
 165.20160000  -999.250000 86.480796814 0.5435829759 1.8048000336 6.9145002365 8.0304002762
 165.35400000  -999.250000 92.118103027 0.5597270131 1.8065999746 7.0064997673 7.9748997688
 165.50640000  -999.250000 100.32119751 0.5671669841 1.8138000965 7.1222000122 7.8257999420
 165.65880000  -999.250000 112.53179932 0.5654000044 1.8208000660 7.2838001251 7.6592001915
 165.81120000  -999.250000 118.20700073 0.5556160212 1.8306999207 7.4025001526 7.5302000046
 165.96360000  -999.250000 116.70169830 0.5405079722 1.8446999788 7.2934999466 7.4088997841
 166.11600000  -999.250000 114.19869995 0.5241609812 1.8542000055 6.8880000114 7.2350997925
 166.26840000  -999.250000 116.68319702 0.5110219717 1.8521999121 6.3572998047 7.0715999603
 166.42080000  -999.250000 121.58049774 0.5041000247 1.8436000347 5.9752998352 7.0278000832
 166.57320000  -999.250000 121.42320251 0.5038459897 1.8401999474 5.8916001320 7.0015001297
 166.72560000  -999.250000 118.23690033 0.5087199807 1.8456000090 5.9826002121 6.8914999962
 166.87800000  -999.250000 115.54570007 0.5164250135 1.8510999680 6.0281000137 6.8407001495
 167.03040000  -999.250000 115.88610077 0.5245730281 1.8510999680 6.1205000877 6.9296998978
 167.18280000  -999.250000 117.25350189 0.5304560065 1.8479000330 6.5124001503 7.1686000824
 167.33520000  -999.250000 116.47859955 0.5313330293 1.8400000334 7.1954002380 7.6420998573
 167.48760000  -999.250000 111.68129730 0.5254120231 1.8263000250 7.9102001190 8.2232999802
 167.64000000  -999.250000 104.44229889 0.5128089786 1.8115999699 8.5038003922 8.7033004761
 167.79240000  -999.250000 98.529403687 0.4955469966 1.7971999645 9.0387001038 9.3427000046
 167.94480000  -999.250000 93.774497986 0.4769589901 1.7766000032 9.5165004730 10.066399574
 168.09720000  -999.250000 94.502098083 0.4607149959 1.7460999489 9.7950000763 10.472000122
 168.24960000  -999.250000 102.01119995 0.4497430027 1.7123000622 9.8074998856 10.686100006
 168.40200000  -999.250000 109.74520111 0.4451479912 1.6849999428 9.6561002731 10.697099686
 168.55440000  -999.250000 108.91439819 0.4464190006 1.6655000448 9.4074001312 10.413399696
 168.70680000  -999.250000 101.55870056 0.4528639913 1.6460000277 8.9594001770 10.010499954
 168.85920000  -999.250000 94.063201904 0.4648770094 1.6171998978 8.3474998474 9.6103000641
 169.01160000  -999.250000 93.679100037 0.4831640124 1.5809999704 7.8414998055 9.4187002182
 169.16400000  -999.250000 100.78730011 0.5065720081 1.5516999960 7.6831002235 9.4598999023
 169.31640000  -999.250000 111.88960266 0.5309039950 1.5399999619 7.9458999634 9.5410003662
 169.46880000  -999.250000 120.01770020 0.5504670143 1.5428000689 8.4795999527 9.5595998764
 169.62120000  -999.250000 122.45379639 0.5612270236 1.5534000397 8.9240999222 9.5249004364
 169.77360000  -999.250000 120.57869720 0.5630589724 1.5750999451 9.0839996338 9.4631996155
 169.92600000  -999.250000 114.58640289 0.5596629977 1.6166999340 9.0497999191 9.5174999237
 170.07840000  -999.250000 105.37680054 0.5559530258 1.6720000505 8.9409999847 9.7742996216
 170.23080000  -999.250000 97.253402710 0.5548830032 1.7203999758 8.8537998199 9.9752998352
 170.38320000  -999.250000 91.382202148 0.5558980107 1.7511999607 8.7456998825 9.9385995865
 170.53560000  -999.250000 91.634399414 0.5564609766 1.7696999311 8.3571996689 9.5143003464
 170.68800000  -999.250000 98.890800476 0.5550100207 1.7799999714 7.6269001961 8.9707002640
 170.84040000  -999.250000 106.86569977 0.5522009730 1.7845000029 6.9660000801 8.6714000702
 170.99280000  -999.250000 107.59999847 0.5489490032 1.7920999527 6.7540001869 8.5761003494
 171.14520000  -999.250000 106.17600250 0.5438690186 1.8058999777 6.9949002266 8.5347003937
 171.29760000  -999.250000 111.18640137 0.5335540175 1.8191999197 7.3805999756 8.5676002502
 171.45000000  -999.250000 122.25740051 0.5159220099 1.8335999250 7.6730999947 8.6384000778
 171.60240000  -999.250000 131.82640076 0.4927909970 1.8609000444 8.0346002579 8.7316999435
 171.75480000  -999.250000 132.43820190 0.4689269960 1.9028999805 8.6141004562 8.9777002335
 171.90720000  -999.250000 127.02010345 0.4488269985 1.9419000149 9.0974998474 9.1263999939
 172.05960000  -999.250000 119.30239868 0.4350210130 1.9570000172 8.9635000229 8.8610000610
 172.21200000  -999.250000 116.15100098 0.4292060137 1.9441999197 8.1505002975 8.3509998322
