# LAS format log file from PETREL
# Project units are specified as depth units
#==================================================================
~Version information
VERS.   2.0:
WRAP.   NO:
#==================================================================
~Well
STRT .m      0.0000000000 :
STOP .m      1206.7032000 :
STEP .m     0.15240000 :
NULL .        -999.250000 :
COMP.           : COMPANY
WELL.  NELSON #9-16   : WELL
FLD.            : FIELD
LOC.            : LOCATION
SRVC.           : SERVICE COMPANY
DATE.  2020-08-25 09:56:37   : Log Export Date {yyyy-MM-dd HH:mm:ss}
PROV.           : PROVINCE
UWI.   NELSON #9-16   : UNIQUE WELL ID
API.            : API NUMBER
#==================================================================
~Curve
DEPT .m                   : DEPTH
FACIES ._                 : FACIES
GR .gAPI                  : GR
NPHI .m3/m3               : NPHI
RHOB .g/cm3               : RHOB
RM .ohm.m                 : RM
RT .ohm.m                 : RT
~Parameter
#==================================================================
~Ascii
# ...
 954.63360000  -999.250000 55.640701294 0.1336289942 2.5268998146 2.3115000725 1.8961999416
 954.78600000  -999.250000 47.944999695 0.1334750056 2.4996001720 2.1349999905 1.8234000206
 954.93840000  -999.250000 42.161701202 0.1373630017 2.4711999893 1.8949999809 1.7269999981
 955.09080000  -999.250000 37.896598816 0.1434949934 2.4521999359 1.6670999527 1.6008000374
 955.24320000  -999.250000 33.674301147 0.1504199952 2.4489998817 1.4910999537 1.4699000120
 955.39560000  -999.250000 30.660200119 0.1578879952 2.4561998844 1.3668999672 1.3587000370
 955.54800000  -999.250000 29.719100952 0.1667259932 2.4628999233 1.2842999697 1.2897000313
 955.70040000  -999.250000 32.105899811 0.1777909994 2.4656999111 1.2410000563 1.2756999731
 955.85280000  -999.250000 41.418098450 0.1908870041 2.4678001404 1.2457000017 1.3133000135
 956.00520000  -999.250000 62.367099762 0.2043379992 2.4684000015 1.3131999969 1.4028999805
 956.15760000  -999.250000 89.671798706 0.2155909985 2.4670000076 1.4644000530 1.5512000322
 956.31000000  -999.250000 105.21579742 0.2225770056 2.4753000736 1.7295999527 1.7505999804
 956.46240000  -999.250000 97.770301819 0.2251809984 2.5023000240 2.1366000175 1.9794000387
 956.61480000  -999.250000 75.958198547 0.2259559929 2.5304999352 2.6294999123 2.1935000420
 956.76720000  -999.250000 61.185001373 0.2293609977 2.5298998356 2.9800000191 2.3654000759
 956.91960000  -999.250000 62.887699127 0.2397879958 2.4937000275 3.0107998848 2.4798998833
 957.07200000  -999.250000 78.307197571 0.2593469918 2.4426000118 2.8306999207 2.5369999409
 957.22440000  -999.250000 99.638999939 0.2867490053 2.4041001797 2.5964000225 2.5134999752
 957.37680000  -999.250000 115.53620148 0.3179289997 2.3946001530 2.3561000824 2.3847000599
 957.52920000  -999.250000 121.93530273 0.3478929996 2.4059000015 2.1236000061 2.1840000153
 957.68160000  -999.250000 125.24459839 0.3725729883 2.4141001701 1.9255000353 1.9953000546
 957.83400000  -999.250000 126.54149628 0.3898040056 2.4054999352 1.7921999693 1.8673000336
 957.98640000  -999.250000 125.41239929 0.3993670046 2.3876998425 1.7402000427 1.7948000431
 958.13880000  -999.250000 126.62920380 0.4024780095 2.3812999725 1.7470999956 1.7567000389
 958.29120000  -999.250000 128.08099365 0.4010719955 2.3977999687 1.7628999949 1.7393000126
 958.44360000  -999.250000 126.95169830 0.3970870078 2.4254999161 1.7597999573 1.7338999510
 958.59600000  -999.250000 128.40379333 0.3917340040 2.4460000992 1.7463999987 1.7447999716
 958.74840000  -999.250000 130.29200745 0.3850860000 2.4519000053 1.7408000231 1.7928999662
 958.90080000  -999.250000 126.32430267 0.3760350049 2.4421000481 1.7654000521 1.8956999779
 959.05320000  -999.250000 118.53749847 0.3628720045 2.4247000217 1.8715000153 2.0580999851
 959.20560000  -999.250000 111.44239807 0.3444249928 2.4203999043 2.1257998943 2.2623000145
 959.35800000  -999.250000 100.96990204 0.3212260008 2.4428000450 2.5445001125 2.4760000706
 959.51040000  -999.250000 84.885902405 0.2957479954 2.4751000404 3.0478000641 2.7044000626
 959.66280000  -999.250000 70.188796997 0.2713080049 2.4921998978 3.5225999355 2.9633998871
 959.81520000  -999.250000 64.105201721 0.2503890097 2.4993000031 3.9723000526 3.2885000706
 959.96760000  -999.250000 62.816501617 0.2338840067 2.5181999207 4.4419999123 3.6101999283
 960.12000000  -999.250000 57.469299316 0.2217620015 2.5485000610 4.6721000671 3.6695001125
 960.27240000  -999.250000 53.475399017 0.2141280025 2.5631000996 4.2630000114 3.4388000965
 960.42480000  -999.250000 63.252101898 0.2113070041 2.5478000641 3.5090000629 3.1101999283
 960.57720000  -999.250000 79.749397278 0.2128960043 2.5202000141 2.9017000198 2.8057999611
 960.72960000  -999.250000 85.829696655 0.2170470059 2.5004999638 2.5157999992 2.5360000134
 960.88200000  -999.250000 86.394699097 0.2208909988 2.4890999794 2.2488999367 2.2962000370
 961.03440000  -999.250000 93.779403687 0.2217430025 2.4767999649 2.0467998981 2.1099998951
 961.18680000  -999.250000 103.92079926 0.2180719972 2.4591999054 1.9269000292 2.0095000267
 961.33920000  -999.250000 105.48400116 0.2096260041 2.4403998852 1.9140000343 2.0027999878
 961.49160000  -999.250000 88.375099182 0.1970230043 2.4326000214 2.0104999542 2.0945000648
 961.64400000  -999.250000 59.576599121 0.1815039963 2.4496998787 2.2125999928 2.2778000832
 961.79640000  -999.250000 40.152198792 0.1649000049 2.4938001633 2.5366001129 2.5071001053
 961.94880000  -999.250000 33.177501678 0.1494300067 2.5461001396 2.9965000153 2.7655999660
 962.10120000  -999.250000 32.486801147 0.1370410025 2.5813999176 3.5636999607 3.1084001064
 962.25360000  -999.250000 38.067798615 0.1286000013 2.5963001251 4.2073001862 3.5773999691
 962.40600000  -999.250000 46.738800049 0.1236160025 2.6040000916 4.9408001900 4.1770000458
 962.55840000  -999.250000 52.223098755 0.1206789985 2.6091001034 5.7128000259 4.8166999817
 962.71080000  -999.250000 52.101799011 0.1182819977 2.6078000069 6.2652001381 5.2690000534
 962.86320000  -999.250000 46.952301025 0.1155069992 2.6011002064 6.3710999489 5.3838000298
 963.01560000  -999.250000 39.888698578 0.1123420000 2.5928997993 6.1757998466 5.3140001297
 963.16800000  -999.250000 35.374198914 0.1095620021 2.5838000774 5.9207000732 5.2561001778
 963.32040000  -999.250000 32.513599396 0.1083289981 2.5758998394 5.7109999657 5.2037000656
 963.47280000  -999.250000 29.440099716 0.1095959991 2.5745000839 5.5237998962 5.1543002129
 963.62520000  -999.250000 30.977199554 0.1135310009 2.5786001682 5.2824001312 5.1054000854
 963.77760000  -999.250000 46.758899689 0.1191890016 2.5793001652 4.9972000122 5.0265002251
 963.93000000  -999.250000 71.987701416 0.1247109994 2.5701999664 4.7350997925 4.8238000870
 964.08240000  -999.250000 84.059097290 0.1281410009 2.5493998528 4.4711999893 4.5480999947
 964.23480000  -999.250000 73.211097717 0.1284870058 2.5185000896 4.1518001556 4.2891998291
 964.38720000  -999.250000 52.390201569 0.1262930036 2.4890000820 3.8366000652 4.0574998856
 964.53960000  -999.250000 35.240100861 0.1232760027 2.4767999649 3.6349999905 3.9070000648
 964.69200000  -999.250000 26.169900894 0.1213940009 2.4858999252 3.5855998993 3.8364000320
 964.84440000  -999.250000 24.209100723 0.1221619993 2.5103001595 3.6698999405 3.7567000389
 964.99680000  -999.250000 28.864200592 0.1265480071 2.5421998501 3.8145000935 3.6045999527
 965.14920000  -999.250000 37.677898407 0.1350570023 2.5678999424 3.8529000282 3.3561999798
 965.30160000  -999.250000 49.188201904 0.1476089954 2.5698997974 3.5878000259 3.0304000378
 965.45400000  -999.250000 63.230998993 0.1633200049 2.5436999798 3.0213000774 2.6565001011
 965.60640000  -999.250000 75.225502014 0.1805630028 2.5041999817 2.3828001022 2.3197999001
 965.75880000  -999.250000 83.088096619 0.1973699927 2.4708001614 1.8890999556 2.0657999516
 965.91120000  -999.250000 80.835700989 0.2118690014 2.4526998997 1.6100000143 1.8906999826
 966.06360000  -999.250000 70.016403198 0.2223159969 2.4477000237 1.4879000187 1.7972999811
 966.21600000  -999.250000 63.838001251 0.2268429995 2.4551000595 1.4658999443 1.7878999710
 966.36840000  -999.250000 62.081699371 0.2234469950 2.4803998470 1.5529999733 1.8465000391
 966.52080000  -999.250000 58.729099274 0.2107030004 2.5246000290 1.7997000217 1.9684000015
 966.67320000  -999.250000 54.198398590 0.1891019940 2.5739998817 2.2614998817 2.1875998974
 966.82560000  -999.250000 47.656299591 0.1620389968 2.6096000671 2.9665000439 2.5343999863
 966.97800000  -999.250000 41.796199799 0.1352159977 2.6261999607 3.8933000565 3.0541000366
 967.13040000  -999.250000 44.361698151 0.1143129990 2.6283998489 5.0132999420 3.8940999508
 967.28280000  -999.250000 55.171699524 0.1023359969 2.6196000576 6.3624000549 5.2414999008
 967.43520000  -999.250000 60.863800049 0.0986130014 2.6078999043 7.8069000244 6.6293001175
 967.58760000  -999.250000 55.512699127 0.1001650020 2.6031000614 8.7440996170 7.0117998123
 967.74000000  -999.250000 45.633098602 0.1041600034 2.6068999767 8.4455003738 6.3138999939
