# LAS format log file from PETREL
# Project units are specified as depth units
#==================================================================
~Version information
VERS.   2.0:
WRAP.   NO:
#==================================================================
~Well
STRT .m      0.0000000000 :
STOP .m      1178.3568000 :
STEP .m     0.15240000 :
NULL .        -999.250000 :
COMP.           : COMPANY
WELL.  NELSON #6-16   : WELL
FLD.            : FIELD
LOC.            : LOCATION
SRVC.           : SERVICE COMPANY
DATE.  2020-08-19 21:46:58   : Log Export Date {yyyy-MM-dd HH:mm:ss}
PROV.           : PROVINCE
UWI.   NELSON #6-16   : UNIQUE WELL ID
API.            : API NUMBER
#==================================================================
~Curve
DEPT .m                   : DEPTH
GR .gAPI                  : GR
NPHI .m3/m3               : NPHI
RHOB .g/cm3               : RHOB
RM .ohm.m                 : RM
RT .ohm.m                 : RT
FACIES ._                 : FACIES
~Parameter
#==================================================================
~Ascii
# ...
 556.86960000 69.291000366 0.2964270115  -999.250000 2.6077001095 2.6342999935  -999.250000
 557.02200000 76.615196228 0.3057000041  -999.250000 2.6001000404 2.6120998859  -999.250000
 557.17440000 81.325202942 0.3231450021  -999.250000 2.5127000809 2.5311999321  -999.250000
 557.32680000 84.346199036 0.3476769924  -999.250000 2.3508000374 2.4107999802  -999.250000
 557.47920000 84.957801819 0.3740989864  -999.250000 2.1459999084 2.3273000717  -999.250000
 557.63160000 82.360801697 0.3954049945  -999.250000 1.9909000397 2.2787001133  -999.250000
 557.78400000 74.562103271 0.4064059854  -999.250000 1.9486000538 2.2335999012  -999.250000
 557.93640000 76.790100098 0.4060589969  -999.250000 1.9955999851 2.1984000206  -999.250000
 558.08880000 89.231002808 0.3973299861  -999.250000 2.0415000916 2.1640999317  -999.250000
 558.24120000 90.246498108 0.3858579993  -999.250000 2.0513000488 2.1126000881  -999.250000
 558.39360000 78.875801086 0.3769119978  -999.250000 2.0450000763 2.0720000267  -999.250000
 558.54600000 69.274200439 0.3720650077  -999.250000 2.0146999359 2.0764999390  -999.250000
 558.69840000 74.439498901 0.3700979948  -999.250000 1.9488999844 2.1034998894  -999.250000
 558.85080000 86.319702148 0.3694419861  -999.250000 1.8858000040 2.1243999004  -999.250000
 559.00320000 100.16770172 0.3682529926  -999.250000 1.8694000244 2.1480000019  -999.250000
 559.15560000 101.90110016 0.3641589880  -999.250000 1.8876999617 2.1831998825  -999.250000
 559.30800000 100.07469940 0.3547759950  -999.250000 1.9208999872 2.2221000195  -999.250000
 559.46040000 88.208297729 0.3392089903  -999.250000 1.9779000282 2.2716999054  -999.250000
 559.61280000 70.009696960 0.3198600113  -999.250000 2.0873000622 2.3287999630  -999.250000
 559.76520000 54.320800781 0.3029310107  -999.250000 2.2279000282 2.3685998917  -999.250000
 559.91760000 49.299400330 0.2975620031  -999.250000 2.3159999847 2.3701999187  -999.250000
 560.07000000 55.807498932 0.3103660047  -999.250000 2.2894001007 2.3412001133  -999.250000
 560.22240000 68.111503601 0.3358289897  -999.250000 2.1587998867 2.3252000809  -999.250000
 560.37480000 75.547698975 0.3572480083  -999.250000 2.0041999817 2.3775000572  -999.250000
 560.52720000 82.250198364 0.3608259857  -999.250000 1.9940999746 2.4532999992  -999.250000
 560.67960000 91.839797974 0.3447799981  -999.250000 2.2002999783 2.4737999439  -999.250000
 560.83200000 94.445297241 0.3187080026  -999.250000 2.4818999767 2.4340000153  -999.250000
 560.98440000 83.914901733 0.2969900072  -999.250000 2.5864000320 2.3238000870  -999.250000
 561.13680000 71.925399780 0.2878949940  -999.250000 2.4934000969 2.1617999077  -999.250000
 561.28920000 71.990798950 0.2907510102  -999.250000 2.3101000786 2.0422000885  -999.250000
 561.44160000 85.696998596 0.3029760122  -999.250000 2.1038000584 1.9615999460  -999.250000
 561.59400000 91.218101501 0.3229469955  -999.250000 1.9045000076 1.8637000322  -999.250000
 561.74640000 83.467399597 0.3472349942  -999.250000 1.7129000425 1.7597999573  -999.250000
 561.89880000 83.307403564 0.3705930114  -999.250000 1.5449999571 1.6691999435  -999.250000
 562.05120000 86.932502747 0.3891350031  -999.250000 1.4306999445 1.5911999941  -999.250000
 562.20360000 97.657302856 0.4020189941  -999.250000 1.3745000362 1.5412000418  -999.250000
 562.35600000 112.54709625 0.4099600017  -999.250000 1.3682999611 1.5388000011  -999.250000
 562.50840000 109.02300262 0.4127730131  -999.250000 1.4074000120 1.5821000338  -999.250000
 562.66080000 96.706901550 0.4095320106  -999.250000 1.4955999851 1.6739000082  -999.250000
 562.81320000 103.43849945 0.4005939960  -999.250000 1.6497000456 1.8305000067  -999.250000
 562.96560000 106.42520142 0.3880259991  -999.250000 1.8901000023 2.0736000538  -999.250000
 563.11800000 108.02909851 0.3747619987  -999.250000 2.2421998978 2.4235999584  -999.250000
 563.27040000 116.69200134 0.3623510003  -999.250000 2.7583999634 2.8508999348  -999.250000
 563.42280000 117.62809753 0.3485299945  -999.250000 3.4479000568 3.2781999111  -999.250000
 563.57520000 101.79450226 0.3298470080  -999.250000 4.1986999512 3.5810999870  -999.250000
 563.72760000 92.227302551 0.3065670133  -999.250000 4.7610001564 3.5926001072  -999.250000
 563.88000000 90.941001892 0.2840279937  -999.250000 4.6435999870 3.3857998848  -999.250000
 564.03240000 88.934600830 0.2712709904  -999.250000 3.8313999176 3.1256000996  -999.250000
 564.18480000 87.509399414 0.2762930095  -999.250000 3.0032999516 2.8257000446  -999.250000
 564.33720000 80.532600403 0.2993429899  -999.250000 2.4203999043 2.5343000889  -999.250000
 564.48960000 78.180801392 0.3321839869  -999.250000 2.0134999752 2.3185999393  -999.250000
 564.64200000 84.055603027 0.3638289869  -999.250000 1.7408000231 2.1738998890  -999.250000
 564.79440000 94.389900208 0.3854900002  -999.250000 1.5987000465 2.0678999424  -999.250000
 564.94680000 108.53890228 0.3924190104  -999.250000 1.5537999868 2.0041000843  -999.250000
 565.09920000 108.65540314 0.3831129968  -999.250000 1.5622999668 1.9730999470  -999.250000
 565.25160000 103.23940277 0.3579330146  -999.250000 1.5935000181 1.9638999701  -999.250000
 565.40400000 102.15579987 0.3254030049  -999.250000 1.6325000525 2.0051000118  -999.250000
 565.55640000 95.392799377 0.3059389889  -999.250000 1.6937999725 2.1106998920  -999.250000
 565.70880000 91.543701172 0.3107219934  -999.250000 1.7890000343 2.2395999432  -999.250000
 565.86120000 92.883499146 0.3269050121  -999.250000 1.8919999599 2.3566000462  -999.250000
 566.01360000 90.226402283 0.3394150138  -999.250000 1.9611999989 2.4512000084  -999.250000
 566.16600000 83.743499756 0.3464379907  -999.250000 1.9855999947 2.5093998909  -999.250000
 566.31840000 78.980201721 0.3501990139  -999.250000 1.9955999851 2.5494000912  -999.250000
 566.47080000 81.770797729 0.3507640064  -999.250000 2.0304999352 2.5573999882  -999.250000
 566.62320000 90.497398376 0.3481749892  -999.250000 2.0806000233 2.4935998917  -999.250000
 566.77560000 89.470397949 0.3446460068  -999.250000 2.0869998932 2.3647000790  -999.250000
 566.92800000 92.501296997 0.3440800011  -999.250000 2.0232000351 2.1923999786  -999.250000
 567.08040000 90.307601929 0.3491309881  -999.250000 1.8986999989 2.0151998997  -999.250000
 567.23280000 83.322196960 0.3602389991  -999.250000 1.7380000353 1.8830000162  -999.250000
 567.38520000 82.378402710 0.3766709864  -999.250000 1.5930000544 1.7883000374  -999.250000
 567.53760000 86.849899292 0.3946180046  -999.250000 1.4938999414 1.7050000429  -999.250000
 567.69000000 97.404098511 0.4069089890  -999.250000 1.4292000532 1.6449999809  -999.250000
 567.84240000 100.64170074 0.4091449976  -999.250000 1.3983999491 1.6161999702  -999.250000
 567.99480000 87.784301758 0.4025439918  -999.250000 1.4375000000 1.5921000242  -999.250000
 568.14720000 78.511398315 0.3905330002  -999.250000 1.5262000561 1.5703999996  -999.250000
 568.29960000 78.723999023 0.3789919913  -999.250000 1.5824999809 1.5690000057  -999.250000
 568.45200000 83.593696594 0.3753809929  -999.250000 1.6009999514 1.5728000402  -999.250000
 568.60440000 89.405097961 0.3810389936  -999.250000 1.6210999489 1.5678000450  -999.250000
 568.75680000 85.119400024 0.3904890120  -999.250000 1.6045000553 1.5756000280  -999.250000
 568.90920000 76.476799011 0.3990890086  -999.250000 1.5430999994 1.5824999809  -999.250000
 569.06160000 77.371101379 0.4051609933  -999.250000 1.5017999411 1.5580999851  -999.250000
 569.21400000 84.595298767 0.4086290002  -999.250000 1.4873000383 1.5205999613  -999.250000
 569.36640000 83.388603210 0.4116109908  -999.250000 1.4493000507 1.4853999615  -999.250000
 569.51880000 85.280502319 0.4150280058  -999.250000 1.3882000446 1.4416999817  -999.250000
 569.67120000 92.425697327 0.4133729935  -999.250000 1.3449000120 1.4179999828  -999.250000
 569.82360000 91.753402710 0.3986440003  -999.250000 1.3430999517 1.4433000088  -999.250000
 569.97600000 86.278297424 0.3708220124  -999.250000 1.4091000557 1.4887000322  -999.250000
