# LAS format log file from PETREL
# Project units are specified as depth units
#==================================================================
~Version information
VERS.   2.0:
WRAP.   NO:
#==================================================================
~Well
STRT .m      0.0000000000 :
STOP .m      1178.3568000 :
STEP .m     0.15240000 :
NULL .        -999.250000 :
COMP.           : COMPANY
WELL.  NELSON #6-16   : WELL
FLD.            : FIELD
LOC.            : LOCATION
SRVC.           : SERVICE COMPANY
DATE.  2020-08-19 21:46:58   : Log Export Date {yyyy-MM-dd HH:mm:ss}
PROV.           : PROVINCE
UWI.   NELSON #6-16   : UNIQUE WELL ID
API.            : API NUMBER
#==================================================================
~Curve
DEPT .m                   : DEPTH
GR .gAPI                  : GR
NPHI .m3/m3               : NPHI
RHOB .g/cm3               : RHOB
RM .ohm.m                 : RM
RT .ohm.m                 : RT
FACIES ._                 : FACIES
~Parameter
#==================================================================
~Ascii
# ...
 702.71640000 114.98059845 0.3288759887  -999.250000 1.5019999743 1.6013000011  -999.250000
 702.86880000 114.52279663 0.3207989931  -999.250000 1.5447000265 1.6356999874  -999.250000
 703.02120000 108.91629791 0.3036620021  -999.250000 1.6648000479 1.6770000458  -999.250000
 703.17360000 88.328102112 0.2836819887  -999.250000 1.8470000029 1.7344000340  -999.250000
 703.32600000 74.237998962 0.2638649940  -999.250000 2.0264999866 1.8325999975  -999.250000
 703.47840000 67.741203308 0.2432969958  -999.250000 2.1875998974 1.9984999895  -999.250000
 703.63080000 63.758598328 0.2215220034  -999.250000 2.4238998890 2.2230999470  -999.250000
 703.78320000 55.315601349 0.2027000040  -999.250000 2.7474000454 2.4607000351  -999.250000
 703.93560000 39.506599426 0.1954780072  -999.250000 2.9828000069 2.6382000446  -999.250000
 704.08800000 30.846000671 0.2057379931  -999.250000 3.0148999691 2.7109000683  -999.250000
 704.24040000 36.174999237 0.2291200012  -999.250000 2.9086999893 2.7198998928  -999.250000
 704.39280000 48.477901459 0.2525810003  -999.250000 2.7502999306 2.7399001122  -999.250000
 704.54520000 63.629901886 0.2629390061  -999.250000 2.6422998905 2.7737998962  -999.250000
 704.69760000 67.963096619 0.2559910119  -999.250000 2.6867001057 2.7785999775  -999.250000
 704.85000000 67.272003174 0.2404499948  -999.250000 2.8675000668 2.7118000984  -999.250000
 705.00240000 65.893302917 0.2330719978  -999.250000 2.9670000076 2.5729999542  -999.250000
 705.15480000 59.308101654 0.2461739928  -999.250000 2.7841000557 2.4119000435  -999.250000
 705.30720000 61.560001373 0.2745920122  -999.250000 2.4495999813 2.3180999756  -999.250000
 705.45960000 80.263603210 0.2969290018  -999.250000 2.1981999874 2.3524000645  -999.250000
 705.61200000 95.875602722 0.2936750054  -999.250000 2.1663000584 2.4825999737  -999.250000
 705.76440000 89.958702087 0.2625879943  -999.250000 2.4040999413 2.6064000130  -999.250000
 705.91680000 66.201896667 0.2185589969  -999.250000 2.8118999004 2.6616001129  -999.250000
 706.06920000 40.799301147 0.1811619997  -999.250000 3.1106998920 2.6860001087  -999.250000
 706.22160000 33.715900421 0.1593559980  -999.250000 3.2237999439 2.7709999084  -999.250000
 706.37400000 36.261398315 0.1481570005  -999.250000 3.3947000504 3.0150001049  -999.250000
 706.52640000 38.905498505 0.1394090056  -999.250000 3.8199999332 3.4749000072  -999.250000
 706.67880000 38.415199280 0.1315200031  -999.250000 4.5121998787 4.0213999748  -999.250000
 706.83120000 30.908000946 0.1290239990  -999.250000 5.1757001877 4.4608001709  -999.250000
 706.98360000 26.297100067 0.1353340000  -999.250000 5.4179000854 4.7817001343  -999.250000
 707.13600000 30.270500183 0.1468939930  -999.250000 5.3935999870 5.0907001495  -999.250000
 707.28840000 46.545398712 0.1553020030  -999.250000 5.4581999779 5.4616999626  -999.250000
 707.44080000 59.634498596 0.1543309987  -999.250000 5.7256999016 5.9120998383  -999.250000
 707.59320000 58.486499786 0.1437830031  -999.250000 6.1522002220 6.3333997726  -999.250000
 707.74560000 53.594799042 0.1282999963  -999.250000 6.4727001190 6.5823001862  -999.250000
 707.89800000 49.848701477 0.1137489974  -999.250000 6.5282001495 6.7193999290  -999.250000
 708.05040000 51.004699707 0.1037139967  -999.250000 6.5233998299 6.8734002113  -999.250000
 708.20280000 56.582599640 0.0984949991  -999.250000 6.5689997673 7.1078000069  -999.250000
 708.35520000 58.432098389 0.0963699967  -999.250000 6.6536002159 7.4917998314  -999.250000
 708.50760000 57.871498108 0.0950979963  -999.250000 6.8639001846 7.8357000351  -999.250000
 708.66000000 55.498298645 0.0936599970  -999.250000 7.2548999786 7.9282999039  -999.250000
 708.81240000 47.613201141 0.0938659981  -999.250000 7.6142997742 7.7209000587  -999.250000
 708.96480000 39.344398499 0.0997309983  -999.250000 7.5911998749 7.1710000038  -999.250000
 709.11720000 38.021999359 0.1150289997  -999.250000 6.9703998566 6.3868999481  -999.250000
 709.26960000 41.402599335 0.1409019977  -999.250000 5.9295997620 5.5859999657  -999.250000
 709.42200000 47.450099945 0.1742389947  -999.250000 4.8685998917 4.8566999435  -999.250000
 709.57440000 54.775901794 0.2080210000  -999.250000 3.9934000969 4.2209000587  -999.250000
 709.72680000 64.718101501 0.2338619977  -999.250000 3.3494999409 3.7263998985  -999.250000
 709.87920000 77.305900574 0.2463680059  -999.250000 2.9270999432 3.3610999584  -999.250000
 710.03160000 84.938697815 0.2479649931  -999.250000 2.7355000973 3.0710000992  -999.250000
 710.18400000 77.712997437 0.2481909990  -999.250000 2.6923999786 2.8317999840  -999.250000
 710.33640000 69.087501526 0.2554990053  -999.250000 2.6484000683 2.6563999653  -999.250000
 710.48880000 78.375701904 0.2691020072  -999.250000 2.5362000465 2.5727000237  -999.250000
 710.64120000 84.526496887 0.2790369987  -999.250000 2.4602999687 2.5945000648  -999.250000
 710.79360000 83.629997253 0.2751230001  -999.250000 2.5348999500 2.6956000328  -999.250000
 710.94600000 77.181098938 0.2568210065  -999.250000 2.7599999905 2.8248000145  -999.250000
 711.09840000 69.930900574 0.2347179949  -999.250000 3.0062000751 2.9209001064  -999.250000
 711.25080000 69.162300110 0.2215149999  -999.250000 3.1468999386 2.9447999001  -999.250000
 711.40320000 65.711700439 0.2218109965  -999.250000 3.1491999626 2.9528999329  -999.250000
 711.55560000 58.180400848 0.2314859927  -999.250000 3.0752999783 3.0025000572  -999.250000
 711.70800000 62.249198914 0.2427729964  -999.250000 3.0325999260 3.0708000660  -999.250000
 711.86040000 67.173103333 0.2475180030  -999.250000 3.0211999416 3.1421999931  -999.250000
 712.01280000 66.690101624 0.2412649989  -999.250000 3.0055999756 3.2163999081  -999.250000
 712.16520000 71.925796509 0.2268220037  -999.250000 3.0480000973 3.2283999920  -999.250000
 712.31760000 71.678901672 0.2123930007  -999.250000 3.1598000526 3.1695001125  -999.250000
 712.47000000 63.725601196 0.2067500055  -999.250000 3.2147998810 3.0845000744  -999.250000
 712.62240000 65.193397522 0.2127059996  -999.250000 3.0940001011 2.9946000576  -999.250000
 712.77480000 75.616996765 0.2236150056  -999.250000 2.8828001022 2.9714000225  -999.250000
 712.92720000 80.576896667 0.2303259969  -999.250000 2.7843999863 3.0441999435  -999.250000
 713.07960000 72.816200256 0.2298440039  -999.250000 2.8738000393 3.0866999626  -999.250000
 713.23200000 67.301902771 0.2251829952  -999.250000 2.9855000973 3.0446000099  -999.250000
 713.38440000 75.044502258 0.2202190012  -999.250000 2.9393000603 2.9686999321  -999.250000
 713.53680000 81.466598511 0.2160719931  -999.250000 2.8419001102 2.8808999062  -999.250000
 713.68920000 82.936500549 0.2126359940  -999.250000 2.8352999687 2.8092000484  -999.250000
 713.84160000 88.150901794 0.2127050012  -999.250000 2.8454000950 2.7390999794  -999.250000
 713.99400000 82.414398193 0.2200140059  -999.250000 2.7149999142 2.6177000999  -999.250000
 714.14640000 74.587898254 0.2326660007  -999.250000 2.4600000381 2.5125000477  -999.250000
 714.29880000 77.645599365 0.2435470074  -999.250000 2.2685999870 2.4649999142  -999.250000
 714.45120000 78.405601501 0.2466810048  -999.250000 2.2421000004 2.4152998924  -999.250000
 714.60360000 82.094100952 0.2412009984  -999.250000 2.2843999863 2.3455998898  -999.250000
 714.75600000 78.475898743 0.2321850061  -999.250000 2.2690000534 2.2702999115  -999.250000
 714.90840000 75.512901306 0.2267089933  -999.250000 2.2200000286 2.1686000824  -999.250000
 715.06080000 79.096199036 0.2279050052  -999.250000 2.1675000191 2.0764999390  -999.250000
 715.21320000 84.231101990 0.2349639982  -999.250000 2.0710000992 2.0225000381  -999.250000
 715.36560000 80.154197693 0.2450290024  -999.250000 1.9440000057 1.9829000235  -999.250000
 715.51800000 75.575996399 0.2530530095  -999.250000 1.8561999798 1.9641000032  -999.250000
 715.67040000 75.782302856 0.2554689944  -999.250000 1.8379000425 1.9645999670  -999.250000
 715.82280000 70.698600769 0.2546789944  -999.250000 1.8766000271 1.9272999763  -999.250000
