# LAS format log file from PETREL
# Project units are specified as depth units
#==================================================================
~Version information
VERS.   2.0:
WRAP.   NO:
#==================================================================
~Well
STRT .m      0.0000000000 :
STOP .m      1206.7032000 :
STEP .m     0.15240000 :
NULL .        -999.250000 :
COMP.           : COMPANY
WELL.  NELSON #9-16   : WELL
FLD.            : FIELD
LOC.            : LOCATION
SRVC.           : SERVICE COMPANY
DATE.  2020-08-25 09:56:37   : Log Export Date {yyyy-MM-dd HH:mm:ss}
PROV.           : PROVINCE
UWI.   NELSON #9-16   : UNIQUE WELL ID
API.            : API NUMBER
#==================================================================
~Curve
DEPT .m                   : DEPTH
FACIES ._                 : FACIES
GR .gAPI                  : GR
NPHI .m3/m3               : NPHI
RHOB .g/cm3               : RHOB
RM .ohm.m                 : RM
RT .ohm.m                 : RT
~Parameter
#==================================================================
~Ascii
# ...
 1034.1864000 7.0000000000 73.939201355 0.2196370065 2.5181000233 3.1633000374 3.0948998928
 1034.3388000 7.0000000000 50.731800079 0.1958229989 2.5593998432 3.5868000984 3.2562000751
 1034.4912000 7.0000000000 38.097400665 0.1686860025 2.5823998451 3.9651000500 3.4944999218
 1034.6436000 7.0000000000 36.152000427 0.1439789981 2.5911002159 4.3292999268 3.9012999535
 1034.7960000 7.0000000000 38.609401703 0.1250209957 2.5986001492 4.7688999176 4.4742999077
 1034.9484000 7.0000000000 39.513401031 0.1126950011 2.6093997955 5.3085999489 5.0703001022
 1035.1008000 7.0000000000 38.480598450 0.1065820009 2.6196999550 5.9131999016 5.5043997765
 1035.2532000 7.0000000000 38.103298187 0.1057770029 2.6253998280 6.4931001663 5.6719999313
 1035.4056000 7.0000000000 39.789100647 0.1090430021 2.6246001720 6.8558998108 5.6367998123
 1035.5580000 7.0000000000 43.863800049 0.1147999987 2.6182999611 6.8134999275 5.4917001724
 1035.7104000 7.0000000000 50.115299225 0.1213589981 2.6056001186 6.3220000267 5.3274998665
 1035.8628000 7.0000000000 55.038200378 0.1271660030 2.5834999084 5.5529999733 5.1715998650
 1036.0152000 7.0000000000 56.077400208 0.1306679994 2.5583000183 4.8102002144 5.0932002068
 1036.1676000 7.0000000000 55.359199524 0.1301890016 2.5453000069 4.3913998604 5.2097997665
 1036.3200000 7.0000000000 57.500400543 0.1242299974 2.5534999371 4.4861998558 5.5072999001
 1036.4724000 7.0000000000 58.223899841 0.1123490036 2.5783998966 5.1862001419 5.8245000839
 1036.6248000 7.0000000000 48.672901154 0.0959149972 2.6078999043 6.4833998680 6.1923999786
 1036.7772000 7.0000000000 34.743499756 0.0779339969 2.6326999664 8.2218999863 6.7428002357
 1036.9296000 7.0000000000 26.325199127 0.0617780015 2.6512000561 10.517900467 7.6083998680
 1037.0820000 7.0000000000 24.439199448 0.0497200005 2.6631000042 13.972700119 9.0215997696
 1037.2344000 7.0000000000 25.220500946 0.0423349999 2.6661000252 18.131799698 10.558099747
 1037.3868000 7.0000000000 27.400899887 0.0391479991 2.6605000496 18.834400177 11.095100403
 1037.5392000 7.0000000000 30.934900284 0.0396209992 2.6480000019 14.692000389 10.432600021
 1037.6916000 7.0000000000 37.119998932 0.0434480011 2.6286001205 10.490799904 9.5600004196
 1037.8440000 7.0000000000 48.588699341 0.0499989986 2.6040000916 8.1970996857 9.0029001236
 1037.9964000 7.0000000000 59.795501709 0.0578109995 2.5838000774 7.3912000656 8.7433004379
 1038.1488000 7.0000000000 60.746700287 0.0648979992 2.5769999027 7.4140000343 8.5425996780
 1038.3012000 7.0000000000 52.646198273 0.0697270036 2.5769000053 7.8186001778 8.2646999359
 1038.4536000 7.0000000000 44.094898224 0.0719200000 2.5718998909 8.3696002960 8.0504999161
 1038.6060000 7.0000000000 38.851600647 0.0721279979 2.5643000603 9.0485000610 8.3159999847
 1038.7584000 7.0000000000 37.369400024 0.0713180006 2.5622000694 9.9282999039 9.2193002701
 1038.9108000 7.0000000000 38.667400360 0.0701730028 2.5661001205 10.897100449 10.369000435
 1039.0632000 7.0000000000 40.637199402 0.0689290017 2.5741000175 11.665699959 11.371899605
 1039.2156000 7.0000000000 42.565601349 0.0675859973 2.5873000622 12.037799835 11.816800117
 1039.3680000 7.0000000000 45.553501129 0.0662529990 2.6029999256 12.015999794 11.548100471
 1039.5204000 7.0000000000 50.365898132 0.0654070005 2.6145000458 11.706199646 11.102899551
 1039.6728000 7.0000000000 55.750900269 0.0659769997 2.6218998432 11.291399956 10.921799660
 1039.8252000 7.0000000000 54.732200623 0.0689280033 2.6288001537 10.935799599 10.955400467
 1039.9776000 7.0000000000 48.796199799 0.0744739994 2.6336998940 10.686300278 11.095299721
 1040.1300000 7.0000000000 45.588901520 0.0815370008 2.6335000992 10.510700226 11.243499756
 1040.2824000 7.0000000000 45.757400513 0.0881630033 2.6282999516 10.384599686 11.215800285
 1040.4348000 7.0000000000 45.061298370 0.0927959979 2.6231999397 10.277700424 11.086199760
 1040.5872000 7.0000000000 43.164501190 0.0953399986 2.6240000725 10.123600006 11.034299850
 1040.7396000 7.0000000000 45.739799500 0.0969809964 2.6294999123 9.9920997620 11.265800476
 1040.8920000 7.0000000000 52.046699524 0.0990170017 2.6338000298 10.115099907 11.744000435
 1041.0444000 7.0000000000 52.682098389 0.1018470004 2.6329998970 10.619500160 12.260199547
 1041.1968000 7.0000000000 46.695598602 0.1049209982 2.6282999516 11.344900131 12.689100266
 1041.3492000  -999.250000 41.810600281 0.1073750034 2.6238999367 12.042400360 13.141500473
 1041.5016000  -999.250000 43.244899750 0.1087070033 2.6229000092 12.861399651 13.576899529
 1041.6540000  -999.250000 49.734199524 0.1092140004 2.6254999638 13.955699921 13.480600357
 1041.8064000  -999.250000 54.145801544 0.1102309972 2.6289999485 14.268300056 12.363499641
 1041.9588000  -999.250000 54.792301178 0.1139319986 2.6303999424 12.062100410 10.233300209
 1042.1112000  -999.250000 56.618198395 0.1225190014 2.6226000786 8.6819000244 8.0523996353
 1042.2636000  -999.250000 64.369598389 0.1369539946 2.5948998928 6.2567000389 6.6875000000
 1042.4160000  -999.250000 80.220397949 0.1559949964 2.5511000156 4.9173998833 5.8815999031
 1042.5684000  -999.250000 98.502601624 0.1764950007 2.5114998817 4.2635998726 5.2119002342
 1042.7208000  -999.250000 104.94439697 0.1949539930 2.4913001060 3.9451000690 4.5715999603
 1042.8732000  -999.250000 98.823799133 0.2093880028 2.4886000156 3.7012000084 3.9916000366
 1043.0256000  -999.250000 93.129501343 0.2201769948 2.4901001453 3.4331998825 3.5095000267
 1043.1780000  -999.250000 92.305603027 0.2288810015 2.4846999645 3.1689999104 3.2219998837
 1043.3304000  -999.250000 96.379699707 0.2359549999 2.4719998837 2.9723999500 3.1226999760
 1043.4828000  -999.250000 103.45639801 0.2391619980 2.4611999989 2.8703000546 3.1235001087
 1043.6352000  -999.250000 108.35559845 0.2342710048 2.4606001377 2.8513000011 3.1833999157
 1043.7876000  -999.250000 108.02960205 0.2178460062 2.4695000648 2.8984999657 3.3203001022
 1043.9400000  -999.250000 104.66719818 0.1901679933 2.4849998951 3.0469999313 3.5208001137
 1044.0924000  -999.250000 99.404899597 0.1560820043 2.5111000538 3.3989999294 3.7797000408
 1044.2448000  -999.250000 85.825103760 0.1230190024 2.5498001575 4.0356998444 4.1275000572
 1044.3972000  -999.250000 61.597698212 0.0974629968 2.5875000954 4.8961000443 4.5837001801
 1044.5496000  -999.250000 44.045299530 0.0822239965 2.6068000793 5.8211998940 5.1655998230
 1044.7020000  -999.250000 38.620899200 0.0761549994 2.6092000008 6.8417000771 6.0103001595
 1044.8544000  -999.250000 38.232498169 0.0760309994 2.6098999977 8.2389001846 7.1904001236
 1045.0068000  -999.250000 39.255298615 0.0789230019 2.6161000729 10.109499931 8.3276996613
 1045.1592000  -999.250000 39.567100525 0.0835760012 2.6212999821 11.788100243 8.9579000473
 1045.3116000  -999.250000 41.677898407 0.0904079974 2.6191000938 12.176699638 8.8739004135
 1045.4640000  -999.250000 47.323001862 0.1006729975 2.6119999886 11.048800468 7.9955000877
 1045.6164000  -999.250000 52.729598999 0.1153540015 2.6023998260 8.9533996582 6.8583998680
 1045.7688000  -999.250000 56.952201843 0.1341650039 2.5834999084 6.7059001923 5.8362998962
 1045.9212000  -999.250000 68.508903503 0.1549160033 2.5513999462 4.9994997978 5.1370000839
 1046.0736000  -999.250000 97.877899170 0.1734900028 2.5181000233 4.0043001175 4.8600001335
 1046.2260000  -999.250000 145.18640137 0.1849559993 2.5033998489 3.6526999474 4.9477000237
 1046.3784000  -999.250000 186.43099976 0.1853850037 2.5209999084 3.8749001026 5.1329002380
 1046.5308000  -999.250000 183.20239258 0.1737570018 2.5673000813 4.6020002365 5.2590999603
 1046.6832000  -999.250000 133.32679749 0.1526480019 2.6182000637 5.6401000023 5.4039001465
 1046.8356000  -999.250000 81.839302063 0.1271789968 2.6468000412 6.8097000122 5.8043999672
 1046.9880000  -999.250000 59.094699860 0.1028240025 2.6512999535 8.4624996185 6.8222999573
 1047.1404000  -999.250000 55.338199615 0.0834179968 2.6511001587 11.457200050 8.9217996597
 1047.2928000  -999.250000 53.126399994 0.0704519972 2.6600999832 16.343500137 12.077699661
