# LAS format log file from PETREL
# Project units are specified as depth units
#==================================================================
~Version information
VERS.   2.0:
WRAP.   NO:
#==================================================================
~Well
STRT .m      0.0000000000 :
STOP .m      1178.3568000 :
STEP .m     0.15240000 :
NULL .        -999.250000 :
COMP.           : COMPANY
WELL.  NELSON #6-16   : WELL
FLD.            : FIELD
LOC.            : LOCATION
SRVC.           : SERVICE COMPANY
DATE.  2020-08-19 21:46:58   : Log Export Date {yyyy-MM-dd HH:mm:ss}
PROV.           : PROVINCE
UWI.   NELSON #6-16   : UNIQUE WELL ID
API.            : API NUMBER
#==================================================================
~Curve
DEPT .m                   : DEPTH
GR .gAPI                  : GR
NPHI .m3/m3               : NPHI
RHOB .g/cm3               : RHOB
RM .ohm.m                 : RM
RT .ohm.m                 : RT
FACIES ._                 : FACIES
~Parameter
#==================================================================
~Ascii
# ...
 172.36440000 102.32499695 0.7192639709  -999.250000 2.7277998924 2.6900999546  -999.250000
 172.51680000 91.397399902 0.7265620232  -999.250000 2.7781999111 2.7723999023  -999.250000
 172.66920000 85.039497375 0.7371529937  -999.250000 2.7655000687 2.8322999477  -999.250000
 172.82160000 88.569297791 0.7441059947  -999.250000 2.7344999313 2.8880000114  -999.250000
 172.97400000 86.373497009 0.7416769862  -999.250000 2.7693998814 2.9537000656  -999.250000
 173.12640000 84.951400757 0.7303619981  -999.250000 2.8893001080 3.0383000374  -999.250000
 173.27880000 81.239700317 0.7144569755  -999.250000 3.0504999161 3.1159000397  -999.250000
 173.43120000 78.635200500 0.6952540278  -999.250000 3.1958000660 3.1926000118  -999.250000
 173.58360000 74.614700317 0.6720749736  -999.250000 3.3078999519 3.3227000237  -999.250000
 173.73600000 69.589698792 0.6468409896  -999.250000 3.4932000637 3.4979000092  -999.250000
 173.88840000 73.708999634 0.6242190003  -999.250000 3.8076999187 3.6665000916  -999.250000
 174.04080000 80.554100037 0.6134809852  -999.250000 4.0854997635 3.8252000809  -999.250000
 174.19320000 81.218299866 0.6237660050  -999.250000 4.1571998596 3.9230999947  -999.250000
 174.34560000 79.026603699 0.6508399844  -999.250000 4.0654001236 3.9790999889  -999.250000
 174.49800000 79.260597229 0.6782349944  -999.250000 3.9344000816 4.0615000725  -999.250000
 174.65040000 84.410301208 0.6905369759  -999.250000 3.8519999981 4.1605000496  -999.250000
 174.80280000 88.844596863 0.6807780266  -999.250000 3.8759999275 4.2210998535  -999.250000
 174.95520000 86.829803467 0.6537669897  -999.250000 4.0047998428 4.2576999664  -999.250000
 175.10760000 79.867797852 0.6244559884  -999.250000 4.1736001968 4.2908000946  -999.250000
 175.26000000 82.613601685 0.6067919731  -999.250000 4.3077001572 4.3127999306  -999.250000
 175.41240000 95.078002930 0.6057749987  -999.250000 4.4342999458 4.3914999962  -999.250000
 175.56480000 96.349403381 0.6196320057  -999.250000 4.6015000343 4.5604000092  -999.250000
 175.71720000 90.764099121 0.6420739889  -999.250000 4.8001999855 4.7701001167  -999.250000
 175.86960000 93.737098694 0.6633639932  -999.250000 4.9460000992 4.9981999397  -999.250000
 176.02200000 101.98729706 0.6752430201  -999.250000 5.0402002335 5.2465000153  -999.250000
 176.17440000 115.13780212 0.6754270196  -999.250000 5.2087001801 5.4471001625  -999.250000
 176.32680000 119.99299622 0.6671289802  -999.250000 5.4236001968 5.5423998833  -999.250000
 176.47920000 104.11489868 0.6563529968  -999.250000 5.4963998795 5.5736999512  -999.250000
 176.63160000 93.356697083 0.6494889855  -999.250000 5.3576998711 5.5550999641  -999.250000
 176.78400000 98.262397766 0.6508799791  -999.250000 5.2070999146 5.4974999428  -999.250000
 176.93640000 103.15820313 0.6604620218  -999.250000 5.1277999878 5.4211997986  -999.250000
 177.08880000 98.684097290 0.6725789905  -999.250000 4.9876999855 5.3166999817  -999.250000
 177.24120000 97.236801147 0.6777799726  -999.250000 4.7582998276 5.1999001503  -999.250000
 177.39360000 96.333099365 0.6687759757  -999.250000 4.5968999863 5.0736999512  -999.250000
 177.54600000 95.578796387 0.6488540173  -999.250000 4.6093997955 4.9538002014  -999.250000
 177.69840000 92.962303162 0.6329190135  -999.250000 4.6961998940 4.8013000488  -999.250000
 177.85080000 100.68150330 0.6347000003  -999.250000 4.6424999237 4.6001000404  -999.250000
 178.00320000 104.63009644 0.6542739868  -999.250000 4.4050998688 4.4362001419  -999.250000
 178.15560000 94.388702393 0.6785669923  -999.250000 4.1399998665 4.3571000099  -999.250000
 178.30800000 95.277099609 0.6920750141  -999.250000 4.0106000900 4.3256001472  -999.250000
 178.46040000 100.44629669 0.6906639934  -999.250000 3.9969999790 4.3179001808  -999.250000
 178.61280000 101.71340179 0.6849910021  -999.250000 4.0159001350 4.3078999519  -999.250000
 178.76520000 107.97070313 0.6879289746  -999.250000 4.0258002281 4.2539000511  -999.250000
 178.91760000 105.26149750 0.7018560171  -999.250000 3.9684000015 4.2062997818  -999.250000
 179.07000000 94.326202393 0.7176290154  -999.250000 3.8485999107 4.2632999420  -999.250000
 179.22240000 88.309097290 0.7187100053  -999.250000 3.8380000591 4.4394001961  -999.250000
 179.37480000 89.192703247 0.6886889935  -999.250000 4.0741000175 4.7740001678  -999.250000
 179.52720000 93.828201294 0.6250619888  -999.250000 4.5788002014 5.2856998444  -999.250000
 179.67960000 95.464202881 0.5460129976  -999.250000 5.3052000999 5.8772997856  -999.250000
 179.83200000 87.044296265 0.4797010124  -999.250000 6.0668997765 6.4765000343  -999.250000
 179.98440000 75.350997925 0.4481639862  -999.250000 6.6252999306 7.1644001007  -999.250000
 180.13680000 64.168197632 0.4591380060  -999.250000 6.9019999504 7.9663000107  -999.250000
 180.28920000 60.394901276 0.5082640052  -999.250000 6.8983998299 8.6152000427  -999.250000
 180.44160000 70.082603455 0.5853009820  -999.250000 6.6318998337 8.7818002701  -999.250000
 180.59400000 79.950996399 0.6771849990  -999.250000 6.0160999298 8.3004999161  -999.250000
 180.74640000 85.531402588 0.7670980096  -999.250000 5.1132998466 7.4703998566  -999.250000
 180.89880000 85.396301270 0.8291450143  -999.250000 4.2396001816 6.7494997978  -999.250000
 181.05120000 90.531600952 0.8338230252  -999.250000 3.6296000481 6.4032998085  -999.250000
 181.20360000 84.652000427 0.7727220058  -999.250000 3.4052999020 6.3699998856  -999.250000
 181.35600000 68.441802979 0.6699280143  -999.250000 3.5892000198 5.9945998192  -999.250000
 181.50840000 60.230201721 0.5652750134  -999.250000 3.8773999214 5.2051000595  -999.250000
 181.66080000 65.078399658 0.4927709997  -999.250000 3.6949999332 4.5016999245  -999.250000
 181.81320000 65.418098450 0.4648829997  -999.250000 3.1661999226 4.0914001465  -999.250000
 181.96560000 53.538101196 0.4697940052  -999.250000 2.7657999992 4.0521001816  -999.250000
 182.11800000 49.125598907 0.4866729975  -999.250000 2.6157000065 4.4383001328  -999.250000
 182.27040000 54.411201477 0.5007690191  -999.250000 2.7102000713 5.0925998688  -999.250000
 182.42280000 57.978401184 0.5049980283  -999.250000 3.0841999054 5.6996998787  -999.250000
 182.57520000 67.869598389 0.4958370030  -999.250000 3.8378999233 6.1237998009  -999.250000
 182.72760000 90.211097717 0.4730060101  -999.250000 5.0128002167 6.5769000053  -999.250000
 182.88000000 99.853202820 0.4408259988  -999.250000 6.5908999443 7.4404997826  -999.250000
 183.03240000 90.097602844 0.4065620005  -999.250000 8.7239999771 9.3430004120  -999.250000
 183.18480000 76.195701599 0.3770050108  -999.250000 11.871700287 13.328200340  -999.250000
 183.33720000 72.828300476 0.3555009961  -999.250000 16.286800385 20.097600937  -999.250000
 183.48960000 71.453598022 0.3417200148  -999.250000 20.806999207 26.934600830  -999.250000
 183.64200000 74.865798950 0.3344950080  -999.250000 23.108600616 29.417400360  -999.250000
 183.79440000 84.779701233 0.3331620097  -999.250000 23.469299316 27.724000931  -999.250000
 183.94680000 91.852699280 0.3357740045  -999.250000 23.019100189 24.812999725  -999.250000
 184.09920000 88.901397705 0.3391590118  -999.250000 21.714399338 23.093399048  -999.250000
 184.25160000 88.449501038 0.3414399922  -999.250000 20.215400696 22.671300888  -999.250000
 184.40400000 91.606498718 0.3426760137  -999.250000 19.193300247 22.971000671  -999.250000
 184.55640000 96.118499756 0.3442260027  -999.250000 18.730499268 23.452499390  -999.250000
 184.70880000 102.77929688 0.3478510082  -999.250000 18.783399582 23.582799911  -999.250000
 184.86120000 103.11450195 0.3537319899  -999.250000 18.861000061 23.089500427  -999.250000
 185.01360000 89.781501770 0.3596729934  -999.250000 18.215099335 21.977100372  -999.250000
 185.16600000 80.997200012 0.3635950089  -999.250000 17.208900452 20.693500519  -999.250000
 185.31840000 86.045196533 0.3668000102  -999.250000 16.206600189 19.520299911  -999.250000
 185.47080000 93.016197205 0.3733470142  -999.250000 15.163200378 18.633600235  -999.250000
