# LAS format log file from PETREL
# Project units are specified as depth units
#==================================================================
~Version information
VERS.   2.0:
WRAP.   NO:
#==================================================================
~Well
STRT .m      0.0000000000 :
STOP .m      1178.3568000 :
STEP .m     0.15240000 :
NULL .        -999.250000 :
COMP.           : COMPANY
WELL.  NELSON #6-16   : WELL
FLD.            : FIELD
LOC.            : LOCATION
SRVC.           : SERVICE COMPANY
DATE.  2020-08-19 21:46:58   : Log Export Date {yyyy-MM-dd HH:mm:ss}
PROV.           : PROVINCE
UWI.   NELSON #6-16   : UNIQUE WELL ID
API.            : API NUMBER
#==================================================================
~Curve
DEPT .m                   : DEPTH
GR .gAPI                  : GR
NPHI .m3/m3               : NPHI
RHOB .g/cm3               : RHOB
RM .ohm.m                 : RM
RT .ohm.m                 : RT
FACIES ._                 : FACIES
~Parameter
#==================================================================
~Ascii
# ...
 1166.7744000 4.8750000000 0.1946070045 2.5018999577 8.2769002914 8.6682996750  -999.250000
 1166.9268000 0.2946999967 0.2026710063 2.4886999130 8.0412998199 8.4854001999  -999.250000
 1167.0792000 0.0048000002 0.2079350054 2.4883000851 7.8544001579 8.2755002975  -999.250000
 1167.2316000  -999.250000 0.2118189931 2.4986000061 7.6282000542 8.0801000595  -999.250000
 1167.3840000  -999.250000 0.2159720063 2.5073997974 7.3856000900 7.9422998428  -999.250000
 1167.5364000  -999.250000 0.2215110064 2.5091001987 7.2288999557 7.8696999550  -999.250000
 1167.6888000  -999.250000 0.2284439951 2.5093998909 7.1568999290 7.8365998268  -999.250000
 1167.8412000  -999.250000 0.2358130068 2.5132999420 7.1434001923 7.7727999687  -999.250000
 1167.9936000  -999.250000 0.2424239963 2.5206000805 7.1441001892 7.6708002090  -999.250000
 1168.1460000  -999.250000 0.2470680028 2.5376000404 7.1100997925 7.5489001274  -999.250000
 1168.2984000  -999.250000 0.2492379993 2.5633001328 7.0096001625 7.4189000130  -999.250000
 1168.4508000  -999.250000 0.2512460053 2.5822999477 6.8716001511 7.2225999832  -999.250000
 1168.6032000  -999.250000 0.2579089999 2.5858998299 6.7425999641 6.8705000877  -999.250000
 1168.7556000  -999.250000 0.2723259926 2.5783998966 6.4314999580 6.4485998154  -999.250000
 1168.9080000  -999.250000 0.2935859859 2.5773000717 5.8698000908 6.0322999954  -999.250000
 1169.0604000  -999.250000 0.3174520135 2.5938000679 5.3364000320 5.6602997780  -999.250000
 1169.2128000  -999.250000 0.3376989961 2.6113998890 4.9854001999 5.3685998917  -999.250000
 1169.3652000  -999.250000 0.3497180045 2.6216001511 4.7674999237 5.1262001991  -999.250000
 1169.5176000  -999.250000 0.3537369967 2.6298999786 4.5935997963 4.8421998024  -999.250000
 1169.6700000  -999.250000 0.3535490036 2.6303000450 4.3954000473 4.6031999588  -999.250000
 1169.8224000  -999.250000 0.3525719941 2.6238999367 4.2375001907 4.4433999062  -999.250000
 1169.9748000  -999.250000 0.3509750068 2.6158998013 4.1585001945 4.3035998344  -999.250000
 1170.1272000  -999.250000 0.3472340107 2.6111998558 4.0950999260 4.1905999184  -999.250000
 1170.2796000  -999.250000 0.3422990143 2.6171000004 4.0233001709 4.1238999367  -999.250000
 1170.4320000  -999.250000 0.3384760022 2.6686999798 3.9811999798 4.0865001678  -999.250000
 1170.5844000  -999.250000 0.3335399926 2.8581998348 3.9739000797 4.0855998993  -999.250000
 1170.7368000  -999.250000 0.3215030134 3.1926999092 4.0093998909 4.1268000603  -999.250000
 1170.8892000  -999.250000 0.3019909859 3.0433001518 4.1451997757 4.1581001282  -999.250000
 1171.0416000  -999.250000 0.2842560112 1.3985999823 4.3968000412 4.1760997772  -999.250000
 1171.1940000  -999.250000 0.2792739868 0.1741999984 4.5953001976 4.1904997826  -999.250000
 1171.3464000  -999.250000 0.2910529971 0.0044000000 4.5419001579 4.2312998772  -999.250000
 1171.4988000  -999.250000 0.3151870072 0.0000000000 4.3888001442 4.2916998863  -999.250000
 1171.6512000  -999.250000 0.3427689970  -999.250000 4.3257999420 4.3537001610  -999.250000
 1171.8036000  -999.250000 0.3655579984  -999.250000 4.3060998917 4.4208002090  -999.250000
 1171.9560000  -999.250000 0.3749909997  -999.250000 4.2178997993 4.4828000069  -999.250000
 1172.1084000  -999.250000 0.3582189977  -999.250000 4.1326999664 4.5714001656  -999.250000
 1172.2608000  -999.250000 0.3057630062  -999.250000 4.2286000252 4.8452000618  -999.250000
 1172.4132000  -999.250000 0.2242799997  -999.250000 4.7245001793 5.3282999992  -999.250000
 1172.5656000  -999.250000 0.1360390037  -999.250000 5.8034000397 5.7862000465  -999.250000
 1172.7180000  -999.250000 0.0664199963  -999.250000 7.4411997795 6.4467000961  -999.250000
 1172.8704000  -999.250000 0.0298769996  -999.250000 9.6309995651 8.0143003464  -999.250000
 1173.0228000  -999.250000 0.0240560006  -999.250000 12.896499634 9.1436996460  -999.250000
 1173.1752000  -999.250000 0.0368440002  -999.250000 17.376800537 9.4216995239  -999.250000
 1173.3276000  -999.250000 0.0559469983  -999.250000 22.448499680 9.5537004471  -999.250000
 1173.4800000  -999.250000 0.0719100013  -999.250000 27.644800186 9.6468000412  -999.250000
 1173.6324000  -999.250000 0.0793780014  -999.250000 32.511798859 9.8278999329  -999.250000
 1173.7848000  -999.250000 0.0793550014  -999.250000 33.856899261 10.282500267  -999.250000
 1173.9372000  -999.250000 0.0768740028  -999.250000 31.111700058 10.597900391  -999.250000
 1174.0896000  -999.250000 0.0752850026  -999.250000 30.054399490 10.651000023  -999.250000
 1174.2420000  -999.250000 0.0746909976  -999.250000 30.656700134 10.605999947  -999.250000
 1174.3944000  -999.250000 0.0742629990  -999.250000 31.231100082 10.721099854  -999.250000
 1174.5468000  -999.250000 0.0736080036  -999.250000 31.442600250 12.676199913  -999.250000
 1174.6992000  -999.250000 0.0728669986  -999.250000 31.703199387 29.443799973  -999.250000
 1174.8516000  -999.250000 0.0726749972  -999.250000 31.937099457 192.68870544  -999.250000
 1175.0040000  -999.250000 0.0731950030  -999.250000 32.139400482 704.96191406  -999.250000
 1175.1564000  -999.250000 0.0722120032  -999.250000 32.645698547 197.47549438  -999.250000
 1175.3088000  -999.250000 0.0619819984  -999.250000 32.776298523 199.65420532  -999.250000
 1175.4612000  -999.250000 0.0260329992  -999.250000 33.037700653 236.97940063  -999.250000
 1175.6136000  -999.250000 -0.051123001  -999.250000 40.897998810 590.31982422  -999.250000
 1175.7660000  -999.250000 -0.157870993  -999.250000 186.36909485 100000.00000  -999.250000
 1175.9184000  -999.250000 -0.253672004  -999.250000 100000.00000 100000.00000  -999.250000
 1176.0708000  -999.250000 -0.309473008  -999.250000 100000.00000 100000.00000  -999.250000
 1176.2232000  -999.250000 -0.330561012  -999.250000 1616.8054199 100000.00000  -999.250000
 1176.3756000  -999.250000 -0.335729003  -999.250000 1618.8469238 100000.00000  -999.250000
 1176.5280000  -999.250000 -0.336549014  -999.250000 1620.1256104 100000.00000  -999.250000
 1176.6804000  -999.250000  -999.250000  -999.250000 1636.1157227 100000.00000  -999.250000
 1176.8328000  -999.250000  -999.250000  -999.250000 1640.7409668 100000.00000  -999.250000
 1176.9852000  -999.250000  -999.250000  -999.250000 1657.4715576 100000.00000  -999.250000
 1177.1376000  -999.250000  -999.250000  -999.250000 2063.0019531  -999.250000  -999.250000
 1177.2900000  -999.250000  -999.250000  -999.250000 10313.537109  -999.250000  -999.250000
 1177.4424000  -999.250000  -999.250000  -999.250000 100000.00000  -999.250000  -999.250000
 1177.5948000  -999.250000  -999.250000  -999.250000 100000.00000  -999.250000  -999.250000
 1177.7472000  -999.250000  -999.250000  -999.250000 100000.00000  -999.250000  -999.250000
 1177.8996000  -999.250000  -999.250000  -999.250000 100000.00000  -999.250000  -999.250000
 1178.0520000  -999.250000  -999.250000  -999.250000 100000.00000  -999.250000  -999.250000
 1178.2044000  -999.250000  -999.250000  -999.250000 100000.00000  -999.250000  -999.250000
 1178.3568000  -999.250000  -999.250000  -999.250000 100000.00000  -999.250000  -999.250000
