# LAS format log file from PETREL
# Project units are specified as depth units
#==================================================================
~Version information
VERS.   2.0:
WRAP.   NO:
#==================================================================
~Well
STRT .m      0.0000000000 :
STOP .m      1178.3568000 :
STEP .m     0.15240000 :
NULL .        -999.250000 :
COMP.           : COMPANY
WELL.  NELSON #6-16   : WELL
FLD.            : FIELD
LOC.            : LOCATION
SRVC.           : SERVICE COMPANY
DATE.  2020-08-19 21:46:58   : Log Export Date {yyyy-MM-dd HH:mm:ss}
PROV.           : PROVINCE
UWI.   NELSON #6-16   : UNIQUE WELL ID
API.            : API NUMBER
#==================================================================
~Curve
DEPT .m                   : DEPTH
GR .gAPI                  : GR
NPHI .m3/m3               : NPHI
RHOB .g/cm3               : RHOB
RM .ohm.m                 : RM
RT .ohm.m                 : RT
FACIES ._                 : FACIES
~Parameter
#==================================================================
~Ascii
# ...
 941.37480000 110.75659943 0.4866499901  -999.250000 1.2079000473 1.1512999535  -999.250000
 941.52720000 106.43489838 0.4871059954  -999.250000 1.1928999424 1.1282000542  -999.250000
 941.67960000 111.08570099 0.4858660102  -999.250000 1.1883000135 1.1144000292  -999.250000
 941.83200000 114.86630249 0.4858959913  -999.250000 1.1850999594 1.1002000570  -999.250000
 941.98440000 113.17009735 0.4891450107  -999.250000 1.1755000353 1.0785000324  -999.250000
 942.13680000 114.67259979 0.4949069917  -999.250000 1.1549999714 1.0555000305  -999.250000
 942.28920000 119.44029999 0.5005599856  -999.250000 1.1296999454 1.0375000238  -999.250000
 942.44160000 118.47290039 0.5033599734  -999.250000 1.1107000113 1.0290000439  -999.250000
 942.59400000 114.53260040 0.5008149743  -999.250000 1.1035000086 1.0333000422  -999.250000
 942.74640000 113.85559845 0.4889729917  -999.250000 1.1117000580 1.0551999807  -999.250000
 942.89880000 115.05039978 0.4622130096  -999.250000 1.1440000534 1.1080000401  -999.250000
 943.05120000 123.36430359 0.4173620045  -999.250000 1.2299000025 1.1996999979  -999.250000
 943.20360000 129.71600342 0.3588190079  -999.250000 1.4194999933 1.3229999542  -999.250000
 943.35600000 111.15299988 0.2990359962  -999.250000 1.7318999767 1.4701999426  -999.250000
 943.50840000 86.385200500 0.2529410124  -999.250000 2.1019001007 1.6481000185  -999.250000
 943.66080000 62.748001099 0.2294300050  -999.250000 2.4342000484 1.8717000484  -999.250000
 943.81320000 52.662700653 0.2257039994  -999.250000 2.7281999588 2.1645998955  -999.250000
 943.96560000 61.752498627 0.2300720066  -999.250000 3.0041000843 2.5627000332  -999.250000
 944.11800000 75.543701172 0.2311639935  -999.250000 3.2341001034 3.0399999619  -999.250000
 944.27040000 85.814300537 0.2238730043  -999.250000 3.4927000999 3.4784998894  -999.250000
 944.42280000 81.919296265 0.2080570012  -999.250000 3.8557999134 3.7908000946  -999.250000
 944.57520000 66.775703430 0.1859219968  -999.250000 4.2196002007 4.0156002045  -999.250000
 944.72760000 60.028499603 0.1605989933  -999.250000 4.5633001328 4.2150001526  -999.250000
 944.88000000 60.210399628 0.1346620023  -999.250000 5.0694999695 4.5327000618  -999.250000
 945.03240000 52.089698792 0.1112120003  -999.250000 5.9277000427 5.0359997749  -999.250000
 945.18480000 46.160701752 0.0952040032  -999.250000 7.0542998314 5.5422000885  -999.250000
 945.33720000 37.016700745 0.0914589986  -999.250000 7.8765997887 5.7477002144  -999.250000
 945.48960000 29.244499207 0.1026460007  -999.250000 7.6757001877 5.5711998940  -999.250000
 945.64200000 32.408000946 0.1283120066  -999.250000 6.5485000610 5.0328001976  -999.250000
 945.79440000 49.352901459 0.1643369943  -999.250000 5.0454001427 4.3949999809  -999.250000
 945.94680000 72.114997864 0.2034109980  -999.250000 3.8122999668 3.8754999638  -999.250000
 946.09920000 90.695999146 0.2361730039  -999.250000 3.0725998878 3.5285999775  -999.250000
 946.25160000 103.83170319 0.2536660135  -999.250000 2.7365999222 3.3125998974  -999.250000
 946.40400000 107.88069916 0.2507520020  -999.250000 2.6693000793 3.1949000359  -999.250000
 946.55640000 102.01159668 0.2284950018  -999.250000 2.7923998833 3.1486999989  -999.250000
 946.70880000 98.596000671 0.1944819987  -999.250000 3.0908999443 3.1768000126  -999.250000
 946.86120000 85.743400574 0.1603990048  -999.250000 3.5789999962 3.2976000309  -999.250000
 947.01360000 60.524101257 0.1379269958  -999.250000 4.1708998680 3.5311000347  -999.250000
 947.16600000 49.721298218 0.1339689940  -999.250000 4.6627998352 3.8571999073  -999.250000
 947.31840000 53.055900574 0.1460659951  -999.250000 4.8786997795 4.2576999664  -999.250000
 947.47080000 61.501800537 0.1630720049  -999.250000 4.8440999985 4.7252998352  -999.250000
 947.62320000 74.900398254 0.1725240052  -999.250000 4.7699999809 5.1968002319  -999.250000
 947.77560000 90.185501099 0.1682280004  -999.250000 4.8474001884 5.5131001472  -999.250000
 947.92800000 86.142700195 0.1526020020  -999.250000 5.0430998802 5.5707998276  -999.250000
 948.08040000 66.329696655 0.1334030032  -999.250000 5.2409000397 5.4384999275  -999.250000
 948.23280000 63.509498596 0.1179720014  -999.250000 5.3626999855 5.2037000656  -999.250000
 948.38520000 62.343200684 0.1095319986  -999.250000 5.4229001999 4.9505000114  -999.250000
 948.53760000 56.106201172 0.1073580012  -999.250000 5.3157000542 4.7319002151  -999.250000
 948.69000000 50.269500732 0.1087229997  -999.250000 4.9713997841 4.5395002365  -999.250000
 948.84240000 44.691200256 0.1110609993  -999.250000 4.5227999687 4.3158998489  -999.250000
 948.99480000 40.480400085 0.1142299995  -999.250000 4.1237998009 4.0206999779  -999.250000
 949.14720000 36.889900208 0.1215730011  -999.250000 3.7943999767 3.6408998966  -999.250000
 949.29960000 37.961498260 0.1379549950  -999.250000 3.4354999065 3.2170999050  -999.250000
 949.45200000 41.398101807 0.1650020033  -999.250000 3.0072999001 2.8103001118  -999.250000
 949.60440000 45.835800171 0.1973209977  -999.250000 2.5697000027 2.4563999176  -999.250000
 949.75680000 72.237899780 0.2239170074  -999.250000 2.2074999809 2.1705999374  -999.250000
 949.90920000 101.52269745 0.2348590046  -999.250000 1.9342999458 1.9586000443  -999.250000
 950.06160000 98.058898926 0.2276819944  -999.250000 1.7345999479 1.8158999681  -999.250000
 950.21400000 78.660797119 0.2079640031  -999.250000 1.5937999487 1.7539000511  -999.250000
 950.36640000 58.922401428 0.1856999993  -999.250000 1.5378999710 1.7777999640  -999.250000
 950.51880000 48.251300812 0.1714030057  -999.250000 1.6200000048 1.8386000395  -999.250000
 950.67120000 44.044498444 0.1732189953  -999.250000 1.8519999981 1.8813999891  -999.250000
 950.82360000 45.355998993 0.1951500028  -999.250000 2.1375000477 1.9065999985  -999.250000
 950.97600000 55.301898956 0.2351869941  -999.250000 2.3159999847 1.9500000477  -999.250000
 951.12840000 66.042098999 0.2850050032  -999.250000 2.3780000210 2.0369000435  -999.250000
 951.28080000 85.218803406 0.3335590065  -999.250000 2.3868000507 2.1470000744  -999.250000
 951.43320000 107.63390350 0.3721280098  -999.250000 2.3159000874 2.1819000244  -999.250000
 951.58560000 112.12750244 0.3966540098  -999.250000 2.1410999298 2.0876998901  -999.250000
 951.73800000 110.14189911 0.4065349996  -999.250000 1.9435000420 1.9351999760  -999.250000
 951.89040000 111.34490204 0.4038510025  -999.250000 1.8065999746 1.8062000275  -999.250000
 952.04280000 112.59420013 0.3936330080  -999.250000 1.7598999739 1.7201999426  -999.250000
 952.19520000 114.62689972 0.3823069930  -999.250000 1.7671999931 1.6670999527  -999.250000
 952.34760000 109.00630188 0.3753260076  -999.250000 1.7654000521 1.6359000206  -999.250000
 952.50000000 114.83239746 0.3748959899  -999.250000 1.7364000082 1.6286000013  -999.250000
 952.65240000 118.84020233 0.3779110014  -999.250000 1.7100000381 1.6548000574  -999.250000
 952.80480000 107.39910126 0.3766379952  -999.250000 1.7114000320 1.7321000099  -999.250000
 952.95720000 102.47699738 0.3641160131  -999.250000 1.7591999769 1.8775000572  -999.250000
 953.10960000 103.29039764 0.3394460082  -999.250000 1.9134999514 2.0771000385  -999.250000
 953.26200000 96.442596436 0.3066479862  -999.250000 2.2534000874 2.3008000851  -999.250000
 953.41440000 84.609397888 0.2714520097  -999.250000 2.7678999901 2.5360000134  -999.250000
 953.56680000 72.448402405 0.2394440025  -999.250000 3.3134000301 2.7850999832  -999.250000
 953.71920000 61.555099487 0.2136469930  -999.250000 3.8187999725 3.0480999947  -999.250000
 953.87160000 56.774898529 0.1958680004  -999.250000 4.3168997765 3.3171000481  -999.250000
 954.02400000 61.391101837 0.1896989942  -999.250000 4.5974998474 3.4533998966  -999.250000
 954.17640000 67.348396301 0.1969420016  -999.250000 4.2280001640 3.3173999786  -999.250000
 954.32880000 71.249198914 0.2129520029  -999.250000 3.4151000977 3.0415000916  -999.250000
 954.48120000 81.488403320 0.2292750031  -999.250000 2.7792999744 2.7564001083  -999.250000
