# LAS format log file from PETREL
# Project units are specified as depth units
#==================================================================
~Version information
VERS.   2.0:
WRAP.   NO:
#==================================================================
~Well
STRT .m      0.0000000000 :
STOP .m      1178.3568000 :
STEP .m     0.15240000 :
NULL .        -999.250000 :
COMP.           : COMPANY
WELL.  NELSON #6-16   : WELL
FLD.            : FIELD
LOC.            : LOCATION
SRVC.           : SERVICE COMPANY
DATE.  2020-08-19 21:46:58   : Log Export Date {yyyy-MM-dd HH:mm:ss}
PROV.           : PROVINCE
UWI.   NELSON #6-16   : UNIQUE WELL ID
API.            : API NUMBER
#==================================================================
~Curve
DEPT .m                   : DEPTH
GR .gAPI                  : GR
NPHI .m3/m3               : NPHI
RHOB .g/cm3               : RHOB
RM .ohm.m                 : RM
RT .ohm.m                 : RT
FACIES ._                 : FACIES
~Parameter
#==================================================================
~Ascii
# ...
 397.76400000 41.114601135 0.3840610087  -999.250000 1.3973000050 2.0069000721  -999.250000
 397.91640000 37.436901093 0.3852539957  -999.250000 1.4096000195 2.0290000439  -999.250000
 398.06880000 37.521499634 0.3869819939  -999.250000 1.4234999418 2.0592999458  -999.250000
 398.22120000 37.452598572 0.3882820010  -999.250000 1.4411000013 2.1010999680  -999.250000
 398.37360000 35.631801605 0.3886120021  -999.250000 1.4657000303 2.1449000835  -999.250000
 398.52600000 31.658800125 0.3879539967  -999.250000 1.4910999537 2.1860001087  -999.250000
 398.67840000 33.686798096 0.3867509961  -999.250000 1.5096999407 2.2256000042  -999.250000
 398.83080000 37.923999786 0.3854089975  -999.250000 1.5220999718 2.2611000538  -999.250000
 398.98320000 36.708801270 0.3839440048  -999.250000 1.5361000299 2.2915999889  -999.250000
 399.13560000 30.163600922 0.3822689950  -999.250000 1.5557999611 2.3106999397  -999.250000
 399.28800000 28.958299637 0.3806749880  -999.250000 1.5686999559 2.3027999401  -999.250000
 399.44040000 34.168098450 0.3799220026  -999.250000 1.5585999489 2.2639999390  -999.250000
 399.59280000 40.990001678 0.3807980120  -999.250000 1.5230000019 2.1956000328  -999.250000
 399.74520000 38.992698669 0.3837749958  -999.250000 1.4659999609 2.1010999680  -999.250000
 399.89760000 35.423099518 0.3890540004  -999.250000 1.3910000324 2.0032000542  -999.250000
 400.05000000 40.387699127 0.3963829875  -999.250000 1.3142999411 1.9135999680  -999.250000
 400.20240000 43.410999298 0.4046739936  -999.250000 1.2497999668 1.8272000551  -999.250000
 400.35480000 41.615501404 0.4122729897  -999.250000 1.1966999769 1.7548999786  -999.250000
 400.50720000 40.794601440 0.4177269936  -999.250000 1.1575000286 1.7070000172  -999.250000
 400.65960000 45.813800812 0.4204150140  -999.250000 1.1452000141 1.6866999865  -999.250000
 400.81200000 52.466999054 0.4208819866  -999.250000 1.1649999619 1.6986000538  -999.250000
 400.96440000 50.699699402 0.4205429852  -999.250000 1.2041000128 1.7388999462  -999.250000
 401.11680000 40.726600647 0.4207049906  -999.250000 1.2452000380 1.7893999815  -999.250000
 401.26920000 40.560600281 0.4217709899  -999.250000 1.2795000076 1.8355000019  -999.250000
 401.42160000 49.989799500 0.4233460128  -999.250000 1.3023999929 1.8777999878  -999.250000
 401.57400000 54.112201691 0.4246200025  -999.250000 1.3109999895 1.9205000401  -999.250000
 401.72640000 47.497299194 0.4246619940  -999.250000 1.3147000074 1.9623999596  -999.250000
 401.87880000 47.137798309 0.4230909944  -999.250000 1.3223999739 2.0018999577  -999.250000
 402.03120000 44.410198212 0.4205040038  -999.250000 1.3348000050 2.0302000046  -999.250000
 402.18360000 42.900600433 0.4178969860  -999.250000 1.3508000374 2.0394999981  -999.250000
 402.33600000 42.242900848 0.4158549905  -999.250000 1.3666000366 2.0439000130  -999.250000
 402.48840000 34.008800507 0.4143620133  -999.250000 1.3786000013 2.0546000004  -999.250000
 402.64080000 33.820301056 0.4130960107  -999.250000 1.3904000521 2.0717999935  -999.250000
 402.79320000 41.483600616 0.4117099941  -999.250000 1.4029999971 2.0845000744  -999.250000
 402.94560000 38.753700256 0.4100550115  -999.250000 1.4082000256 2.0875999928  -999.250000
 403.09800000 31.543800354 0.4083189964  -999.250000 1.4018000364 2.0883998871  -999.250000
 403.25040000 32.974399567 0.4069359899  -999.250000 1.3981000185 2.0917999744  -999.250000
 403.40280000 43.342998505 0.4063540101  -999.250000 1.4132000208 2.0947000980  -999.250000
 403.55520000 49.500701904 0.4066869915  -999.250000 1.4399000406 2.0859999657  -999.250000
 403.70760000 52.215499878 0.4074090123  -999.250000 1.4531999826 2.0513999462  -999.250000
 403.86000000 50.796398163 0.4075210094  -999.250000 1.4385000467 2.0099999905  -999.250000
 404.01240000 43.556800842 0.4062669873  -999.250000 1.4069999456 1.9943000078  -999.250000
 404.16480000 42.284599304 0.4037429988  -999.250000 1.3792999983 1.9996999502  -999.250000
 404.31720000 35.313400269 0.4007680118  -999.250000 1.3651000261 2.0132999420  -999.250000
 404.46960000 29.978599548 0.3982450068  -999.250000 1.3629000187 2.0371999741  -999.250000
 404.62200000 37.790599823 0.3966670036  -999.250000 1.3818000555 2.0729000568  -999.250000
 404.77440000 43.040599823 0.3960480094  -999.250000 1.4292999506 2.1273999214  -999.250000
 404.92680000 44.916900635 0.3961389959  -999.250000 1.5051000118 2.2186000347  -999.250000
 405.07920000 49.426601410 0.3966110051  -999.250000 1.6017999649 2.3364999294  -999.250000
 405.23160000 51.376598358 0.3971169889  -999.250000 1.7017999887 2.4614000320  -999.250000
 405.38400000 51.207298279 0.3974989951  -999.250000 1.7848999500 2.5966000557  -999.250000
 405.53640000 52.424499512 0.3979139924  -999.250000 1.8475999832 2.7265999317  -999.250000
 405.68880000 50.113800049 0.3986119926  -999.250000 1.8878999949 2.8141000271  -999.250000
 405.84120000 47.400299072 0.3997400105  -999.250000 1.8861999512 2.8257999420  -999.250000
 405.99360000 46.316799164 0.4013130069  -999.250000 1.8287999630 2.7732999325  -999.250000
 406.14600000 47.630401611 0.4033190012  -999.250000 1.7383999825 2.6858999729  -999.250000
 406.29840000 46.478801727 0.4060580134  -999.250000 1.6564999819 2.5782001019  -999.250000
 406.45080000 40.068401337 0.4101380110  -999.250000 1.5973999500 2.4470999241  -999.250000
 406.60320000 36.038398743 0.4157040119  -999.250000 1.5396000147 2.2871999741  -999.250000
 406.75560000 33.276599884 0.4215080142  -999.250000 1.4591000080 2.0985000134  -999.250000
 406.90800000 34.689300537 0.4250909984  -999.250000 1.3561999798 1.9257999659  -999.250000
 407.06040000 38.377700806 0.4244399965  -999.250000 1.2459000349 1.8367999792  -999.250000
 407.21280000 33.662700653 0.4195120037  -999.250000 1.1710000038 1.8546999693  -999.250000
 407.36520000 30.798900604 0.4120399952  -999.250000 1.1827000380 1.9179999828  -999.250000
 407.51760000 32.995498657 0.4042269886  -999.250000 1.2805999517 1.9582999945  -999.250000
 407.67000000 38.004199982 0.3979620039  -999.250000 1.3999999762 1.9602999687  -999.250000
 407.82240000 47.276699066 0.3946929872  -999.250000 1.4788999557 1.9304000139  -999.250000
 407.97480000 51.307800293 0.3949980140  -999.250000 1.5197000504 1.9194999933  -999.250000
 408.12720000 53.157699585 0.3980450034  -999.250000 1.5239000320 1.9766000509  -999.250000
 408.27960000 58.207801819 0.4016819894  -999.250000 1.4831999540 2.0660998821  -999.250000
 408.43200000 59.688701630 0.4033269882  -999.250000 1.4239000082 2.1312999725  -999.250000
 408.58440000 54.686698914 0.4016860127  -999.250000 1.3775000572 2.1454999447  -999.250000
 408.73680000 49.208801270 0.3978489935  -999.250000 1.3466999531 2.0845999718  -999.250000
 408.88920000 46.487899780 0.3940869868  -999.250000 1.3179999590 1.9763000011  -999.250000
 409.04160000 51.667499542 0.3916450143  -999.250000 1.2893999815 1.8899999857  -999.250000
 409.19400000 53.668598175 0.3894509971  -999.250000 1.2723000050 1.8594000340  -999.250000
 409.34640000 50.076301575 0.3845579922  -999.250000 1.2739000320 1.8830000162  -999.250000
 409.49880000 53.143798828 0.3759199977  -999.250000 1.2969000340 1.9536000490  -999.250000
 409.65120000 53.540401459 0.3700639904  -999.250000 1.3408000469 2.0529999733  -999.250000
 409.80360000 47.785499573 0.3770410120  -999.250000 1.4033000469 2.1517000198  -999.250000
 409.95600000 47.886600494 0.3966949880  -999.250000 1.4753999710 2.1970999241  -999.250000
 410.10840000 50.026500702 0.4183219969  -999.250000 1.5299999714 2.1442999840  -999.250000
 410.26080000 45.063598633 0.4335489869  -999.250000 1.5189000368 2.0037999153  -999.250000
 410.41320000 40.308200836 0.4404720068  -999.250000 1.4155999422 1.8351999521  -999.250000
 410.56560000 43.163898468 0.4398170114  -999.250000 1.2608000040 1.6971000433  -999.250000
 410.71800000 48.706199646 0.4329940081  -999.250000 1.1201000214 1.6033999920  -999.250000
 410.87040000 51.727199554 0.4220309854  -999.250000 1.0298999548 1.5256999731  -999.250000
