# LAS format log file from PETREL
# Project units are specified as depth units
#==================================================================
~Version information
VERS.   2.0:
WRAP.   NO:
#==================================================================
~Well
STRT .m      0.0000000000 :
STOP .m      1206.7032000 :
STEP .m     0.15240000 :
NULL .        -999.250000 :
COMP.           : COMPANY
WELL.  NELSON #9-16   : WELL
FLD.            : FIELD
LOC.            : LOCATION
SRVC.           : SERVICE COMPANY
DATE.  2020-08-25 09:56:37   : Log Export Date {yyyy-MM-dd HH:mm:ss}
PROV.           : PROVINCE
UWI.   NELSON #9-16   : UNIQUE WELL ID
API.            : API NUMBER
#==================================================================
~Curve
DEPT .m                   : DEPTH
FACIES ._                 : FACIES
GR .gAPI                  : GR
NPHI .m3/m3               : NPHI
RHOB .g/cm3               : RHOB
RM .ohm.m                 : RM
RT .ohm.m                 : RT
~Parameter
#==================================================================
~Ascii
# ...
 397.76400000  -999.250000 49.278400421 0.3728809953 1.3700000048 1.0871000290 1.8903000355
 397.91640000  -999.250000 53.842899323 0.4007239938 1.3859000206 0.9908000231 1.6868000031
 398.06880000  -999.250000 55.314899445 0.4235039949 1.4081000090 0.9129999876 1.5328999758
 398.22120000  -999.250000 53.187698364 0.4393160045 1.4338999987 0.8622999787 1.4332000017
 398.37360000  -999.250000 48.127899170 0.4470059872 1.4605000019 0.8414000273 1.3746999502
 398.52600000  -999.250000 46.343898773 0.4459930062 1.4865000248 0.8443999887 1.3523999453
 398.67840000  -999.250000 46.413398743 0.4370250106 1.5088000298 0.8661000133 1.3641999960
 398.83080000  -999.250000 45.383098602 0.4231269956 1.5234000683 0.9068999887 1.4082000256
 398.98320000  -999.250000 46.446701050 0.4092159867 1.5288000107 0.9653999805 1.4972000122
 399.13560000  -999.250000 45.374698639 0.3999840021 1.5252000093 1.0314999819 1.6236000061
 399.28800000  -999.250000 42.874198914 0.3974409997 1.5131000280 1.0920000076 1.7458000183
 399.44040000  -999.250000 41.843101501 0.4003840089 1.4955999851 1.1376999617 1.8466999531
 399.59280000  -999.250000 41.938098907 0.4060499966 1.4789999723 1.1643999815 1.9301999807
 399.74520000  -999.250000 45.659099579 0.4119879901 1.4686999321 1.1734000444 1.9833999872
 399.89760000  -999.250000 46.995998383 0.4166299999 1.4648000002 1.1722999811 2.0137000084
 400.05000000  -999.250000 48.197898865 0.4188559949 1.4616999626 1.1698000431 2.0302999020
 400.20240000  -999.250000 51.227401733 0.4180119932 1.4544000626 1.1698000431 2.0192999840
 400.35480000  -999.250000 49.567600250 0.4146780074 1.4420000315 1.1722999811 1.9912999868
 400.50720000  -999.250000 45.958198547 0.4112550020 1.4243000746 1.1749999523 1.9685000181
 400.65960000  -999.250000 44.050701141 0.4111169875 1.4035999775 1.1755000353 1.9549000263
 400.81200000  -999.250000 43.492900848 0.4166400135 1.3863000870 1.1719000340 1.9494999647
 400.96440000  -999.250000 44.452999115 0.4277069867 1.3745000362 1.1628999710 1.9447000027
 401.11680000  -999.250000 45.092899323 0.4416610003 1.3633000851 1.1512000561 1.9366999865
 401.26920000  -999.250000 46.354400635 0.4546850026 1.3480999470 1.1452000141 1.9407000542
 401.42160000  -999.250000 48.324600220 0.4634369910 1.3296999931 1.1546000242 1.9738999605
 401.57400000  -999.250000 47.701999664 0.4661830068 1.3108000755 1.1837999821 2.0297000408
 401.72640000  -999.250000 47.896499634 0.4632259905 1.2933000326 1.2301000357 2.0917999744
 401.87880000  -999.250000 54.105201721 0.4565809965 1.2805000544 1.2806999683 2.1405000687
 402.03120000  -999.250000 59.767898560 0.4489650130 1.2770999670 1.3159999847 2.1689000130
 402.18360000  -999.250000 60.988498688 0.4426130056 1.2834999561 1.3244999647 2.1949000359
 402.33600000  -999.250000 55.434700012 0.4384399951 1.2960000038 1.3127000332 2.2239000797
 402.48840000  -999.250000 50.457599640 0.4359779954 1.3108000755 1.2936999798 2.2425000668
 402.64080000  -999.250000 51.285800934 0.4338429868 1.3259000778 1.2720999718 2.2263998985
 402.79320000  -999.250000 50.998600006 0.4302949905 1.3410999775 1.2476999760 2.1673998833
 402.94560000  -999.250000 46.156299591 0.4239090085 1.3551999331 1.2216000557 2.0889000893
 403.09800000  -999.250000 44.203498840 0.4143660069 1.3630000353 1.1972999573 2.0204999447
 403.25040000  -999.250000 43.411399841 0.4032000005 1.3604000807 1.1783000231 1.9746999741
 403.40280000  -999.250000 40.252399445 0.3935090005 1.3471999168 1.1670999527 1.9539999962
 403.55520000  -999.250000 40.053798676 0.3882380128 1.3273999691 1.1620999575 1.9501999617
 403.70760000  -999.250000 40.452899933 0.3879210055 1.3095999956 1.1597000360 1.9477000237
 403.86000000  -999.250000 39.689498901 0.3897190094 1.2993000746 1.1570999622 1.9320000410
 404.01240000  -999.250000 39.657199860 0.3891980052 1.2939000130 1.1520999670 1.9129999876
 404.16480000  -999.250000 39.863098145 0.3834649920 1.2889000177 1.1455999613 1.9081000090
 404.31720000  -999.250000 41.454799652 0.3733290136 1.2819999456 1.1424000263 1.9313999414
 404.46960000  -999.250000 41.199901581 0.3625530005 1.2728999853 1.1483000517 1.9817999601
 404.62200000  -999.250000 40.549900055 0.3550460041 1.2640999556 1.1662000418 2.0436000824
 404.77440000  -999.250000 42.229099274 0.3525750041 1.2585999966 1.1934000254 2.1019999981
 404.92680000  -999.250000 46.028701782 0.3549149930 1.2573000193 1.2230999470 2.1443998814
 405.07920000  -999.250000 50.846698761 0.3613849878 1.2591999769 1.2451000214 2.1565999985
 405.23160000  -999.250000 51.500999451 0.3716279864 1.2643001080 1.2468999624 2.1438000202
 405.38400000  -999.250000 46.921901703 0.3846440017 1.2704999447 1.2269999981 2.1133999825
 405.53640000  -999.250000 41.607299805 0.3979339898 1.2716999054 1.1957000494 2.0622000694
 405.68880000  -999.250000 37.241500854 0.4083270133 1.2669999599 1.1582000256 1.9938999414
 405.84120000  -999.250000 33.381801605 0.4143280089 1.2625999451 1.1138999462 1.9183000326
 405.99360000  -999.250000 32.321300507 0.4174470007 1.2604999542 1.0699000359 1.8238999844
 406.14600000  -999.250000 34.784900665 0.4209469855 1.2558000088 1.0341000557 1.7099000216
 406.29840000  -999.250000 37.924598694 0.4269010127 1.2474000454 1.0038000345 1.5895999670
 406.45080000  -999.250000 39.218399048 0.4341889918 1.2398999929 0.9720000029 1.4750000238
 406.60320000  -999.250000 39.746200562 0.4395450056 1.2351000309 0.9370999932 1.3852000237
 406.75560000  -999.250000 43.321998596 0.4410960078 1.2304999828 0.9035000205 1.3351000547
 406.90800000  -999.250000 43.465599060 0.4407880008 1.2263000011 0.8779000044 1.3257999420
 407.06040000  -999.250000 39.205299377 0.4429169893 1.2261999846 0.8686000109 1.3437000513
 407.21280000  -999.250000 35.484500885 0.4497430027 1.2321000099 0.8838000298 1.3626999855
 407.36520000  -999.250000 34.903800964 0.4585959911 1.2424000502 0.9214000106 1.3748999834
 407.51760000  -999.250000 38.486900330 0.4636250138 1.2530000210 0.9667999744 1.4017000198
 407.67000000  -999.250000 43.310100555 0.4602490067 1.2610999346 1.0082000494 1.4580999613
 407.82240000  -999.250000 44.649898529 0.4481100142 1.2666000128 1.0484000444 1.5492000580
 407.97480000  -999.250000 44.867000580 0.4303500056 1.2685999870 1.0902999640 1.6676000357
 408.12720000  -999.250000 48.699001312 0.4110929966 1.2656999826 1.1259000301 1.7761000395
 408.27960000  -999.250000 52.179901123 0.3935109973 1.2610999346 1.1477999687 1.8351000547
 408.43200000  -999.250000 51.253101349 0.3794719875 1.2595000267 1.1631000042 1.8641999960
 408.58440000  -999.250000 49.302501678 0.3697809875 1.2626999617 1.1836999655 1.8934999704
 408.73680000  -999.250000 53.165000916 0.3643069863 1.2688000202 1.2137999535 1.9399000406
 408.88920000  -999.250000 57.562000275 0.3618119955 1.2725000381 1.2551000118 2.0183000565
 409.04160000  -999.250000 54.243099213 0.3601810038 1.2723000050 1.3121999502 2.1408998966
 409.19400000  -999.250000 49.494899750 0.3573510051 1.2739000320 1.3905999660 2.2973999977
 409.34640000  -999.250000 47.410598755 0.3522849977 1.2814999819 1.4894000292 2.4526998997
 409.49880000  -999.250000 47.456001282 0.3450219929 1.2903000116 1.5914000273 2.5883998871
 409.65120000  -999.250000 50.636199951 0.3359000087 1.2939000130 1.6706000566 2.7016000748
 409.80360000  -999.250000 54.981998444 0.3252590001 1.2921999693 1.7121000290 2.7999000549
 409.95600000  -999.250000 57.147499084 0.3144339919 1.2911000252 1.7199000120 2.8977999687
 410.10840000  -999.250000 58.507598877 0.3062489927 1.2934999466 1.7102999687 2.9774000645
 410.26080000  -999.250000 62.187698364 0.3038829863 1.2958999872 1.6908999681 2.9934000969
 410.41320000  -999.250000 61.916999817 0.3086670041 1.2951999903 1.6567000151 2.9300999641
 410.56560000  -999.250000 56.663398743 0.3189890087 1.2923001051 1.6045000553 2.8148999214
 410.71800000  -999.250000 53.556400299 0.3311949968 1.2878000736 1.5362999439 2.6698000431
 410.87040000  -999.250000 51.250400543 0.3410080075 1.2813000679 1.4543000460 2.5137000084
