# LAS format log file from PETREL
# Project units are specified as depth units
#==================================================================
~Version information
VERS.   2.0:
WRAP.   NO:
#==================================================================
~Well
STRT .m      0.0000000000 :
STOP .m      1178.3568000 :
STEP .m     0.15240000 :
NULL .        -999.250000 :
COMP.           : COMPANY
WELL.  NELSON #6-16   : WELL
FLD.            : FIELD
LOC.            : LOCATION
SRVC.           : SERVICE COMPANY
DATE.  2020-08-19 21:46:58   : Log Export Date {yyyy-MM-dd HH:mm:ss}
PROV.           : PROVINCE
UWI.   NELSON #6-16   : UNIQUE WELL ID
API.            : API NUMBER
#==================================================================
~Curve
DEPT .m                   : DEPTH
GR .gAPI                  : GR
NPHI .m3/m3               : NPHI
RHOB .g/cm3               : RHOB
RM .ohm.m                 : RM
RT .ohm.m                 : RT
FACIES ._                 : FACIES
~Parameter
#==================================================================
~Ascii
# ...
 1087.2216000 107.25140381 0.2585369945 2.5716001987 2.7901000977 2.6733999252  -999.250000
 1087.3740000 106.46820068 0.2541629970 2.5763001442 2.7274000645 2.6596999168  -999.250000
 1087.5264000 99.059799194 0.2399239987 2.5713999271 2.6386001110 2.6203000546  -999.250000
 1087.6788000 82.509498596 0.2183569968 2.5585000515 2.5395998955 2.5940999985  -999.250000
 1087.8312000 61.388900757 0.1930299997 2.5523998737 2.4723999500 2.6496000290  -999.250000
 1087.9836000 45.458301544 0.1659159958 2.5581998825 2.5186998844 2.8289999962  -999.250000
 1088.1360000 40.920398712 0.1378699988 2.5838000774 2.8264000416 3.1240000725  -999.250000
 1088.2884000 41.140998840 0.1108850017 2.6298999786 3.5074000359 3.5253999233  -999.250000
 1088.4408000 40.555198669 0.0883070007 2.6568000317 4.3941998482 3.9937999249  -999.250000
 1088.5932000 39.438899994 0.0727929994 2.6498000622 5.4095001221 4.6054000854  -999.250000
 1088.7456000 42.901298523 0.0643910021 2.6340000629 6.5644001961 5.5307998657  -999.250000
 1088.8980000 47.627101898 0.0607730001 2.6247000694 8.2018003464 6.9482002258  -999.250000
 1089.0504000 53.745998383 0.0595880002 2.6273000240 10.208299637 8.7529001236  -999.250000
 1089.2028000 62.039699554 0.0598599985 2.6371998787 11.529000282 10.219200134  -999.250000
 1089.3552000 73.679603577 0.0611440018 2.6471002102 12.122400284 11.026200294  -999.250000
 1089.5076000 78.458503723 0.0631010011 2.6486999989 12.650500298 11.337200165  -999.250000
 1089.6600000 70.056297302 0.0662039965 2.6559000015 13.356100082 11.422599792  -999.250000
 1089.8124000 58.872398376 0.0712089986 2.6789999008 13.649399757 11.555800438  -999.250000
 1089.9648000 55.871299744 0.0777769983 2.6912000179 13.222599983 11.812500000  -999.250000
 1090.1172000 58.268798828 0.0846230015 2.6854000092 12.640500069 11.962100029  -999.250000
 1090.2696000 61.354999542 0.0900409967 2.6837999821 12.200900078 10.997900009  -999.250000
 1090.4220000 62.117401123 0.0933229998 2.6823999882 11.017299652 8.9996004105  -999.250000
 1090.5744000 63.130100250 0.1017059982 2.6603999138 8.4816999435 7.2348999977  -999.250000
 1090.7268000 74.729499817 0.1304180026 2.6145000458 5.9432997704 5.8622999191  -999.250000
 1090.8792000 103.63020325 0.1786630005 2.5628998280 4.4243998528 5.0577001572  -999.250000
 1091.0316000 138.86459351 0.2168329954 2.5369999409 3.6431000233 4.8073000908  -999.250000
 1091.1840000 157.97760010 0.2181849927 2.5528998375 3.4916000366 4.8218998909  -999.250000
 1091.3364000 147.80949402 0.1869210005 2.5957000256 4.0181999207 4.6982002258  -999.250000
 1091.4888000 118.98629761 0.1487219930 2.6476998329 5.0996999741 4.3482999802  -999.250000
 1091.6412000 88.922500610 0.1300249994 2.6742000580 5.5391998291 3.8973999023  -999.250000
 1091.7936000 67.563003540 0.1432510018 2.6608998775 4.9274001122 3.4825999737  -999.250000
 1091.9460000 56.945899963 0.1812590063 2.6247999668 4.1192002296 3.2713999748  -999.250000
 1092.0984000 59.101799011 0.2250799984 2.5922999382 3.3859999180 3.2434999943  -999.250000
 1092.2508000 70.003501892 0.2572369874 2.5743999481 2.8429000378 3.2695000172  -999.250000
 1092.4032000 82.470100403 0.2677020133 2.5701000690 2.6082999706 3.2755999565  -999.250000
 1092.5556000 88.976799011 0.2525619864 2.5756001472 2.6612999439 3.3057999611  -999.250000
 1092.7080000 89.504699707 0.2144639939 2.5878999233 2.9544000626 3.3963000774  -999.250000
 1092.8604000 85.933502197 0.1635120064 2.6081001759 3.5524001122 3.5604999065  -999.250000
 1093.0128000 67.635299683 0.1133209988 2.6361000538 4.4724001884 3.9447000027  -999.250000
 1093.1652000 44.845001221 0.0757879987 2.6730000973 5.8249001503 4.7248001099  -999.250000
 1093.3176000 33.151199341 0.0574430004 2.6918001175 7.6230998039 5.9931998253  -999.250000
 1093.4700000 28.992300034 0.0567209981 2.6761000156 9.8791999817 7.8538999557  -999.250000
 1093.6224000 25.834100723 0.0649710000 2.6512999535 11.556400299 10.264300346  -999.250000
 1093.7748000 30.573499680 0.0726839975 2.6493000984 12.272899628 12.998499870  -999.250000
 1093.9272000 38.464698792 0.0756229982 2.6678998470 13.373600006 13.863699913  -999.250000
 1094.0796000 36.968299866 0.0758809969 2.6895999908 14.932600021 12.297900200  -999.250000
 1094.2320000 32.036499023 0.0798629969 2.6993000507 14.303400040 9.7246999741  -999.250000
 1094.3844000 33.458198547 0.0960669965 2.6858000755 10.645999908 7.3208999634  -999.250000
 1094.5368000 39.676200867 0.1310389936 2.6591000557 7.3214001656 5.6185998917  -999.250000
 1094.6892000 50.389198303 0.1832190007 2.6226000786 5.0412998199 4.4460000992  -999.250000
 1094.8416000 68.010398865 0.2414730042 2.5723998547 3.5532000065 3.6807000637  -999.250000
 1094.9940000 85.366302490 0.2913289964 2.5250999928 2.8148000240 3.1926000118  -999.250000
 1095.1464000 94.040199280 0.3219850063 2.5065000057 2.4467000961 2.7620000839  -999.250000
 1095.2988000 96.590103149 0.3313840032 2.5076000690 2.2504999638 2.4252998829  -999.250000
 1095.4512000 96.249900818 0.3271239996 2.5046999454 2.1110999584 2.1710000038  -999.250000
 1095.6036000 94.921501160 0.3185620010 2.5036001205 2.0206000805 2.0114998817  -999.250000
 1095.7560000 90.450599670 0.3080410063 2.5138001442 1.9903000593 1.9759999514  -999.250000
 1095.9084000 86.888298035 0.2917450070 2.5243000984 2.0302000046 2.0573000908  -999.250000
 1096.0608000 84.668502808 0.2664969862 2.5481998920 2.1765999794 2.2107999325  -999.250000
 1096.2132000 84.377098083 0.2331160009 2.5861001015 2.5151000023 2.4014000893  -999.250000
 1096.3656000 77.508796692 0.1951639950 2.6198000908 2.9837999344 2.6401998997  -999.250000
 1096.5180000 64.971801758 0.1572429985 2.6416001320 3.5025999546 2.9360001087  -999.250000
 1096.6704000 57.928001404 0.1227679998 2.6446001530 4.1184000969 3.3989000320  -999.250000
 1096.8228000 56.228900909 0.0930799991 2.6493999958 4.9538998604 4.1128997803  -999.250000
 1096.9752000 58.101299286 0.0697399974 2.6636998653 6.1961998940 4.9949002266  -999.250000
 1097.1276000 53.895801544 0.0543450005 2.6754000187 7.6820998192 6.0219998360  -999.250000
 1097.2800000 40.753398895 0.0458169989 2.6796000004 9.2049999237 7.1528000832  -999.250000
 1097.4324000 32.255298615 0.0409110002 2.6837999821 11.050600052 8.4842996597  -999.250000
 1097.5848000 31.237699509 0.0369700007 2.6783998013 13.557200432 10.212100029  -999.250000
 1097.7372000 33.409999847 0.0329939984 2.6596999168 17.500200272 12.406299591  -999.250000
 1097.8896000 35.035400391 0.0290610008 2.6503999233 23.005899429 15.091799736  -999.250000
 1098.0420000 32.198799133 0.0258670002 2.6586000919 29.773700714 18.149299622  -999.250000
 1098.1944000 28.975500107 0.0243040007 2.6781001091 40.455898285 20.243600845  -999.250000
 1098.3468000 25.913799286 0.0253320001 2.6993000507 54.644500732 19.893999100  -999.250000
 1098.4992000 23.728399277 0.0315909982 2.7103998661 55.899799347 16.913400650  -999.250000
 1098.6516000 23.830400467 0.0488069989 2.7054998875 34.151100159 12.728699684  -999.250000
 1098.8040000 26.487699509 0.0816809982 2.6821000576 16.504600525 9.2709999084  -999.250000
 1098.9564000 35.077701569 0.1254300028 2.6406002045 8.6148996353 7.1753997803  -999.250000
 1099.1088000 52.517299652 0.1638779938 2.5948998928 5.4703998566 6.1273999214  -999.250000
 1099.2612000 72.470802307 0.1792840064 2.5666000843 4.4268999100 5.6093997955  -999.250000
 1099.4136000 75.680702209 0.1654150039 2.5690000057 4.3681001663 5.2231001854  -999.250000
 1099.5660000 59.010700226 0.1327459961 2.6054999828 4.6687998772 4.8084001541  -999.250000
 1099.7184000 37.561500549 0.1002890021 2.6388998032 4.7803001404 4.3547000885  -999.250000
 1099.8708000 28.235500336 0.0805680007 2.6370000839 4.6336002350 4.0879001617  -999.250000
 1100.0232000 26.777500153 0.0735080019 2.6198999882 4.5625000000 4.1266999245  -999.250000
 1100.1756000 25.656200409 0.0726919994 2.6223998070 4.7235999107 4.4156999588  -999.250000
 1100.3280000 23.270999908 0.0725969970 2.6393001080 5.1131000519 4.7922000885  -999.250000
