# LAS format log file from PETREL
# Project units are specified as depth units
#==================================================================
~Version information
VERS.   2.0:
WRAP.   NO:
#==================================================================
~Well
STRT .m      619.96198080 :
STOP .m      2949.0911808 :
STEP .m     0.15240000 :
NULL .        -999.250000 :
COMP.           : COMPANY
WELL.  SEM0400   : WELL
FLD.            : FIELD
LOC.            : LOCATION
SRVC.           : SERVICE COMPANY
DATE.  2020-05-08 20:04:29   : Log Export Date {yyyy-MM-dd HH:mm:ss}
PROV.           : PROVINCE
UWI.   SEM0400   : UNIQUE WELL ID
API.            : API NUMBER
#==================================================================
~Curve
DEPT .m                   : DEPTH
DT .us/ft                 : DT
GR .gAPI                  : GR
NPHI .m3/m3               : NPHI
RHOB .g/cm3               : RHOB
RT .ohm.m                 : RT
FACIES .                    : FACIES
~Parameter
#==================================================================
~Ascii
# ...
 1853.0303808 81.100006104 68.837097168 0.2475370020 2.5016000271 3.7237999439  -999.250000
 1853.1827808 80.300003052 70.901000977 0.2696500123 2.4988999367 3.7295999527  -999.250000
 1853.3351808 80.499992371 75.638198853 0.2912870049 2.5274999142 3.7179000378  -999.250000
 1853.4875808 82.000000000 82.144699097 0.2919700146 2.5597999096 3.6577000618  -999.250000
 1853.6399808 83.800003052 87.047897339 0.3031969965 2.5650999546 3.5546000004  -999.250000
 1853.7923808 85.400001526 90.715301514 0.3021139801 2.5559000969 3.4437999725  -999.250000
 1853.9447808 86.500000000 84.967300415 0.3240469992 2.5480000973 3.3406999111  -999.250000
 1854.0971808 86.599998474 81.577400208 0.3085570037 2.5383999348 3.2493000031  -999.250000
 1854.2495808 86.500000000 82.388000488 0.2983599901 2.5336000919 3.1870999336  -999.250000
 1854.4019808 85.499992371 86.293701172 0.2859690189 2.5343000889 3.1656999588  -999.250000
 1854.5543808 84.800003052 87.767601013 0.2758910060 2.5429999828 3.1656999588  -999.250000
 1854.7067808 84.500000000 86.957000732 0.2853249907 2.5510001183 3.1579000950  -999.250000
 1854.8591808 84.400001526 92.483901978 0.2905029953 2.5499999523 3.1375000477  -999.250000
 1855.0115808 85.000000000 90.346801758 0.3119750023 2.5436999798 3.1015000343  -999.250000
 1855.1639808 85.699996948 89.978302002 0.3212269843 2.5343999863 3.0499000549  -999.250000
 1855.3163808 86.800003052 86.441101074 0.3237850070 2.5283999443 2.9844000340  -999.250000
 1855.4687808 87.500000000 91.010002136 0.3420080245 2.5209000111 2.9091000557  -999.250000
 1855.6211808 87.699989319 85.958000183 0.3337509930 2.5171999931 2.8317000866  -999.250000
 1855.7735808 87.999992371 84.057701111 0.3408969939 2.5190000534 2.7658998966  -999.250000
 1855.9259808 88.600006104 82.379997253 0.3430950046 2.5315999985 2.7214999199  -999.250000
 1856.0783808 88.600006104 82.314300537 0.3384360075 2.5499000549 2.6926999092  -999.250000
 1856.2307808 89.199996948 83.427803040 0.3503630161 2.5669999123 2.6677999496  -999.250000
 1856.3831808 89.800003052 91.590400696 0.3476200104 2.5706000328 2.6363999844  -999.250000
 1856.5355808 89.800003052 95.113800049 0.3466070294 2.5636000633 2.5991001129  -999.250000
 1856.6879808 89.599998474 96.340103149 0.3462189734 2.5502998829 2.5657000542  -999.250000
 1856.8403808 89.599998474 93.165496826 0.3455599844 2.5406000614 2.5422000885  -999.250000
 1856.9927808 89.500000000 90.081001282 0.3491910100 2.5371999741 2.5264999866  -999.250000
 1857.1451808 90.000000000 93.235702515 0.3577849865 2.5381999016 2.5106999874  -999.250000
 1857.2975808 90.900001526 93.679100037 0.3536370099 2.5457999706 2.4892001152  -999.250000
 1857.4499808 90.800003052 93.220802307 0.3377780020 2.5534999371 2.4616999626  -999.250000
 1857.6023808 90.800003052 92.312103271 0.3360770047 2.5622000694 2.4263000488  -999.250000
 1857.7547808 90.800003052 93.908302307 0.3450350165 2.5652000904 2.3831000328  -999.250000
 1857.9071808 91.500000000 96.309700012 0.3617739975 2.5653998852 2.3208000660  -999.250000
 1858.0595808 91.699996948 98.083801270 0.3556119800 2.5645000935 2.2472999096  -999.250000
 1858.2119808 92.000000000 96.178802490 0.3707099855 2.5666000843 2.1610999107  -999.250000
 1858.3643808 91.500000000 94.516403198 0.3642910123 2.5627999306 2.0697999001  -999.250000
 1858.5167808 92.800003052 93.957702637 0.3686539829 2.5269999504 1.9775999784  -999.250000
 1858.6691808 93.800003052 97.970703125 0.3675310016 2.5434000492 1.8762999773  -999.250000
 1858.8215808 95.300003052 101.89450073 0.3817639947 2.5467998981 1.7743999958  -999.250000
 1858.9739808 96.900001526 101.75180054 0.3706600070 2.5532000065 1.6849999428  -999.250000
 1859.1263808 97.699989319 102.40350342 0.4087810218 2.5225999355 1.6246000528  -999.250000
 1859.2787808 99.500000000 97.557998657 0.4159280062 2.4911000729 1.6115000248  -999.250000
 1859.4311808 100.19998932 96.811599731 0.4953710139 2.4170000553 1.6590000391  -999.250000
 1859.5835808 99.800003052 92.277496338 0.5197299719 2.3698000908 1.7813999653  -999.250000
 1859.7359808 100.69999695 98.715698242 0.5807380080 2.3311998844 1.9997999668  -999.250000
 1859.8883808 99.699996948 113.50140381 0.5850389600 2.3629000187 2.3247001171  -999.250000
 1860.0407808 103.40000153 137.69670105 0.6098440289 2.3968999386 2.7660999298  -999.250000
 1860.1931808 107.09999847 159.88659668 0.6654369831 2.3736999035 3.2904000282  -999.250000
 1860.3455808 115.40000153 177.33120728 0.6831300259 2.3357999325 3.8255000114  -999.250000
 1860.4979808 123.50000000 175.21780396 0.7215930223 2.2198998928 4.3489999771  -999.250000
 1860.6503808 126.69999695 158.37789917 0.6812980175 2.1668000221 4.7449002266  -999.250000
 1860.8027808 126.30000305 132.32519531 0.5346959829 2.2335000038 4.7863998413  -999.250000
 1860.9551808 114.50000000 105.86959839 0.4006170034 2.3276998997 4.6026000977  -999.250000
 1861.1075808 103.50000000 97.964599609 0.3254100084 2.4367001057 4.1992998123  -999.250000
 1861.2599808 92.900001526 93.115798950 0.3206269741 2.4893999100 3.7532999516  -999.250000
 1861.4123808 85.400001526 93.519996643 0.2915929854 2.5585999489 3.4484999180  -999.250000
 1861.5647808 85.499992371 90.203903198 0.2829419971 2.5285000801 3.2801001072  -999.250000
 1861.7171808 85.400001526 85.143798828 0.2837499976 2.5385999680 3.2035999298  -999.250000
 1861.8695808 84.699996948 81.926101685 0.2974109948 2.5344998837 3.2074999809  -999.250000
 1862.0219808 83.800003052 79.667900085 0.2877810001 2.5341999531 3.3810000420  -999.250000
 1862.1743808 81.300003052 78.465896606 0.2608940005 2.5395998955 3.7021000385  -999.250000
 1862.3267808 78.800003052 78.334899902 0.2236080021 2.5436000824 4.0784001350  -999.250000
 1862.4791808 77.099998474 78.187599182 0.2205010056 2.5473001003 4.4753999710  -999.250000
 1862.6315808 76.800003052 77.082199097 0.2060540020 2.5506000519 4.7996997833  -999.250000
 1862.7839808 77.599998474 79.234901428 0.2097719908 2.5578000546 5.0661997795  -999.250000
 1862.9363808 76.699996948 77.173301697 0.1951029897 2.5650999546 5.2925000191  -999.250000
 1863.0887808 76.699996948 79.187103271 0.2149509937 2.5711998940 5.5211000443  -999.250000
 1863.2411808 77.199996948 79.408996582 0.2081550062 2.5766999722 5.7810001373  -999.250000
 1863.3935808 77.099998474 79.339897156 0.2233110070 2.5790998936 5.9446997643  -999.250000
 1863.5459808 76.900001526 79.603401184 0.2090539932 2.5739998817 6.0471000671  -999.250000
 1863.6983808 76.800003052 78.629699707 0.2093999982 2.5518000126 6.0757999420  -999.250000
 1863.8507808 76.900001526 75.638702393 0.2137899995 2.4986999035 6.0388998985  -999.250000
 1864.0031808 76.900001526 76.228500366 0.2150070071 2.5481998920 5.9120001793  -999.250000
 1864.1555808 78.199996948 77.533302307 0.2283560038 2.3912999630 5.7031998634  -999.250000
 1864.3079808 81.000000000 78.742996216 0.2555750012 2.5174999237 5.4247999191  -999.250000
 1864.4603808 82.300003052 79.589996338 0.2880080044 2.4379999638 5.0885000229  -999.250000
 1864.6127808 85.300003052 83.788803101 0.3074890077 2.4865999222 4.8049998283  -999.250000
 1864.7651808 86.000000000 87.275497437 0.3150790036 2.5206000805 4.5451998711  -999.250000
 1864.9175808 86.100006104 85.828498840 0.3110890090 2.5394999981 4.2449002266  -999.250000
 1865.0699808 86.800003052 82.085800171 0.2971940041 2.5492000580 3.9126999378  -999.250000
 1865.2223808 86.300003052 84.354896545 0.2846310139 2.5525000095 3.6122999191  -999.250000
 1865.3747808 87.300003052 88.752899170 0.2900350094 2.5536000729 3.3803000450  -999.250000
 1865.5271808 85.900001526 91.417999268 0.3011490107 2.5557000637 3.1939001083  -999.250000
 1865.6795808 84.900001526 90.785003662 0.3268920183 2.5601000786 3.0620000362  -999.250000
 1865.8319808 87.000000000 95.675201416 0.3182269931 2.5645000935 3.0067000389  -999.250000
 1865.9843808 87.999992371 95.322998047 0.3495640159 2.5643999577 3.0278000832  -999.250000
 1866.1367808 89.599998474 101.62169647 0.3745640218 2.5322999954 3.0757999420  -999.250000
