# LAS format log file from PETREL
# Project units are specified as depth units
#==================================================================
~Version information
VERS.   2.0:
WRAP.   NO:
#==================================================================
~Well
STRT .m      598.62601128 :
STOP .m      2812.0836113 :
STEP .m     0.15240000 :
NULL .        -999.250000 :
COMP.           : COMPANY
WELL.  SEM0410   : WELL
FLD.            : FIELD
LOC.            : LOCATION
SRVC.           : SERVICE COMPANY
DATE.  2020-05-08 20:04:55   : Log Export Date {yyyy-MM-dd HH:mm:ss}
PROV.           : PROVINCE
UWI.   SEM0410   : UNIQUE WELL ID
API.            : API NUMBER
#==================================================================
~Curve
DEPT .m                   : DEPTH
DT .us/ft                 : DT
GR .gAPI                  : GR
NPHI .m3/m3               : NPHI
RHOB .g/cm3               : RHOB
RT .ohm.m                 : RT
~Parameter
#==================================================================
~Ascii
# ...
 1764.4860113 79.500000000 66.557998657 0.2071430087 2.5724999905 4.6256999969
 1764.6384113 79.769302368 66.293601990 0.2134509981 2.5724999905 4.5394001007
 1764.7908113 80.189697266 66.522102356 0.2104340047 2.5747001171 4.4397001266
 1764.9432113 80.928100586 66.805496216 0.2022389919 2.5785999298 4.3491001129
 1765.0956113 81.924301147 67.459999084 0.2026889920 2.5803999901 4.2776999474
 1765.2480113 82.379402161 70.649200439 0.2121719867 2.5771999359 4.2367000580
 1765.4004113 83.093200684 75.389999390 0.2143129855 2.5703999996 4.2486000061
 1765.5528113 83.969001770 77.492500305 0.2161860019 2.5648999214 4.3401999474
 1765.7052113 84.389701843 75.341598511 0.2261020094 2.5636000633 4.4857997894
 1765.8576113 84.320709229 71.633003235 0.2362989932 2.5678000450 4.6366000175
 1766.0100113 83.114105225 67.070800781 0.2215149999 2.5725998878 4.8077998161
 1766.1624113 81.676002502 61.117401123 0.1861790121 2.5724000931 5.0430002213
 1766.3148113 81.220802307 58.236301422 0.1699080020 2.5645999908 5.3561000824
 1766.4672113 80.865600586 60.793399811 0.1808950007 2.5529999733 5.7151999474
 1766.6196113 80.879096985 64.044700623 0.1867880076 2.5423998833 6.0300998688
 1766.7720113 81.682098389 64.323402405 0.1749580055 2.5350000858 6.1901998520
 1766.9244113 82.534301758 64.008598328 0.1612229943 2.5313999653 6.2179999352
 1767.0768113 82.521003723 63.901000977 0.1637700051 2.5304999352 6.2330999374
 1767.2292113 82.300003052 63.028598785 0.1820299923 2.5308001041 6.2786998749
 1767.3816113 82.344703674 62.175899506 0.1973930001 2.5299999714 6.3345999718
 1767.5340113 82.176300049 60.470100403 0.1939489990 2.5288999081 6.3840999603
 1767.6864113 81.944702148 56.110298157 0.1734869927 2.5280001163 6.3807001114
 1767.8388113 81.508003235 51.549999237 0.1599150002 2.5311000347 6.3355998993
 1767.9912113 80.900001526 49.727901459 0.1626800001 2.5394999981 6.3210000992
 1768.1436113 80.721199036 52.391899109 0.1723950058 2.5513000488 6.3330998421
 1768.2960113 80.678802490 56.189300537 0.1792300045 2.5562996864 6.3306999207
 1768.4484113 81.078788757 57.009601593 0.1805509925 2.5511999130 6.2909002304
 1768.6008113 81.255302429 56.689998627 0.1790200025 2.5401000977 6.2049999237
 1768.7532113 80.529701233 55.255901337 0.1868510097 2.5334999561 6.0977997780
 1768.9056113 79.878700256 55.836799622 0.2004820108 2.5336999893 5.9868998528
 1769.0580113 80.189300537 59.692298889 0.2083860040 2.5364000797 5.8615999222
 1769.2104113 80.300003052 65.029701233 0.2096680105 2.5374999046 5.7150998116
 1769.3628113 80.612602234 68.297302246 0.2066110075 2.5359001160 5.5272998810
 1769.5152113 81.178596497 67.086502075 0.2050009966 2.5336999893 5.3131999969
 1769.6676113 82.025001526 65.368896484 0.2025929987 2.5295000076 5.1005997658
 1769.8200113 83.157096863 65.799201965 0.2138970047 2.5216000080 4.9225001335
 1769.9724113 84.090896606 69.107299805 0.2350119948 2.5130999088 4.7953000069
 1770.1248113 84.923110962 72.941101074 0.2613640130 2.5125000477 4.7031998634
 1770.2772113 85.021499634 74.313102722 0.2638030052 2.5250000954 4.6263999939
 1770.4296113 84.398490906 73.787101746 0.2519299984 2.5401999950 4.5590000153
 1770.5820113 83.766197205 70.614799500 0.2376770079 2.5469999313 4.5159001350
 1770.7344113 83.555397034 67.990600586 0.2298430055 2.5387001038 4.5029001236
 1770.8868113 83.722900391 66.727600098 0.2352409959 2.5236001015 4.5099000931
 1771.0392113 84.534904480 66.772201538 0.2426140010 2.5122001171 4.5255999565
 1771.1916113 85.467391968 65.933097839 0.2550460100 2.5109000206 4.5324997902
 1771.3440113 86.423896790 68.028198242 0.2721459866 2.5137999058 4.5215997696
 1771.4964113 87.333694458 70.151802063 0.2639159858 2.5127999783 4.4967999458
 1771.6488113 87.989997864 69.667602539 0.2483540028 2.5113999844 4.4409999847
 1771.8012113 88.466400146 68.274398804 0.2581740022 2.5148999691 4.3460001945
 1771.9536113 87.275703430 67.839302063 0.2749510109 2.5211999416 4.2350001335
 1772.1060113 87.024108887 71.317298889 0.2803759873 2.5225999355 4.1244001389
 1772.2584113 88.522598267 75.044502258 0.2781459987 2.5220999718 4.0324001312
 1772.4108113 88.488410950 76.980201721 0.2905040085 2.5239000320 3.9386999607
 1772.5632113 89.034599304 79.460800171 0.3156319857 2.5220000744 3.8166999817
 1772.7156113 90.377998352 81.705802917 0.3272639811 2.5085999966 3.6809000969
 1772.8680113 91.400901794 84.958602905 0.3179010153 2.4923999310 3.5524001122
 1773.0204113 93.334197998 85.312599182 0.3030890226 2.4895000458 3.4423999786
 1773.1728113 94.455497742 83.526496887 0.3011580110 2.5051999092 3.3522999287
 1773.3252113 94.355499268 82.701301575 0.2995409966 2.5246000290 3.2739999294
 1773.4776113 93.366302490 83.006401062 0.2988210022 2.5339999199 3.1995999813
 1773.6300113 91.221893311 83.713203430 0.3040179908 2.5322999954 3.1345000267
 1773.7824113 90.133399963 83.031402588 0.2997809947 2.5288999081 3.0868999958
 1773.9348113 90.122192383 80.526603699 0.2869829834 2.5304000378 3.0527999401
 1774.0872113 90.255500793 78.816299438 0.2754499912 2.5350999832 3.0269999504
 1774.2396113 90.344596863 77.922302246 0.2756409943 2.5381999016 3.0118999481
 1774.3920113 90.255401611 78.300598145 0.2743290067 2.5376999378 3.0013999939
 1774.5444113 90.566802979 79.431297302 0.2677370012 2.5362999439 2.9932999611
 1774.6968113 90.666397095 79.964599609 0.2658939958 2.5360000134 2.9953999519
 1774.8492113 90.777999878 79.211799622 0.2770339847 2.5373001099 3.0102000237
 1775.0016113 90.588798523 77.482299805 0.2885510027 2.5388998985 3.0315001011
 1775.1540113 89.989799500 74.776496887 0.2821930051 2.5397000313 3.0613000393
 1775.3064113 88.123703003 72.722503662 0.2660569847 2.5392000675 3.1064999104
 1775.4588113 87.077499390 72.502403259 0.2561030090 2.5362999439 3.1575999260
 1775.6112113 87.033798218 74.551002502 0.2616840005 2.5297999382 3.2086999416
 1775.7636113 86.522598267 76.714500427 0.2756879926 2.5204999447 3.2572999001
 1775.9160113 86.832199097 76.641799927 0.2768290043 2.5116999149 3.3045001030
 1776.0684113 87.677398682 75.722000122 0.2607859969 2.5078999996 3.3633999825
 1776.2208113 87.855697632 74.891197205 0.2402700037 2.5116999149 3.4326000214
 1776.3732113 87.135093689 74.082603455 0.2261359990 2.5222001076 3.4955000877
 1776.5256113 85.723800659 72.896896362 0.2197439969 2.5378000736 3.5513000488
 1776.6780113 84.335296631 71.984199524 0.2195899934 2.5566000938 3.6006000042
 1776.8304113 82.968299866 72.500099182 0.2283859998 2.5732998848 3.6442000866
 1776.9828113 83.053100586 72.107696533 0.2442560047 2.5789000988 3.6949000359
 1777.1352113 84.000000000 72.111999512 0.2566640079 2.5724999905 3.7535998821
 1777.2876113 84.132888794 73.447303772 0.2555960119 2.5648999214 3.8024001122
 1777.4400113 83.945800781 74.981597900 0.2508679926 2.5625998974 3.8266999722
 1777.5924113 83.057296753 75.101699829 0.2466000021 2.5606999397 3.8152000904
 1777.7448113 82.500000000 72.455001831 0.2430800050 2.5520000458 3.7760999203
 1777.8972113 83.119598389 73.432701111 0.2387280017 2.5398001671 3.7388000488
 1778.0496113 84.209800720 75.921798706 0.2346629947 2.5322000980 3.7151000500
 1778.2020113 84.644195557 77.379699707 0.2467149943 2.5323998928 3.6893999577
 1778.3544113 84.744201660 78.361198425 0.2663359940 2.5381000042 3.6598999500
 1778.5068113 84.490402222 77.127098083 0.2814849913 2.5460999012 3.6308999062
 1778.6592113 84.055801392 75.637901306 0.2824980021 2.5518999100 3.5954000950
 1778.8116113 84.176902771 72.332099915 0.2758079767 2.5548000336 3.5587000847
 1778.9640113 84.267402649 71.135696411 0.2768230140 2.5597999096 3.5292000771
 1779.1164113 84.409408569 73.382598877 0.2765280008 2.5748000145 3.5018999577
 1779.2688113 85.153594971 75.256599426 0.2728549838 2.5980000496 3.4781000614
 1779.4212113 85.511596680 76.271003723 0.2652949989 2.6115000248 3.4619998932
 1779.5736113 85.400001526 76.246299744 0.2600559890 2.6050000191 3.4528999329
 1779.7260113 85.532501221 77.057601929 0.2655490041 2.5859999657 3.4463000298
 1779.8784113 85.523300171 78.725601196 0.2675670087 2.5722000599 3.4426999092
