# LAS format log file from PETREL
# Project units are specified as depth units
#==================================================================
~Version information
VERS.   2.0:
WRAP.   NO:
#==================================================================
~Well
STRT .m      619.96198080 :
STOP .m      2949.0911808 :
STEP .m     0.15240000 :
NULL .        -999.250000 :
COMP.           : COMPANY
WELL.  SEM0400   : WELL
FLD.            : FIELD
LOC.            : LOCATION
SRVC.           : SERVICE COMPANY
DATE.  2020-05-08 20:04:29   : Log Export Date {yyyy-MM-dd HH:mm:ss}
PROV.           : PROVINCE
UWI.   SEM0400   : UNIQUE WELL ID
API.            : API NUMBER
#==================================================================
~Curve
DEPT .m                   : DEPTH
DT .us/ft                 : DT
GR .gAPI                  : GR
NPHI .m3/m3               : NPHI
RHOB .g/cm3               : RHOB
RT .ohm.m                 : RT
FACIES .                    : FACIES
~Parameter
#==================================================================
~Ascii
# ...
 2781.1463808 77.699989319 91.592300415 0.2370470017 2.6085000038 4.8631000519  -999.250000
 2781.2987808 78.300003052 93.156097412 0.2447530031 2.6064000130 4.5746002197  -999.250000
 2781.4511808 79.500000000 92.783798218 0.2603040040 2.6068999767 4.3301000595  -999.250000
 2781.6035808 79.900001526 93.528396606 0.2637560070 2.6117999554 4.1248002052  -999.250000
 2781.7559808 80.400001526 93.379501343 0.2794390023 2.6152999401 3.9263000488  -999.250000
 2781.9083808 81.100006104 95.092201233 0.2763909996 2.6131999493 3.7969999313  -999.250000
 2782.0607808 81.100006104 98.070800781 0.2720550001 2.6115999222 3.6735999584  -999.250000
 2782.2131808 81.500000000 96.953796387 0.2626529932 2.6140000820 3.5596001148  -999.250000
 2782.3655808 81.800003052 96.209197998 0.2714360058 2.6166999340 3.4769999981  -999.250000
 2782.5179808 82.099998474 94.291702271 0.2841780186 2.6164000034 3.4063000679  -999.250000
 2782.6703808 82.699989319 95.644500732 0.2961679995 2.6142001152 3.3473999500  -999.250000
 2782.8227808 82.699989319 95.477798462 0.2970470190 2.6154999733 3.2808001041  -999.250000
 2782.9751808 82.800003052 96.404602051 0.2968250215 2.6187000275 3.2123000622  -999.250000
 2783.1275808 82.999992371 96.372001648 0.2906419933 2.6205999851 3.1556000710  -999.250000
 2783.2799808 82.900001526 96.935203552 0.2849029899 2.6199998856 3.1087999344  -999.250000
 2783.4323808 82.800003052 100.19309998 0.2814899981 2.6196999550 3.0697000027  -999.250000
 2783.5847808 83.099998474 98.345397949 0.2874599993 2.6219999790 3.0366001129  -999.250000
 2783.7371808 82.800003052 95.042602539 0.2915529907 2.6263999939 3.0016000271  -999.250000
 2783.8895808 83.300003052 95.321502686 0.2960920036 2.6315999031 2.9509999752  -999.250000
 2784.0419808 83.699996948 95.937500000 0.2985239923 2.6359999180 2.9080998898  -999.250000
 2784.1943808 83.600006104 97.217597961 0.3031440079 2.6370000839 2.8613998890  -999.250000
 2784.3467808 84.000000000 99.890197754 0.2991009951 2.6338999271 2.8069000244  -999.250000
 2784.4991808 84.599998474 97.742698669 0.2877990007 2.6275000572 2.7504999638  -999.250000
 2784.6515808 84.500000000 97.555198669 0.2729130089 2.6224999428 2.7018001080  -999.250000
 2784.8039808 84.800003052 99.841003418 0.2659839988 2.6203000546 2.6512000561  -999.250000
 2784.9563808 85.499992371 100.93109894 0.2729649842 2.6203000546 2.5910000801  -999.250000
 2785.1087808 85.099998474 103.12550354 0.2903630137 2.6215999126 2.5327000618  -999.250000
 2785.2611808 85.599998474 104.27660370 0.2985799909 2.6222000122 2.4742999077  -999.250000
 2785.4135808 86.400009155 103.07859802 0.2978219986 2.6254999638 2.4196999073  -999.250000
 2785.5659808 86.500000000 98.292198181 0.3087890148 2.6289000511 2.3571999073  -999.250000
 2785.7183808 86.800003052 98.844596863 0.3049769998 2.6326000690 2.3043999672  -999.250000
 2785.8707808 87.199996948 99.686203003 0.3132239878 2.6342000961 2.2611999512  -999.250000
 2786.0231808 87.599998474 103.66470337 0.3021520078 2.6356999874 2.2179999352  -999.250000
 2786.1755808 87.699989319 104.27890015 0.3091219962 2.6368000507 2.1707999706  -999.250000
 2786.3279808 88.099998474 96.587402344 0.3051110208 2.6359999180 2.1215999126  -999.250000
 2786.4803808 88.300003052 95.908897400 0.3170500100 2.6350998878 2.0783998966  -999.250000
 2786.6327808 88.800003052 99.805198669 0.3271020055 2.6340000629 2.0411000252  -999.250000
 2786.7851808 89.199996948 106.40489960 0.3260329962 2.6387000084 2.0037999153  -999.250000
 2786.9375808 89.900001526 113.04129791 0.3330250084 2.6486999989 1.9715000391  -999.250000
 2787.0899808 89.900001526 111.92130280 0.3359489739 2.6586000919 1.9334000349  -999.250000
 2787.2423808 90.199989319 110.52010345 0.3355410099 2.6633000374 1.8875999451  -999.250000
 2787.3947808 90.199989319 104.87909698 0.3412350118 2.6591000557 1.8310999870  -999.250000
 2787.5471808 91.000000000 103.30359650 0.3501589894 2.6554999352 1.7805999517  -999.250000
 2787.6995808 92.099998474 103.45369720 0.3631689847 2.6443998814 1.7369999886  -999.250000
 2787.8519808 91.599998474 107.81770325 0.3725809753 2.6372001171 1.6935000420  -999.250000
 2788.0043808 93.300003052 107.64839935 0.3865370154 2.6285998821 1.6529999971  -999.250000
 2788.1567808 93.300003052 115.08509827 0.3863480091 2.6328999996 1.6203000546  -999.250000
 2788.3091808 92.800003052 111.10579681 0.3723860085 2.6303999424 1.5936000347  -999.250000
 2788.4615808 93.800003052 111.48090363 0.3485130072 2.6342000961 1.5745999813  -999.250000
 2788.6139808 93.099998474 107.50479889 0.3452190161 2.6277000904 1.5551999807  -999.250000
 2788.7663808 94.300003052 107.49800110 0.3407910168 2.6243999004 1.5338000059  -999.250000
 2788.9187808 94.000000000 106.07939911 0.3579989970 2.6159999371 1.5231000185  -999.250000
 2789.0711808 93.400001526 106.48870087 0.3625820279 2.6187000275 1.5377000570  -999.250000
 2789.2235808 93.699996948 104.01429749 0.3726820052 2.6289999485 1.5867999792  -999.250000
 2789.3759808 94.400001526 104.24089813 0.3411130011 2.6380999088 1.7059999704  -999.250000
 2789.5283808 95.599998474 102.73020172 0.3657779992 2.6396000385 1.8962999582  -999.250000
 2789.6807808 88.800003052 106.63849640 0.3708089888 2.6384999752 2.1266999245  -999.250000
 2789.8331808 86.000000000 100.66950226 0.4001950026 2.6396999359 2.4274001122  -999.250000
 2789.9855808 94.000000000 103.94640350 0.3875249922 2.5934000015 2.7769000530  -999.250000
 2790.1379808 94.599998474 107.90019989 0.3752889931 2.4851000309 3.1675999165  -999.250000
 2790.2903808 102.40000153 118.02749634 0.3963679969 2.3615999222 3.7341001034  -999.250000
 2790.4427808 106.30000305 121.37480164 0.3885360062 2.3020000458 4.4003000259  -999.250000
 2790.5951808 103.19999695 117.80500031 0.3941519856 2.3287000656 4.8152999878  -999.250000
 2790.7475808 101.69999695 115.59619904 0.4139889777 2.3691999912 4.9478998184  -999.250000
 2790.8999808 96.199996948 106.55979919 0.4235830009 2.4170000553 4.9876999855  -999.250000
 2791.0523808 89.300003052 99.574501038 0.3929779828 2.4728000164 5.0363998413  -999.250000
 2791.2047808 80.400001526 94.955596924 0.3782630265 2.5532000065 5.1628999710  -999.250000
 2791.3571808 74.300003052 87.648399353 0.3235860169 2.6110000610 5.3576998711  -999.250000
 2791.5095808 71.400001526 75.603698730 0.2471940070 2.6308999062 5.6479001045  -999.250000
 2791.6619808 69.199996948 62.113300323 0.1570490003 2.6236999035 6.1206998825  -999.250000
 2791.8143808 69.599998474 51.988998413 0.1074040011 2.6205999851 6.9390001297  -999.250000
 2791.9667808 66.400001526 50.511001587 0.0941040069 2.6240000725 7.8930001259  -999.250000
 2792.1191808 68.800003052 48.626499176 0.1134039983 2.6315000057 8.5278997421  -999.250000
 2792.2715808 67.000000000 48.959098816 0.1166940033 2.6270000935 8.7968997955  -999.250000
 2792.4239808 69.800003052 49.291599274 0.1073649973 2.6106998920 8.3843002319  -999.250000
 2792.5763808 71.000000000 47.776699066 0.1047189981 2.5871000290 7.4485998154  -999.250000
 2792.7287808 73.199996948 50.621799469 0.1084939986 2.5690999031 6.5503997803  -999.250000
 2792.8811808 78.500000000 60.044101715 0.1174120009 2.5608999729 5.8829998970  -999.250000
 2793.0335808 85.099998474 85.133300781 0.1378009915 2.5438001156 5.2958002090  -999.250000
 2793.1859808 94.199996948 105.30819702 0.2286829948 2.5065000057 4.7644000053  -999.250000
 2793.3383808 97.099998474 113.06770325 0.3219980001 2.4495999813 4.3277001381  -999.250000
 2793.4907808 95.099998474 105.30819702 0.3493439853 2.4093999863 3.9742000103  -999.250000
 2793.6431808 87.500000000 96.957397461 0.2863270044 2.4156999588 3.7708001137  -999.250000
 2793.7955808 80.900001526 90.380302429 0.2513529956 2.4667999744 3.7309999466  -999.250000
 2793.9479808 77.599998474 86.167999268 0.2597999871 2.5355999470 3.8162999153  -999.250000
 2794.1003808 75.400001526 85.207298279 0.2319779992 2.5806999207 3.9530000687  -999.250000
 2794.2527808 75.099998474 83.984596252 0.2116670012 2.5947999954 4.1999998093  -999.250000
