# LAS format log file from PETREL
# Project units are specified as depth units
#==================================================================
~Version information
VERS.   2.0:
WRAP.   NO:
#==================================================================
~Well
STRT .m      619.96198080 :
STOP .m      2949.0911808 :
STEP .m     0.15240000 :
NULL .        -999.250000 :
COMP.           : COMPANY
WELL.  SEM0400   : WELL
FLD.            : FIELD
LOC.            : LOCATION
SRVC.           : SERVICE COMPANY
DATE.  2020-05-08 20:04:29   : Log Export Date {yyyy-MM-dd HH:mm:ss}
PROV.           : PROVINCE
UWI.   SEM0400   : UNIQUE WELL ID
API.            : API NUMBER
#==================================================================
~Curve
DEPT .m                   : DEPTH
DT .us/ft                 : DT
GR .gAPI                  : GR
NPHI .m3/m3               : NPHI
RHOB .g/cm3               : RHOB
RT .ohm.m                 : RT
FACIES .                    : FACIES
~Parameter
#==================================================================
~Ascii
# ...
 1243.1255808 133.89999390 84.836097717 0.4325709939 2.3338999748 1.3712999821  -999.250000
 1243.2779808 145.50000000 85.898803711 0.4521049857 2.3269000053 1.3703000546  -999.250000
 1243.4303808 132.89999390 90.084098816 0.4545420110 2.3297998905 1.3693000078  -999.250000
 1243.5827808 129.80000305 89.291496277 0.4626139700 2.3366000652 1.3693000078  -999.250000
 1243.7351808 129.30000305 84.797897339 0.4361740053 2.3406999111 1.3693000078  -999.250000
 1243.8875808 129.80000305 76.200996399 0.4288659990 2.3208000660 1.3682999611  -999.250000
 1244.0399808 133.39999390 85.436302185 0.4104160070 2.3638999462 1.3682999611  -999.250000
 1244.1923808 128.39999390 87.949600220 0.4750109911 2.3420000076 1.3673000336  -999.250000
 1244.3447808 130.80000305 97.784202576 0.5537419915 2.3380999565 1.3644000292  -999.250000
 1244.4971808 141.30000305 87.673400879 0.6222980022 2.3197000027 1.3603999615  -999.250000
 1244.6495808 134.89999390 85.444602966 0.5733520389 2.2888000011 1.3565000296  -999.250000
 1244.8019808 127.80000305 82.102500916 0.5314899683 2.2606000900 1.3554999828  -999.250000
 1244.9543808 130.80000305 86.273101807 0.5105329752 2.2806999683 1.3585000038  -999.250000
 1245.1067808 122.30000305 86.098899841 0.4599260092 2.3503999710 1.3624000549  -999.250000
 1245.2591808 118.69999695 81.104698181 0.4286299944 2.3543999195 1.3644000292  -999.250000
 1245.4115808 133.80000305 81.291603088 0.4226570129 2.3378999233 1.3712999821  -999.250000
 1245.5639808 127.90000153 85.938697815 0.4547729790 2.3357999325 1.4056999683  -999.250000
 1245.7163808 118.40000153 91.194099426 0.4674209952 2.3733000755 1.4769999981  -999.250000
 1245.8687808 118.09999847 88.919097900 0.4840219915 2.3364000320 1.6155999899  -999.250000
 1246.0211808 124.00000000 84.664901733 0.4721799791 2.3020999432 1.8428000212  -999.250000
 1246.1735808 119.00000000 82.641197205 0.4894480109 2.2474000454 2.1633000374  -999.250000
 1246.3259808 130.10000610 77.497901917 0.5821740031 2.0908999443 2.6182999611  -999.250000
 1246.4783808 131.39999390 72.150299072 0.7308339477 1.8684999943 3.2551000118  -999.250000
 1246.6307808 124.00000000 55.087898254 0.8670369983 1.6303999424 4.1107997894  -999.250000
 1246.7831808 132.19999695 39.920299530 0.7618229389 1.6191999912 5.0694999695  -999.250000
 1246.9355808 121.69999695 30.160499573 0.7211620212 1.5987000465 5.6497998238  -999.250000
 1247.0879808 132.80000305 31.640199661 0.6379399896 1.6648999453 5.6774001122  -999.250000
 1247.2403808 139.10000610 43.583198547 0.6695629954 1.6755000353 5.2656998634  -999.250000
 1247.3927808 138.80000305 64.855903625 0.6341350079 1.8594000340 4.3214998245  -999.250000
 1247.5451808 133.89999390 83.731300354 0.5784649849 2.0659999847 3.4514000416  -999.250000
 1247.6975808 132.89999390 93.970001221 0.4978020191 2.2409000397 2.8747999668  -999.250000
 1247.8499808 127.80000305 94.567298889 0.5058529973 2.2597999573 2.5241999626  -999.250000
 1248.0023808 127.59999847 92.976699829 0.5146839619 2.2632999420 2.3610999584  -999.250000
 1248.1547808 117.69998932 87.811996460 0.4891420007 2.2894999981 2.3097000122  -999.250000
 1248.3071808 111.40000916 84.864700317 0.4468619823 2.3454000950 2.3031001091  -999.250000
 1248.4595808 107.59999847 77.617599487 0.3455849886 2.4335000515 2.3680000305  -999.250000
 1248.6119808 99.800003052 73.142402649 0.2908529937 2.4872000217 2.5343000889  -999.250000
 1248.7643808 96.599998474 68.047798157 0.2667700052 2.5016999245 2.6747999191  -999.250000
 1248.9167808 94.699996948 67.157897949 0.2842389941 2.4886000156 2.7163999081  -999.250000
 1249.0691808 93.099998474 73.111099243 0.3114660084 2.4948999882 2.6907000542  -999.250000
 1249.2215808 93.600006104 80.588096619 0.3362060189 2.4456999302 2.5962998867  -999.250000
 1249.3739808 97.699989319 85.692100525 0.3863449991 2.4683001041 2.4330000877  -999.250000
 1249.5263808 102.00000000 86.575996399 0.4217520058 2.4300999641 2.2386999130  -999.250000
 1249.6787808 102.69998932 84.269203186 0.4378139973 2.3989000320 2.0448000431  -999.250000
 1249.8311808 108.69999695 86.807601929 0.4495259821 2.3926000595 1.8876999617  -999.250000
 1249.9835808 110.90000153 84.168701172 0.4923030138 2.3261001110 1.7792999744  -999.250000
 1250.1359808 114.50000000 87.265296936 0.5047900081 2.3273000717 1.6994999647  -999.250000
 1250.2883808 112.50000000 86.790298462 0.4925270081 2.3392000198 1.6396000385  -999.250000
 1250.4407808 115.19998932 87.507499695 0.4306440055 2.4036002159 1.6032999754  -999.250000
 1250.5931808 117.69998932 86.750701904 0.4207189977 2.3996999264 1.5865999460  -999.250000
 1250.7455808 120.59999847 87.486099243 0.4502759874 2.3554000854 1.5796999931  -999.250000
 1250.8979808 129.69999695 87.529701233 0.4680329859 2.3269000053 1.5757999420  -999.250000
 1251.0503808 118.69999695 86.279502869 0.4532720149 2.3550000191 1.5757999420  -999.250000
 1251.2027808 112.80000305 83.437500000 0.4343419969 2.3826999664 1.5836000443  -999.250000
 1251.3551808 112.90000153 80.091400146 0.4306399822 2.3794999123 1.6051000357  -999.250000
 1251.5075808 107.19999695 80.328796387 0.4356370270 2.3812999725 1.6482000351  -999.250000
 1251.6599808 110.59999847 78.600898743 0.4198569953 2.3798000813 1.7237999439  -999.250000
 1251.8123808 112.50000000 83.382896423 0.4403829873 2.3714001179 1.8315999508  -999.250000
 1251.9647808 110.19998932 83.989303589 0.4391540289 2.3705000877 1.9725999832  -999.250000
 1252.1171808 110.30000305 82.426902771 0.4490829706 2.3469998837 2.1670999527  -999.250000
 1252.2695808 107.69998932 74.236801147 0.4054460227 2.3475999832 2.4181001186  -999.250000
 1252.4219808 104.40000153 63.492000580 0.3608319759 2.3455998898 2.6981999874  -999.250000
 1252.5743808 101.00000000 58.233001709 0.3044910133 2.3826999664 3.0171000957  -999.250000
 1252.7267808 97.699989319 55.474899292 0.2780160010 2.4012000561 3.3689000607  -999.250000
 1252.8791808 97.099998474 59.974998474 0.2557559907 2.3403999805 3.6874001026  -999.250000
 1253.0315808 96.900001526 60.000400543 0.2684170008 2.3480000496 3.8887000084  -999.250000
 1253.1839808 96.100006104 64.140899658 0.2775259912 2.3626999855 3.9451999664  -999.250000
 1253.3363808 98.400001526 64.621398926 0.2902420163 2.3894000053 3.9159998894  -999.250000
 1253.4887808 97.800003052 70.943099976 0.2757900059 2.4203999043 3.8380999565  -999.250000
 1253.6411808 97.099998474 72.052200317 0.2855559886 2.4398000240 3.7620999813  -999.250000
 1253.7935808 96.599998474 68.577102661 0.2740200162 2.4451000690 3.7211999893  -999.250000
 1253.9459808 96.300003052 68.946800232 0.3029450178 2.4377000332 3.7114000320  -999.250000
 1254.0983808 97.199996948 62.112201691 0.3120000064 2.4279999733 3.7446000576  -999.250000
 1254.2507808 97.699989319 60.567600250 0.3153519928 2.4093999863 3.8146998882  -999.250000
 1254.4031808 98.400001526 53.387199402 0.3016500175 2.3873999119 3.8868000507  -999.250000
 1254.5555808 97.800003052 47.325901031 0.2974010110 2.3687996864 3.9628000259  -999.250000
 1254.7079808 95.800003052 43.022998810 0.2907550037 2.3580000401 4.0446000099  -999.250000
 1254.8603808 96.599998474 39.155300140 0.2742719948 2.3501999378 4.0952000618  -999.250000
 1255.0127808 95.499992371 36.997898102 0.2671799958 2.3373000622 4.1213998795  -999.250000
 1255.1651808 95.699996948 36.515998840 0.2702009976 2.3155000210 4.1360001564  -999.250000
 1255.3175808 98.199996948 33.869998932 0.2781539857 2.2850999832 4.1507000923  -999.250000
 1255.4699808 98.500000000 30.083400726 0.2849720120 2.2500998974 4.1932001114  -999.250000
 1255.6223808 99.000000000 25.893199921 0.2928510010 2.2140998840 4.3152999878  -999.250000
 1255.7747808 99.599998474 24.097900391 0.3046880066 2.1835000515 4.5457000732  -999.250000
 1255.9271808 101.10000610 23.200599670 0.3026910126 2.1612000465 4.8017997742  -999.250000
 1256.0795808 102.09999847 22.741800308 0.2894929945 2.1466999054 4.9755001068  -999.250000
 1256.2319808 97.900001526 22.632900238 0.2977969944 2.2016000748 5.0700998306  -999.250000
