# LAS format log file from PETREL
# Project units are specified as depth units
#==================================================================
~Version information
VERS.   2.0:
WRAP.   NO:
#==================================================================
~Well
STRT .m      619.96198080 :
STOP .m      2949.0911808 :
STEP .m     0.15240000 :
NULL .        -999.250000 :
COMP.           : COMPANY
WELL.  SEM0400   : WELL
FLD.            : FIELD
LOC.            : LOCATION
SRVC.           : SERVICE COMPANY
DATE.  2020-05-08 20:04:29   : Log Export Date {yyyy-MM-dd HH:mm:ss}
PROV.           : PROVINCE
UWI.   SEM0400   : UNIQUE WELL ID
API.            : API NUMBER
#==================================================================
~Curve
DEPT .m                   : DEPTH
DT .us/ft                 : DT
GR .gAPI                  : GR
NPHI .m3/m3               : NPHI
RHOB .g/cm3               : RHOB
RT .ohm.m                 : RT
FACIES .                    : FACIES
~Parameter
#==================================================================
~Ascii
# ...
 1388.9723808 103.09999847 89.020301819 0.3860979974 2.4742000103 2.3570001125  -999.250000
 1389.1247808 103.09999847 93.368202209 0.3918809891 2.4684000015 2.3764998913  -999.250000
 1389.2771808 103.40000153 93.515602112 0.3848210275 2.4616000652 2.3863000870  -999.250000
 1389.4295808 103.40000153 93.073402405 0.3721810281 2.4509000778 2.3882000446  -999.250000
 1389.5819808 103.69999695 91.999099731 0.3891460001 2.4484999180 2.3803999424  -999.250000
 1389.7343808 103.80000305 93.515602112 0.4012369812 2.4500000477 2.3647999763  -999.250000
 1389.8867808 104.00000000 93.894996643 0.4166709781 2.4540998936 2.3415000439  -999.250000
 1390.0391808 104.80000305 92.041702271 0.4071030021 2.4565999508 2.3141999245  -999.250000
 1390.1915808 104.40000153 90.062698364 0.3817179799 2.4567000866 2.2811000347  -999.250000
 1390.3439808 104.40000153 91.368103027 0.3551220000 2.4537000656 2.2441000938  -999.250000
 1390.4963808 104.80000305 94.474601746 0.3852809966 2.4509000778 2.2051000595  -999.250000
 1390.6487808 104.59999847 94.714103699 0.3683739901 2.4516999722 2.1719999313  -999.250000
 1390.8011808 104.90000153 94.122497559 0.3799539804 2.4576001167 2.1407999992  -999.250000
 1390.9535808 105.59999847 94.714103699 0.3696599901 2.4665999413 2.0999000072  -999.250000
 1391.1059808 105.59999847 92.569900513 0.3930560052 2.4702999592 2.0590000153  -999.250000
 1391.2583808 106.40000916 93.900703430 0.3910940289 2.4644999504 2.0394999981  -999.250000
 1391.4107808 107.80000305 97.449699402 0.3791559935 2.4511001110 2.0492999554  -999.250000
 1391.5631808 106.90000153 102.18170166 0.3633480072 2.4423000813 2.1149001122  -999.250000
 1391.7155808 106.90000153 100.18540192 0.3636560142 2.4432001114 2.2506999969  -999.250000
 1391.8679808 106.10000610 93.900703430 0.3810310066 2.4558999538 2.4082999229  -999.250000
 1392.0203808 101.90000153 86.654800415 0.3568069935 2.4719998837 2.5639998913  -999.250000
 1392.1727808 91.100006104 79.187103271 0.2984490097 2.4934999943 2.7297999859  -999.250000
 1392.3251808 85.000000000 73.789703369 0.2543280125 2.5120999813 2.9114000797  -999.250000
 1392.4775808 78.900009155 73.641799927 0.2325790077 2.5209000111 3.1108000278  -999.250000
 1392.6299808 79.000000000 69.797096252 0.2482320070 2.5130999088 3.2850000858  -999.250000
 1392.7823808 83.699996948 66.728698730 0.2687889934 2.4986999035 3.3654000759  -999.250000
 1392.9347808 88.400001526 59.963401794 0.2835119963 2.4874000549 3.3831999302  -999.250000
 1393.0871808 90.099998474 60.998500824 0.2813639939 2.4798998833 3.3891000748  -999.250000
 1393.2395808 92.000000000 65.693496704 0.2967659831 2.4700999260 3.3929998875  -999.250000
 1393.3919808 93.699996948 67.357101440 0.2886129916 2.4556999207 3.4223999977  -999.250000
 1393.5443808 95.599998474 62.588199615 0.2676659822 2.4388999939 3.4616000652  -999.250000
 1393.6967808 94.099998474 55.157398224 0.2433909923 2.4310998917 3.4597001076  -999.250000
 1393.8491808 94.599998474 55.009601593 0.2371249944 2.4370999336 3.3884000778  -999.250000
 1394.0015808 93.600006104 66.839599609 0.2500280142 2.4584999084 3.2774000168  -999.250000
 1394.1539808 91.199996948 83.697303772 0.2763569951 2.4765000343 3.1563000679  -999.250000
 1394.3063808 94.500000000 90.227203369 0.2947870195 2.4860000610 3.0443999767  -999.250000
 1394.4587808 96.800003052 92.815498352 0.3237760067 2.4846000671 2.9339001179  -999.250000
 1394.6111808 99.900001526 91.790397644 0.3444889784 2.4828999043 2.8355000019  -999.250000
 1394.7635808 102.19999695 92.498100281 0.3612879813 2.4830999374 2.7834000587  -999.250000
 1394.9159808 101.50000000 93.593299866 0.3586259782 2.4865000248 2.7709999084  -999.250000
 1395.0683808 99.099998474 90.666702271 0.3434469998 2.4930000305 2.8231999874  -999.250000
 1395.2207808 98.300003052 82.586303711 0.3421670198 2.4976000786 3.0255999565  -999.250000
 1395.3731808 95.900001526 73.037902832 0.3247050047 2.4949998856 3.2874000072  -999.250000
 1395.5255808 95.300003052 64.153297424 0.2947759926 2.4774000645 3.5936999321  -999.250000
 1395.6779808 94.099998474 59.870601654 0.2555429935 2.4526000023 3.9535999298  -999.250000
 1395.8303808 92.500000000 62.510101318 0.2497739941 2.4351999760 4.3351998329  -999.250000
 1395.9827808 91.699996948 62.658298492 0.2588390112 2.4342000484 4.6968002319  -999.250000
 1396.1351808 90.400001526 65.103599548 0.2459670007 2.4500000477 5.0219001770  -999.250000
 1396.2875808 88.400001526 62.855499268 0.2465229928 2.4658999443 5.2894001007  -999.250000
 1396.4399808 90.400001526 61.854900360 0.2310190052 2.4695999622 5.4650998116  -999.250000
 1396.5923808 90.300003052 56.507301331 0.2185479999 2.4518001080 5.5015997887  -999.250000
 1396.7447808 87.300003052 46.373901367 0.2187359929 2.4159998894 5.4934000969  -999.250000
 1396.8971808 87.999992371 37.823299408 0.2408900112 2.3712000847 5.4528999329  -999.250000
 1397.0495808 88.699996948 32.372699738 0.2827140093 2.3289999962 5.4082999229  -999.250000
 1397.2019808 90.599998474 36.987300873 0.3109109998 2.2955999374 5.3636999130  -999.250000
 1397.3543808 95.199989319 40.776599884 0.3193190098 2.2795000076 5.2866997719  -999.250000
 1397.5067808 94.099998474 44.806198120 0.3058460057 2.2855999470 5.2055997849  -999.250000
 1397.6591808 91.500000000 48.059398651 0.2982029915 2.3234999180 5.1651000977  -999.250000
 1397.8115808 89.400001526 51.608398438 0.2989290059 2.3771998882 5.1894001961  -999.250000
 1397.9639808 85.300003052 50.869098663 0.2772629857 2.4196999073 5.2460999489  -999.250000
 1398.1163808 81.500000000 46.487998962 0.2609440088 2.4237999916 5.2582998276  -999.250000
 1398.2687808 77.900001526 42.338798523 0.2322290093 2.4797999859 5.2097001076  -999.250000
 1398.4211808 69.599998474 39.639598846 0.2033659965 2.5281000137 5.1002001762  -999.250000
 1398.5735808 71.199996948 40.160598755 0.1874889880 2.5508999825 4.8653998375  -999.250000
 1398.7259808 75.599998474 46.709899902 0.2188030034 2.4711000919 4.5357999802  -999.250000
 1398.8783808 83.400001526 58.009700775 0.2557510138 2.4577999115 4.1298999786  -999.250000
 1399.0307808 91.900001526 69.107597351 0.2848959863 2.4543001652 3.7121999264  -999.250000
 1399.1831808 93.300003052 80.090698242 0.3096050024 2.4677000046 3.3062999249  -999.250000
 1399.3355808 93.199996948 91.745201111 0.3170479834 2.4909999371 2.9240999222  -999.250000
 1399.4879808 95.599998474 97.775001526 0.3208999932 2.5044000149 2.6205999851  -999.250000
 1399.6403808 96.599998474 101.59739685 0.3234570026 2.5109000206 2.4395999908  -999.250000
 1399.7927808 98.900009155 103.51309967 0.3517340124 2.5125999451 2.3752000332  -999.250000
 1399.9451808 101.30000305 103.41359711 0.3797230124 2.5125000477 2.3954999447  -999.250000
 1400.0975808 102.80000305 102.00389862 0.3723759949 2.5120000839 2.5176000595  -999.250000
 1400.2499808 104.80000305 97.266502380 0.3665039837 2.5053000450 2.7406001091  -999.250000
 1400.4023808 98.900009155 86.883499146 0.3288759887 2.4983000755 3.0606999397  -999.250000
 1400.5547808 91.599998474 75.948196411 0.2737109959 2.5013000965 3.4440999031  -999.250000
 1400.7071808 85.599998474 61.043201447 0.1968129873 2.5215001106 3.9391999245  -999.250000
 1400.8595808 83.900009155 56.268001556 0.1758359969 2.5376000404 4.6953001022  -999.250000
 1401.0119808 86.699996948 54.479301453 0.1910720021 2.5265998840 5.5220999718  -999.250000
 1401.1643808 91.699996948 58.816299438 0.2030209899 2.4893000126 5.9331998825  -999.250000
 1401.3167808 89.800003052 57.551700592 0.2030290067 2.4535000324 6.0191998482  -999.250000
 1401.4691808 89.500000000 55.397800446 0.1912039965 2.4368999004 5.6617999077  -999.250000
 1401.6215808 88.199996948 58.647598267 0.1990419924 2.4386999607 5.0023999214  -999.250000
 1401.7739808 88.400001526 65.654296875 0.2164570093 2.4470000267 4.3628997803  -999.250000
 1401.9263808 90.300003052 79.629898071 0.2430240065 2.4597001076 3.8547000885  -999.250000
 1402.0787808 93.500000000 90.777198792 0.2768000066 2.4735999107 3.4712998867  -999.250000
