# LAS format log file from PETREL
# Project units are specified as depth units
#==================================================================
~Version information
VERS.   2.0:
WRAP.   NO:
#==================================================================
~Well
STRT .m      619.96198080 :
STOP .m      2949.0911808 :
STEP .m     0.15240000 :
NULL .        -999.250000 :
COMP.           : COMPANY
WELL.  SEM0400   : WELL
FLD.            : FIELD
LOC.            : LOCATION
SRVC.           : SERVICE COMPANY
DATE.  2020-05-08 20:04:29   : Log Export Date {yyyy-MM-dd HH:mm:ss}
PROV.           : PROVINCE
UWI.   SEM0400   : UNIQUE WELL ID
API.            : API NUMBER
#==================================================================
~Curve
DEPT .m                   : DEPTH
DT .us/ft                 : DT
GR .gAPI                  : GR
NPHI .m3/m3               : NPHI
RHOB .g/cm3               : RHOB
RT .ohm.m                 : RT
FACIES .                    : FACIES
~Parameter
#==================================================================
~Ascii
# ...
 2012.1359808 87.599998474 91.196601868 0.3500179946 2.5775001049 2.5211999416  -999.250000
 2012.2883808 87.800003052 90.970596313 0.3310390115 2.5882000923 2.5037000179  -999.250000
 2012.4407808 87.699989319 92.837997437 0.3435570002 2.5936999321 2.4900000095  -999.250000
 2012.5931808 87.900001526 94.799499512 0.3611309826 2.5933001041 2.4783000946  -999.250000
 2012.7455808 87.999992371 98.228401184 0.4000809789 2.5869998932 2.4586999416  -999.250000
 2012.8979808 88.300003052 99.413696289 0.3978799880 2.5817999840 2.4314000607  -999.250000
 2013.0503808 88.900009155 97.364196777 0.3918800056 2.5843999386 2.3891999722  -999.250000
 2013.2027808 88.699996948 94.256599426 0.3685910106 2.5887999535 2.3336000443  -999.250000
 2013.3551808 88.500000000 95.453399658 0.3678410053 2.5945999622 2.2685999870  -999.250000
 2013.5075808 88.800003052 94.122497559 0.3540499806 2.5941998959 2.1944000721  -999.250000
 2013.6599808 89.400001526 98.854598999 0.3744480014 2.5915999413 2.1129000187  -999.250000
 2013.8123808 90.099998474 99.615898132 0.3627989888 2.5969998837 2.0243000984  -999.250000
 2013.9647808 91.199996948 101.18299866 0.3981119990 2.5845999718 1.9293999672  -999.250000
 2014.1171808 92.999992371 99.127998352 0.4025669992 2.5690000057 1.8466000557  -999.250000
 2014.2695808 94.199996948 95.527099609 0.4101919830 2.5462000370 1.8079999685  -999.250000
 2014.4219808 94.800003052 97.135398865 0.4084750116 2.5443999767 1.8018000126  -999.250000
 2014.5743808 96.199996948 96.292701721 0.4413410127 2.5148000717 1.8739000559  -999.250000
 2014.7267808 97.000000000 101.74050140 0.4327170253 2.5160999298 2.0660998821  -999.250000
 2014.8791808 97.999992371 113.35839844 0.4467969835 2.5225999355 2.3721001148  -999.250000
 2015.0315808 101.40000916 131.50469971 0.5026080012 2.5211999416 2.7392001152  -999.250000
 2015.1839808 109.40000153 156.84519958 0.6539440155 2.4978001118 3.1900000572  -999.250000
 2015.3363808 118.09999847 158.46060181 0.8622229695 2.3592000008 3.7846999168  -999.250000
 2015.4887808 124.30000305 145.58039856 0.9932830334 2.1940999031 4.5514001846  -999.250000
 2015.6411808 128.89999390 113.54769897 1.0000029802 1.9995000362 5.3421001434  -999.250000
 2015.7935808 129.80000305 90.071296692 0.8978930116 1.9175999165 5.8266000748  -999.250000
 2015.9459808 124.69999695 79.772598267 0.6370099783 2.0155999660 6.0102000237  -999.250000
 2016.0983808 112.50000000 79.091499329 0.3995449841 2.2046000957 5.7439999580  -999.250000
 2016.2507808 100.09999847 89.609901428 0.2891510129 2.4105999470 5.0742998123  -999.250000
 2016.4031808 87.900001526 95.359298706 0.2648259997 2.5443000793 4.4482998848  -999.250000
 2016.5555808 82.699989319 99.838500977 0.2945809960 2.5818998814 4.0475001335  -999.250000
 2016.7079808 81.000000000 96.151702881 0.3295650184 2.5957000256 3.7151999474  -999.250000
 2016.8603808 82.900001526 95.580596924 0.3180719912 2.5989000797 3.4224998951  -999.250000
 2017.0127808 84.900001526 93.810302734 0.3120120168 2.5959999561 3.1865999699  -999.250000
 2017.1651808 83.500000000 97.735298157 0.3068290055 2.5948998928 2.9816000462  -999.250000
 2017.3175808 83.900009155 97.241302490 0.3525939882 2.5978999138 2.7725000381  -999.250000
 2017.4699808 84.300003052 98.751800537 0.4159049988 2.6019001007 2.5694999695  -999.250000
 2017.6223808 86.699996948 98.720298767 0.4398490191 2.6023001671 2.3959000111  -999.250000
 2017.7747808 87.500000000 99.753997803 0.4128469825 2.5780000687 2.2741000652  -999.250000
 2017.9271808 89.199996948 99.752799988 0.3775310218 2.5892000198 2.2235999107  -999.250000
 2018.0795808 90.900001526 98.300300598 0.3701719940 2.5741000175 2.2139000893  -999.250000
 2018.2319808 92.099998474 92.614601135 0.3919090033 2.5371000767 2.2235999107  -999.250000
 2018.3843808 92.300003052 88.393997192 0.3594390154 2.5346999168 2.2488999367  -999.250000
 2018.5367808 90.400001526 87.104301453 0.3400920033 2.4983000755 2.2857999802  -999.250000
 2018.6891808 89.000000000 93.552299500 0.3186869919 2.5596001148 2.3382999897  -999.250000
 2018.8415808 88.300003052 97.241302490 0.3494710028 2.5578999519 2.4005000591  -999.250000
 2018.9939808 89.099998474 98.017402649 0.3594100177 2.5281999111 2.4451999664  -999.250000
 2019.1463808 91.100006104 97.338096619 0.3659889996 2.4986000061 2.4607000351  -999.250000
 2019.2987808 95.000000000 95.009803772 0.3780229986 2.4774999619 2.4549000263  -999.250000
 2019.4511808 96.699996948 95.601303101 0.3835279942 2.4598999023 2.4316000938  -999.250000
 2019.6035808 98.400001526 96.266700745 0.3966410160 2.4493000507 2.4044001102  -999.250000
 2019.7559808 98.500000000 99.555397034 0.4173499942 2.4472999573 2.3945999146  -999.250000
 2019.9083808 98.500000000 97.412002563 0.4032379985 2.4486999512 2.3966000080  -999.250000
 2020.0607808 97.900001526 98.410896301 0.4039960206 2.4855000973 2.4082000256  -999.250000
 2020.2131808 99.199996948 97.527099609 0.3940039873 2.4777998924 2.4451999664  -999.250000
 2020.3655808 100.19998932 99.699600220 0.4236150086 2.4605000019 2.5055000782  -999.250000
 2020.5179808 102.09999847 95.132896423 0.4514890015 2.3606998920 2.5811998844  -999.250000
 2020.6703808 103.19999695 89.167701721 0.4383560121 2.3496999741 2.6607000828  -999.250000
 2020.8227808 104.00000000 84.230300903 0.4408240020 2.3485999107 2.7400000095  -999.250000
 2020.9751808 104.30000305 86.146301270 0.5122420192 2.3406999111 2.8269999027  -999.250000
 2021.1275808 105.30000305 87.325401306 0.5347239971 2.3162000179 2.9196999073  -999.250000
 2021.2799808 106.69999695 92.115402222 0.5592960119 2.2834999561 3.0141000748  -999.250000
 2021.4323808 106.80000305 94.252502441 0.4993399680 2.2599999905 3.1257998943  -999.250000
 2021.5847808 107.99999237 99.484596252 0.5091599822 2.2469000816 3.2585999966  -999.250000
 2021.7371808 109.69999695 91.452201843 0.4752230048 2.2511000633 3.3796000481  -999.250000
 2021.8895808 105.49999237 71.832901001 0.4393539727 2.2750999928 3.4818000793  -999.250000
 2022.0419808 97.000000000 49.889701843 0.3443299830 2.3090999126 3.5685999393  -999.250000
 2022.1943808 92.400001526 32.369400024 0.2521089911 2.3375999928 3.6535000801  -999.250000
 2022.3467808 89.199996948 25.976499557 0.1750189960 2.3526000977 3.7672998905  -999.250000
 2022.4991808 85.199989319 23.986900330 0.1807090044 2.3629000187 3.8945999146  -999.250000
 2022.6515808 84.400001526 25.918199539 0.1900970042 2.3663001060 3.9660000801  -999.250000
 2022.8039808 85.499992371 27.984300613 0.1904149950 2.3673000336 3.9698998928  -999.250000
 2022.9563808 86.000000000 37.929000854 0.1916460097 2.3740999699 3.9293000698  -999.250000
 2023.1087808 85.699996948 51.048599243 0.2053370029 2.4114999771 3.8617999554  -999.250000
 2023.2611808 85.300003052 68.228401184 0.2332699895 2.4881999493 3.8231999874  -999.250000
 2023.4135808 81.400009155 79.408996582 0.2706750035 2.5646998882 3.8231999874  -999.250000
 2023.5659808 80.599998474 83.623397827 0.3007760048 2.6115999222 3.8952999115  -999.250000
 2023.7183808 80.599998474 85.841499329 0.2925049961 2.5950000286 4.0341000557  -999.250000
 2023.8707808 80.599998474 80.256401062 0.2792699933 2.5322999954 4.1956000328  -999.250000
 2024.0231808 80.800003052 73.695899963 0.2205349952 2.5808000565 4.3545999527  -999.250000
 2024.1755808 80.199989319 63.718700409 0.2028910071 2.5638999939 4.5423998833  -999.250000
 2024.3279808 77.800003052 63.943099976 0.1809810102 2.5864000320 4.8166999817  -999.250000
 2024.4803808 75.900001526 69.278900146 0.1913249940 2.5274000168 5.1466999054  -999.250000
 2024.6327808 74.000000000 75.033599854 0.1893219948 2.6403000355 5.4493999481  -999.250000
 2024.7851808 72.900001526 72.771202087 0.1919589937 2.5968999863 5.6346001625  -999.250000
 2024.9375808 72.400001526 71.113098145 0.1912129968 2.5992999077 5.8032999039  -999.250000
 2025.0899808 73.199996948 70.155097961 0.1931969970 2.5959999561 5.9542999268  -999.250000
 2025.2423808 71.199996948 65.517700195 0.1874410063 2.5752000809 6.1244997978  -999.250000
