# LAS format log file from PETREL
# Project units are specified as depth units
#==================================================================
~Version information
VERS.   2.0:
WRAP.   NO:
#==================================================================
~Well
STRT .m      598.62601128 :
STOP .m      2812.0836113 :
STEP .m     0.15240000 :
NULL .        -999.250000 :
COMP.           : COMPANY
WELL.  SEM0410   : WELL
FLD.            : FIELD
LOC.            : LOCATION
SRVC.           : SERVICE COMPANY
DATE.  2020-05-08 20:04:55   : Log Export Date {yyyy-MM-dd HH:mm:ss}
PROV.           : PROVINCE
UWI.   SEM0410   : UNIQUE WELL ID
API.            : API NUMBER
#==================================================================
~Curve
DEPT .m                   : DEPTH
DT .us/ft                 : DT
GR .gAPI                  : GR
NPHI .m3/m3               : NPHI
RHOB .g/cm3               : RHOB
RT .ohm.m                 : RT
~Parameter
#==================================================================
~Ascii
# ...
 1329.2316113 107.05519867 80.114196777 0.3740249872 2.5204000473 1.5865999460
 1329.3840113 110.12010193 77.002899170 0.3732279837 2.5278999805 1.5757000446
 1329.5364113 111.19999695 74.420700073 0.3593090177 2.5339999199 1.5917999744
 1329.6888113 109.76670837 72.622200012 0.3392679989 2.5367000103 1.6489000320
 1329.8412113 108.80459595 72.464996338 0.2993769944 2.5404999256 1.7407000065
 1329.9936113 102.25140381 67.925300598 0.2601390183 2.5423998833 1.8695000410
 1330.1460113 95.673789978 62.033298492 0.2149239928 2.5360999107 2.0388000011
 1330.2984113 90.613601685 56.332199097 0.2025889903 2.5197999477 2.2506999969
 1330.4508113 87.497703552 54.954101563 0.2057480067 2.5037000179 2.5160000324
 1330.6032113 87.060401917 55.192600250 0.2154400051 2.4976999760 2.8475000858
 1330.7556113 88.046302795 57.757099152 0.2236059904 2.5018000603 3.1984000206
 1330.9080113 89.150901794 60.187000275 0.2345989943 2.5081000328 3.4821999073
 1331.0604113 90.346092224 63.243499756 0.2400090098 2.5137999058 3.6663999557
 1331.2128113 91.060302734 65.331398010 0.2339959890 2.5190999508 3.7235999107
 1331.3652113 90.614303589 66.516899109 0.2222010046 2.5220000744 3.6914999485
 1331.5176113 90.820503235 68.376502991 0.2134970129 2.5195000172 3.6106998920
 1331.6700113 89.863906860 68.913597107 0.2156010121 2.5113999844 3.4907000065
 1331.8224113 89.460197449 67.641403198 0.2255330086 2.5030000210 3.3485000134
 1331.9748113 90.705802917 66.248497009 0.2399580032 2.4993999004 3.1879999638
 1332.1272113 92.535697937 64.038101196 0.2586880028 2.5013999939 3.0021998882
 1332.2796113 95.801193237 66.073997498 0.2810800076 2.5058000088 2.8148000240
 1332.4320113 98.760597229 70.214698792 0.3004570007 2.5088000298 2.6500000954
 1332.5844113 101.03040314 74.726303101 0.3101069927 2.5095999241 2.4809999466
 1332.7368113 101.86499786 78.581100464 0.3151440024 2.5090999603 2.3048000336
 1332.8892113 101.44499969 79.450500488 0.3064599931 2.5074000359 2.1647999287
 1333.0416113 101.65499878 77.709602356 0.3054549992 2.5058000088 2.0662000179
 1333.1940113 102.35489655 74.315498352 0.3127070069 2.5044000149 1.9930000305
 1333.3464113 103.24980164 74.613700867 0.3505630195 2.5058999062 1.9302999973
 1333.4988113 103.92489624 76.689598083 0.3728969991 2.5114998817 1.8775999546
 1333.6512113 104.61969757 75.672798157 0.3582929969 2.5188999176 1.8313000202
 1333.8036113 103.34100342 70.514801025 0.3247230053 2.5281000137 1.7865999937
 1333.9560113 102.11029816 65.018798828 0.3052279949 2.5346000195 1.7480000257
 1334.1084113 100.60109711 62.022800446 0.2991220057 2.5390999317 1.7105000019
 1334.2608113 98.731101990 62.458698273 0.3127419949 2.5381000042 1.6693999767
 1334.4132113 101.08679962 64.401702881 0.3240199983 2.5359001160 1.6339999437
 1334.5656113 103.54399872 70.875701904 0.3370040059 2.5309998989 1.6073999405
 1334.7180113 105.10359955 76.172996521 0.3649410009 2.5262000561 1.5823999643
 1334.8704113 106.21929932 79.176803589 0.3884980083 2.5209999084 1.5612000227
 1335.0228113 106.62979889 79.063796997 0.3896480203 2.5171000957 1.5493999720
 1335.1752113 107.41390228 83.556602478 0.3719850183 2.5085999966 1.5451999903
 1335.3276113 108.83820343 89.025703430 0.3605939746 2.4907999039 1.5456000566
 1335.4800113 109.59458923 91.118797302 0.3775230050 2.4640998840 1.5482000113
 1335.6324113 110.21900177 87.295700073 0.3768389821 2.4382998943 1.5511000156
 1335.7848113 111.14869690 81.852996826 0.3671350181 2.4221000671 1.5554000139
 1335.9372113 110.72170258 76.975997925 0.3543690145 2.4163000584 1.5595999956
 1336.0896113 110.75399780 74.544097900 0.3420180082 2.4131999016 1.5552999973
 1336.2420113 112.03749847 75.755401611 0.3441579938 2.4086000919 1.5331000090
 1336.3944113 113.18350220 78.818099976 0.3504930139 2.4086000919 1.4953000546
 1336.5468113 116.80639648 79.010902405 0.4043329954 2.4165000916 1.4549000263
 1336.6992113 118.60000610 81.110397339 0.4274019897 2.4286000729 1.4162000418
 1336.8516113 119.57230377 83.837699890 0.4380829930 2.4368999004 1.3816000223
 1337.0040113 119.64630127 84.241699219 0.4238109887 2.4372999668 1.3555999994
 1337.1564113 116.74310303 84.477798462 0.4353659749 2.4323999882 1.3367999792
 1337.3088113 114.71679688 83.847801208 0.4314469993 2.4191000462 1.3315000534
 1337.4612113 113.36339569 84.084899902 0.4433269799 2.3852999210 1.3472000360
 1337.6136113 115.45610046 83.269096375 0.4645389915 2.3234000206 1.3815000057
 1337.7660113 121.36949921 82.320999146 0.5023109913 2.2579998970 1.4299000502
 1337.9184113 126.52030182 84.796203613 0.4836640060 2.2283000946 1.4831000566
 1338.0708113 129.29519653 87.474899292 0.4308190048 2.2497999668 1.5331000090
 1338.2232113 127.53939819 90.589797974 0.3874309957 2.2909998894 1.5880999565
 1338.3756113 123.02739716 90.523803711 0.3822829723 2.3232998848 1.6554000378
 1338.5280113 121.23529816 87.278198242 0.3916339874 2.3413999081 1.7194000483
 1338.6804113 119.38749695 84.083297729 0.4028230011 2.3605000973 1.7640999556
 1338.8328113 117.62329865 84.522903442 0.4036850035 2.3870999813 1.7967000008
 1338.9852113 116.87640381 87.695800781 0.3885630071 2.4191999435 1.8327000141
 1339.1376113 113.52919769 87.207000732 0.3569130003 2.4516000748 1.8804999590
 1339.2900113 108.17659760 84.054298401 0.3197669983 2.4793000221 1.9387999773
 1339.4424113 101.99469757 80.628402710 0.2874459922 2.4990000725 2.0237998962
 1339.5948113 95.042297363 77.602798462 0.2650299966 2.5109999180 2.1380000114
 1339.7472113 92.758697510 75.902801514 0.2566060126 2.5153999329 2.2613000870
 1339.8996113 92.770599365 75.273696899 0.2648510039 2.5148999691 2.3972001076
 1340.0520113 92.764709473 73.400596619 0.2780680060 2.5113000870 2.5427999496
 1340.2044113 92.282699585 70.867103577 0.2857799828 2.5074999332 2.6849999428
 1340.3568113 92.258598328 69.282699585 0.2833389938 2.5072999001 2.8259999752
 1340.5092113 91.430297852 68.749801636 0.2678340077 2.5143001080 2.9403998852
 1340.6616113 90.770698547 70.685302734 0.2529840171 2.5304000378 3.0006000996
 1340.8140113 89.988998413 71.512603760 0.2425810099 2.5439000130 3.0167999268
 1340.9664113 88.695198059 68.334098816 0.2499570101 2.5445001125 2.9995000362
 1341.1188113 88.329200745 65.807197571 0.2525579929 2.5346000195 2.9655001163
 1341.2712113 89.046096802 67.962699890 0.2675440013 2.5271000862 2.9324998856
 1341.4236113 91.338096619 70.992202759 0.2837919891 2.5302999020 2.8977999687
 1341.5760113 92.723007202 70.398300171 0.2950589955 2.5401999950 2.8524000645
 1341.7284113 93.868896484 63.963001251 0.3034740090 2.5518999100 2.8034000397
 1341.8808113 94.400001526 58.071201324 0.2890329957 2.5634999275 2.7576000690
 1342.0332113 93.431396484 53.730300903 0.2725740075 2.5724000931 2.7293000221
 1342.1856113 92.706298828 53.060699463 0.2616910040 2.5743999481 2.7374999523
 1342.3380113 90.275802612 54.504398346 0.2733730078 2.5720999241 2.7718999386
 1342.4904113 88.160797119 54.861698151 0.2729530036 2.5727000237 2.8315000534
 1342.6428113 88.280899048 52.137798309 0.2576049864 2.5824999809 2.9138998985
 1342.7952113 86.857398987 47.991401672 0.2384900153 2.5936000347 3.0457999706
 1342.9476113 88.416801453 45.985900879 0.2648450136 2.5977001190 3.3090000153
 1343.1000113 87.735198975 46.624698639 0.2875120044 2.5936000347 3.7458999157
 1343.2524113 82.793403625 46.170398712 0.2639499903 2.5924000740 4.2479000092
 1343.4048113 75.861595154 43.330501556 0.2019020021 2.6050999165 4.7383999825
 1343.5572113 68.104103088 39.246601105 0.1377249956 2.6307001114 5.1803998947
 1343.7096113 61.107601166 35.002201080 0.1059879959 2.6561999321 5.5093002319
 1343.8620113 60.863700867 31.969499588 0.1090929955 2.6670000553 5.7006998062
 1344.0144113 66.320396423 32.008300781 0.1256680042 2.6588997841 5.6086997986
 1344.1668113 73.406799316 36.079898834 0.1423580050 2.6433000565 5.0661001205
 1344.3192113 80.255004883 42.936599731 0.1501889974 2.6303999424 4.3474998474
 1344.4716113 84.275993347 51.903099060 0.1579800099 2.6191000938 3.6545000076
 1344.6240113 86.424705505 56.821498871 0.1690449864 2.6040999889 3.0599999428
