# LAS format log file from PETREL
# Project units are specified as depth units
#==================================================================
~Version information
VERS.   2.0:
WRAP.   NO:
#==================================================================
~Well
STRT .m      619.96198080 :
STOP .m      2949.0911808 :
STEP .m     0.15240000 :
NULL .        -999.250000 :
COMP.           : COMPANY
WELL.  SEM0400   : WELL
FLD.            : FIELD
LOC.            : LOCATION
SRVC.           : SERVICE COMPANY
DATE.  2020-05-08 20:04:29   : Log Export Date {yyyy-MM-dd HH:mm:ss}
PROV.           : PROVINCE
UWI.   SEM0400   : UNIQUE WELL ID
API.            : API NUMBER
#==================================================================
~Curve
DEPT .m                   : DEPTH
DT .us/ft                 : DT
GR .gAPI                  : GR
NPHI .m3/m3               : NPHI
RHOB .g/cm3               : RHOB
RT .ohm.m                 : RT
FACIES .                    : FACIES
~Parameter
#==================================================================
~Ascii
# ...
 1707.1835808 90.599998474 41.451900482 0.2631189823 2.3243000507 3.1310000420 3.0000000000
 1707.3359808 90.900001526 42.336200714 0.2688460052 2.3254001141 3.1192998886 3.0000000000
 1707.4883808 90.499992371 49.631801605 0.2689670026 2.3581998348 3.0999000072 3.0000000000
 1707.6407808 89.199996948 48.563201904 0.2875570059 2.3875999451 3.0822999477 3.0000000000
 1707.7931808 89.800003052 45.910301208 0.2772050202 2.3854000568 3.0608999729 2.0000000000
 1707.9455808 89.099998474 36.348701477 0.2803109884 2.3419001102 3.0376000404 2.0000000000
 1708.0979808 90.400001526 33.880100250 0.2753030062 2.2956998348 3.0258998871 2.0000000000
 1708.2503808 90.300003052 28.887399673 0.2785719931 2.2676000595 3.0220000744 3.0000000000
 1708.4027808 89.099998474 28.537399292 0.2511910200 2.2548000813 3.0355999470 3.0000000000
 1708.5551808 88.300003052 35.998699188 0.2321369946 2.2585999966 3.0745999813 3.0000000000
 1708.7075808 88.099998474 42.446800232 0.2374610007 2.2806999683 3.1231999397 3.0000000000
 1708.8599808 89.199996948 45.652400970 0.2621879876 2.3173000813 3.1698999405 3.0000000000
 1709.0123808 89.599998474 43.404800415 0.2529329956 2.3478999138 3.2068998814 3.0000000000
 1709.1647808 89.300003052 48.084201813 0.2586529851 2.3705000877 3.2302000523 3.0000000000
 1709.3171808 90.400001526 56.300899506 0.2483149916 2.3945000172 3.2516000271 3.0000000000
 1709.4695808 87.900001526 67.207397461 0.2549830079 2.4300000668 3.2730000019 3.0000000000
 1709.6219808 87.599998474 68.202301025 0.2788249850 2.4574999809 3.2827999592 2.0000000000
 1709.7743808 88.099998474 59.653900146 0.2972320020 2.4484000206 3.2711000443 2.0000000000
 1709.9267808 87.800003052 40.641300201 0.2833209932 2.3922998905 3.2379999161 2.0000000000
 1710.0791808 88.500000000 28.316299438 0.2465099841 2.3218998909 3.1972000599 2.0000000000
 1710.2315808 88.900009155 22.513000488 0.2428000122 2.2736999989 3.1835000515 2.0000000000
 1710.3839808 88.800003052 23.323600769 0.2353689969 2.2588000298 3.1951999664 2.0000000000
 1710.5363808 88.699996948 26.602899551 0.2294919938 2.2643001080 3.2221999168 3.0000000000
 1710.6887808 87.400001526 37.840999603 0.2219949961 2.2878999710 3.2472999096 3.0000000000
 1710.8411808 86.500000000 44.289100647 0.2574869990 2.3264999390 3.2606999874 3.0000000000
 1710.9935808 87.300003052 48.157901764 0.2710239887 2.3592998981 3.2780001163 3.0000000000
 1711.1459808 88.300003052 49.226501465 0.2586350143 2.3691999912 3.3069999218 3.0000000000
 1711.2983808 89.199996948 56.853599548 0.2579469979 2.3696000576 3.3556001186 3.0000000000
 1711.4507808 91.300003052 62.343700409 0.2567989826 2.3847999573 3.4061999321 3.0000000000
 1711.6031808 91.300003052 58.401199341 0.2807530165 2.4008998871 3.4393000603 2.0000000000
 1711.7555808 90.099998474 50.442401886 0.2473369986 2.4042999744 3.4547998905 2.0000000000
 1711.9079808 90.499992371 48.010601044 0.2349189967 2.3982000351 3.4605998993 2.0000000000
 1712.0603808 88.800003052 50.368698120 0.2251989990 2.4096999168 3.4586000443 2.0000000000
 1712.2127808 87.800003052 50.921398163 0.2435870022 2.4230999947 3.4488000870 2.0000000000
 1712.3651808 86.000000000 42.704700470 0.2433329970 2.4151999950 3.4272999763 2.0000000000
 1712.5175808 85.800003052 36.496101379 0.2276919931 2.3822999001 3.4096999168 2.0000000000
 1712.6699808 86.000000000 30.526899338 0.2149250060 2.3445999622 3.4077000618 1.0000000000
 1712.8223808 86.300003052 29.095399857 0.2116749883 2.3192000389 3.4233999252 1.0000000000
 1712.9747808 87.699989319 28.862800598 0.2175799906 2.3083000183 3.4625000954 1.0000000000
 1713.1271808 86.500000000 29.518800735 0.2215589881 2.3127999306 3.5172998905 1.0000000000
 1713.2795808 84.599998474 32.185100555 0.2210510075 2.3285999298 3.5799000263 1.0000000000
 1713.4319808 83.300003052 35.345699310 0.2197100073 2.3452999592 3.6503000259 1.0000000000
 1713.5843808 81.699996948 35.070598602 0.2217800021 2.3517999649 3.7325000763 1.0000000000
 1713.7367808 80.300003052 33.106300354 0.2116439939 2.3524000645 3.8106999397 1.0000000000
 1713.8891808 82.199996948 29.034799576 0.1977609992 2.3573999405 3.8478999138 1.0000000000
 1714.0415808 82.000000000 31.282400131 0.1978190094 2.3629000187 3.8499000072 1.0000000000
 1714.1939808 83.099998474 33.401000977 0.2125079930 2.3573000431 3.8243999481 1.0000000000
 1714.3463808 85.900001526 37.601501465 0.2275530100 2.3401000500 3.7402999401 1.0000000000
 1714.4987808 85.800003052 43.073200226 0.2254809886 2.3373000622 3.6013998985 1.0000000000
 1714.6511808 85.599998474 47.568401337 0.2207449973 2.3552000523 3.4723000526 1.0000000000
 1714.8035808 86.300003052 47.089401245 0.2362649888 2.3664999008 3.3784000874 1.0000000000
 1714.9559808 86.400009155 40.825599670 0.2369010001 2.3503999710 3.3236000538 1.0000000000
 1715.1083808 88.300003052 38.883098602 0.2383890003 2.3241999149 3.2904000282 1.0000000000
 1715.2607808 90.000000000 40.652801514 0.2359769940 2.3127999306 3.2609999180 1.0000000000
 1715.4131808 90.499992371 42.941898346 0.2375749946 2.3050000668 3.2316999435 1.0000000000
 1715.5655808 89.699996948 40.774898529 0.2273629904 2.2883000374 3.2160000801 1.0000000000
 1715.7179808 90.199989319 37.844501495 0.2320529968 2.2736001015 3.2179999352 1.0000000000
 1715.8703808 90.199989319 38.475498199 0.2309779972 2.2781000137 3.2532000542 1.0000000000
 1716.0227808 89.699996948 44.510200500 0.2372999936 2.2983999252 3.3236000538 3.0000000000
 1716.1751808 89.599998474 57.295799255 0.2390040010 2.3266000748 3.3861999512 3.0000000000
 1716.3275808 88.300003052 67.317901611 0.2545630038 2.3708999157 3.3959000111 3.0000000000
 1716.4799808 88.600006104 76.495300293 0.2545120120 2.4333000183 3.3666000366 3.0000000000
 1716.6323808 86.800003052 79.852600098 0.2697530091 2.4909999371 3.2504000664 3.0000000000
 1716.7847808 85.400001526 81.584602356 0.2794400156 2.5204999447 3.0385999680 4.0000000000
 1716.9371808 86.199996948 84.822799683 0.3122240007 2.5129001141 2.7955000401 4.0000000000
 1717.0895808 89.800003052 83.201896667 0.3650249839 2.4885001183 2.5596001148 4.0000000000
 1717.2419808 95.599998474 84.579200745 0.4567319751 2.4623999596 2.3903999329 4.0000000000
 1717.3943808 103.80000305 91.553298950 0.5034279823 2.4428000450 2.3252999783 4.0000000000
 1717.5467808 106.80000305 95.874603271 0.5033659935 2.4388999939 2.3153998852 4.0000000000
 1717.6991808 106.50000000 96.542396545 0.4295449853 2.4477000237 2.3399999142 4.0000000000
 1717.8515808 104.09999847 81.982498169 0.3566600084 2.4616000652 2.4100999832 4.0000000000
 1718.0039808 97.599998474 72.128501892 0.2694440186 2.4640998840 2.5264999866 2.0000000000
 1718.1563808 91.900001526 69.873497009 0.2236289978 2.4684000015 2.7088999748 2.0000000000
 1718.3087808 87.000000000 69.590400696 0.2054830045 2.4770998955 2.9618999958 2.0000000000
 1718.4611808 83.800003052 69.329902649 0.2159100026 2.4790000916 3.2567999363 2.0000000000
 1718.6135808 83.300003052 55.169898987 0.2283110023 2.4572000504 3.5167999268 2.0000000000
 1718.7659808 86.199996948 43.335800171 0.2334160060 2.4112000465 3.6407999992 2.0000000000
 1718.9183808 87.000000000 31.295499802 0.2365029901 2.3617999554 3.6684000492 2.0000000000
 1719.0707808 88.800003052 25.934499741 0.2334639877 2.3217999935 3.6356000900 2.0000000000
 1719.2231808 90.400001526 25.673799515 0.2367670089 2.2987000942 3.5301001072 2.0000000000
 1719.3755808 89.300003052 27.846700668 0.2464620024 2.2897000313 3.4481000900 2.0000000000
 1719.5279808 89.699996948 31.242700577 0.2420479953 2.2880001068 3.4247000217 2.0000000000
 1719.6803808 89.400001526 31.317199707 0.2390760034 2.2899999619 3.4265999794 2.0000000000
 1719.8327808 88.800003052 32.828300476 0.2279639989 2.2976999283 3.4363999367 2.0000000000
 1719.9851808 89.699996948 32.569499969 0.2230339944 2.3090000153 3.4656999111 3.0000000000
 1720.1375808 89.900001526 40.554798126 0.2169129997 2.3276000023 3.5178999901 3.0000000000
 1720.2899808 88.300003052 52.199901581 0.2200390100 2.3515999317 3.5741000175 3.0000000000
