# LAS format log file from PETREL
# Project units are specified as depth units
#==================================================================
~Version information
VERS.   2.0:
WRAP.   NO:
#==================================================================
~Well
STRT .m      598.62601128 :
STOP .m      2812.0836113 :
STEP .m     0.15240000 :
NULL .        -999.250000 :
COMP.           : COMPANY
WELL.  SEM0410   : WELL
FLD.            : FIELD
LOC.            : LOCATION
SRVC.           : SERVICE COMPANY
DATE.  2020-05-08 20:04:55   : Log Export Date {yyyy-MM-dd HH:mm:ss}
PROV.           : PROVINCE
UWI.   SEM0410   : UNIQUE WELL ID
API.            : API NUMBER
#==================================================================
~Curve
DEPT .m                   : DEPTH
DT .us/ft                 : DT
GR .gAPI                  : GR
NPHI .m3/m3               : NPHI
RHOB .g/cm3               : RHOB
RT .ohm.m                 : RT
~Parameter
#==================================================================
~Ascii
# ...
 2790.4428113 78.343902588 78.597801208 0.2202730030 2.6040000916 6.9100999832
 2790.5952113 75.290901184 76.986297607 0.2014440000 2.6063001156 7.1701998711
 2790.7476113 73.744102478 75.102203369 0.1877179891 2.6126000881 7.3909001350
 2790.9000113 73.311798096 69.239799500 0.1807679981 2.6210999489 7.6522002220
 2791.0524113 69.126998901 67.361602783 0.1828420013 2.6284000874 7.8754000664
 2791.2048113 68.514801025 65.567703247 0.1890870035 2.6410999298 7.8393998146
 2791.3572113 69.858398438 67.527603149 0.1881220043 2.6623001099 7.6370000839
 2791.5096113 69.803001404 68.118797302 0.1912319958 2.6781001091 7.3225998878
 2791.6620113 73.098602295 74.039703369 0.2104170024 2.6714999676 6.9102997780
 2791.8144113 76.401298523 81.159500122 0.2269629985 2.6510000229 6.5314002037
 2791.9668113 77.567001343 83.041198730 0.2343269885 2.6322999001 6.1659998894
 2792.1192113 78.472999573 84.360000610 0.2457710057 2.6249001026 5.8193998337
 2792.2716113 78.984901428 88.201202393 0.2558429837 2.6208000183 5.4693999290
 2792.4240113 79.097000122 90.087097168 0.2578879893 2.6254000664 5.1711001396
 2792.5764113 78.712097168 89.508201599 0.2566329837 2.6296000481 4.9040999413
 2792.7288113 78.796997070 87.687797546 0.2491340041 2.6312999725 4.6749000549
 2792.8812113 78.315200806 85.513099670 0.2487389892 2.6249001026 4.4895000458
 2793.0336113 78.493896484 89.997802734 0.2525790036 2.6222000122 4.3151001930
 2793.1860113 79.760299683 86.078796387 0.2703939974 2.6245000362 4.1522998810
 2793.3384113 80.672401428 90.918098450 0.2637280226 2.6294999123 3.9507999420
 2793.4908113 81.475502014 92.384597778 0.2618490160 2.6333000660 3.7227001190
 2793.6432113 81.887710571 91.986503601 0.2488540113 2.6347999573 3.5137999058
 2793.7956113 82.675292969 94.366203308 0.2564899921 2.6333999634 3.3473000526
 2793.9480113 82.699989319 90.038200378 0.2625949979 2.6294999123 3.2021999359
 2794.1004113 82.796897888 96.840896606 0.2646610141 2.6287999153 3.0769000053
 2794.2528113 83.381401062 98.489700317 0.2799130082 2.6352000237 2.9419999123
 2794.4052113 83.787597656 96.678596497 0.2943980098 2.6468000412 2.8052000999
 2794.5576113 84.284400940 92.942001343 0.2921639979 2.6556999683 2.6779000759
 2794.7100113 84.978103638 90.629402161 0.2881119847 2.6628000736 2.5552999973
 2794.8624113 85.871803284 92.833999634 0.2924160063 2.6677000523 2.4525001049
 2795.0148113 85.706298828 93.325897217 0.3058300018 2.6691999435 2.3478000164
 2795.1672113 87.055900574 92.257202148 0.3016490042 2.6582000256 2.2597999573
 2795.3196113 87.487396240 92.571601868 0.3145610094 2.6452000141 2.1972999573
 2795.4720113 88.468391418 88.850997925 0.3218040168 2.6422998905 2.1493999958
 2795.6244113 89.274696350 88.465400696 0.3263529837 2.6521999836 2.1110999584
 2795.7768113 89.396797180 91.095298767 0.3106089830 2.6568999290 2.0782999992
 2795.9292113 89.496803284 95.830101013 0.3175849915 2.6489000320 2.0539000034
 2796.0816113 89.887199402 97.252700806 0.3229950070 2.6361000538 2.0369999409
 2796.2340113 90.384002686 96.480499268 0.3279980123 2.6312999725 2.0267999172
 2796.3864113 90.303199768 97.316802979 0.3192049861 2.6308000088 2.0199999809
 2796.5388113 90.687210083 96.480102539 0.3232420087 2.6278998852 2.0186998844
 2796.6912113 90.990303040 97.275001526 0.3268679678 2.6247999668 2.0278000832
 2796.8436113 90.908302307 100.93370056 0.3276360035 2.6312999725 2.0476000309
 2796.9960113 91.017501831 104.91040039 0.3270049989 2.6447999477 2.0808000565
 2797.1484113 91.286003113 104.44239807 0.3321910203 2.6559998989 2.1319999695
 2797.3008113 91.824203491 98.182296753 0.3330810070 2.6630001068 2.1998000145
 2797.4532113 92.198898315 96.771400452 0.3332650065 2.6522998810 2.3050000668
 2797.6056113 93.423896790 98.888801575 0.3541319966 2.6124000549 2.4674000740
 2797.7580113 95.493995667 107.50990295 0.3802289963 2.5239999294 2.7165999413
 2797.9104113 98.007003784 109.79830170 0.4202950001 2.4189999104 3.0766999722
 2798.0628113 101.90950012 108.57469940 0.4291369915 2.3248999119 3.6226000786
 2798.2152113 104.07340240 106.68409729 0.4185390174 2.2290999889 4.4065999985
 2798.3676113 102.88659668 101.09980011 0.3883340061 2.0843999386 5.4710998535
 2798.5200113 105.38210297 92.416099548 0.4514639974 1.8803999424 7.0696997643
 2798.6724113 113.23419189 81.293601990 0.6226229668 1.6605999470 9.5555000305
 2798.8248113 123.83300781 64.327598572 0.7389820218 1.4717999697 14.092300415
 2798.9772113 134.53480530 43.741100311 0.7555699944 1.3421000242 22.461099625
 2799.1296113 137.58020020 30.599700928 0.6667150259 1.2668000460 37.486198425
 2799.2820113 140.47360229 25.165100098 0.7026609778 1.2463999987 70.056701660
 2799.4344113 141.62179565 21.168800354 0.6573960185 1.2594000101 133.79980469
 2799.5868113 141.89190674 19.998399734 0.6935420036 1.2964999676 172.53259277
 2799.7392113 140.69419861 19.958099365 0.7789029479 1.3258999586 123.59369659
 2799.8916113 139.98229980 19.776199341 0.8062090278 1.3352999687 67.826698303
 2800.0440113 138.38310242 20.595500946 0.7174189687 1.3321000338 35.657798767
 2800.1964113 126.35639954 29.188199997 0.5263869762 1.3587000370 19.761899948
 2800.3488113 125.11100006 47.751800537 0.3962630033 1.4703999758 13.051799774
 2800.5012113 119.32720184 69.263702393 0.3213460147 1.7223999500 10.101599693
 2800.6536113 105.29940033 83.885398865 0.2941780090 2.0775001049 8.6520004272
 2800.8060113 93.402702332 86.305198669 0.2785199881 2.3938999176 7.7964000702
 2800.9584113 86.276901245 81.909599304 0.2544289827 2.5757000446 7.2010002136
 2801.1108113 82.338203430 74.503898621 0.2180850059 2.6310000420 6.8860998154
 2801.2632113 80.623596191 68.701698303 0.1785349995 2.6477999687 6.9288997650
 2801.4156113 79.971397400 66.089103699 0.1508969963 2.6554000378 7.1620998383
 2801.5680113 79.797203064 68.787902832 0.1466210037 2.6512999535 7.5528998375
 2801.7204113 79.815803528 73.132499695 0.1569470018 2.6510999203 7.9696998596
 2801.8728113 79.704002380 74.367797852 0.1709149927 2.6580998898 8.4149999619
 2802.0252113 79.732200623 74.146697998 0.1720669866 2.6658000946 8.1892995834
 2802.1776113 79.797698975 74.364601135 0.1768639982 2.6591999531 7.7902002335
 2802.3300113 79.751701355 74.659400940 0.1883959919 2.6415998936 7.5650000572
 2802.4824113 79.585098267 76.086997986 0.2075210065 2.6243000031 7.3722000122
 2802.6348113 79.502799988 78.564796448 0.2222330123 2.6133000851 7.1236000061
 2802.7872113 79.512100220 80.373901367 0.2294519991 2.6061999798 6.8176999092
 2802.9396113 79.571998596 85.487899780 0.2331100106 2.5999000072 6.4720997810
 2803.0920113 79.313598633 86.826499939 0.2281299978 2.5948998928 6.2856998444
 2803.2444113 79.396598816 88.272796631 0.2263550013 2.5892999172 6.2248001099
 2803.3968113 79.496498108 86.387001038 0.2270729989 2.5878000259 6.1314001083
 2803.5492113 79.403503418 86.537696838 0.2406409979 2.5903000832 6.1648998260
 2803.7016113 79.303596497 85.162200928 0.2520959973 2.5938999653 6.2413001060
 2803.8540113 79.396499634 86.656402588 0.2620379925 2.6003999710 6.1851000786
 2804.0064113 79.303596497 87.769096375 0.2427289933 2.6075997353 6.1373000145
 2804.1588113 79.300003052 88.000701904 0.2230159938 2.6198000908 6.0201997757
 2804.3112113 79.396400452 88.731300354 0.2149410099 2.6268999577 5.8024997711
 2804.4636113 79.400001526 86.677200317 0.2393099964 2.6270999908 5.5831999779
 2804.6160113 79.400001526 80.098800659 0.2563100159 2.6266999245 5.2820000648
 2804.7684113 79.303596497 75.774696350 0.2710280120 2.6233999729 4.8536000252
 2804.9208113 79.492797852 71.023300171 0.2632679939 2.6199998856 4.4451999664
 2805.0732113 79.403602600 75.359199524 0.2690500021 2.6124999523 4.0619997978
 2805.2256113 79.400001526 80.432899475 0.2793599963 2.6082999706 3.6726000309
 2805.3780113 79.303596497 78.127296448 0.2891469896 2.6092998981 3.3203999996
 2805.5304113 79.107299805 82.047500610 0.2897410095 2.6161999702 3.0304000378
 2805.6828113 79.196411133 82.728797913 0.2889150083 2.6219000816 2.7860999107
 2805.8352113 79.296401978 86.459701538 0.3051939905 2.6226000786 2.5889999866
