# LAS format log file from PETREL
# Project units are specified as depth units
#==================================================================
~Version information
VERS.   2.0:
WRAP.   NO:
#==================================================================
~Well
STRT .m      598.62601128 :
STOP .m      2812.0836113 :
STEP .m     0.15240000 :
NULL .        -999.250000 :
COMP.           : COMPANY
WELL.  SEM0410   : WELL
FLD.            : FIELD
LOC.            : LOCATION
SRVC.           : SERVICE COMPANY
DATE.  2020-05-08 20:04:55   : Log Export Date {yyyy-MM-dd HH:mm:ss}
PROV.           : PROVINCE
UWI.   SEM0410   : UNIQUE WELL ID
API.            : API NUMBER
#==================================================================
~Curve
DEPT .m                   : DEPTH
DT .us/ft                 : DT
GR .gAPI                  : GR
NPHI .m3/m3               : NPHI
RHOB .g/cm3               : RHOB
RT .ohm.m                 : RT
~Parameter
#==================================================================
~Ascii
# ...
 1624.5828113 89.576797485 67.783798218 0.2246839851 2.5313999653 2.6644001007
 1624.7352113 91.527999878 68.158897400 0.2368759960 2.5332000256 2.6105999947
 1624.8876113 92.911201477 66.743400574 0.2561820149 2.5325999260 2.5411999226
 1625.0400113 94.019401550 68.637397766 0.2797360122 2.5299000740 2.4693000317
 1625.1924113 94.956901550 75.853500366 0.2916799784 2.5283000469 2.4052000046
 1625.3448113 95.148597717 80.552299500 0.2817200124 2.5322000980 2.3568000793
 1625.4972113 95.254096985 79.903800964 0.2646600008 2.5411999226 2.3297998905
 1625.6496113 95.554100037 77.868797302 0.2594679892 2.5492000580 2.3173000813
 1625.8020113 95.802696228 75.747001648 0.2749570012 2.5501999855 2.3155000210
 1625.9544113 95.900001526 75.904197693 0.2995679975 2.5427999496 2.3224000931
 1626.1068113 95.746002197 78.839302063 0.3036739826 2.5327000618 2.3350999355
 1626.2592113 95.445999146 80.775802612 0.2947500050 2.5267999172 2.3496999741
 1626.4116113 95.043403625 78.429801941 0.2939940095 2.5274000168 2.3643000126
 1626.5640113 94.697402954 73.391799927 0.2993199825 2.5299999714 2.3819000721
 1626.7164113 94.856590271 69.893798828 0.3004759848 2.5299000740 2.4024000168
 1626.8688113 95.048698425 69.768302917 0.2781580091 2.5265998840 2.4237999916
 1627.0212113 94.948699951 71.906898499 0.2557620108 2.5226998329 2.4391999245
 1627.1736113 94.541007996 72.780502319 0.2563279867 2.5204000473 2.4430000782
 1627.3260113 93.789703369 74.973297119 0.2618399858 2.5216999054 2.4349999428
 1627.4784113 93.297401428 78.152801514 0.2615150213 2.5281000137 2.4163999557
 1627.6308113 93.456291199 77.988403320 0.2602519989 2.5367000103 2.3859999180
 1627.7832113 93.904998779 76.034400940 0.2672690153 2.5420000553 2.3450000286
 1627.9356113 94.714996338 76.343696594 0.2821129858 2.5404000282 2.3022000790
 1628.0880113 95.812500000 78.698303223 0.3002539873 2.5367000103 2.2613000870
 1628.2404113 96.248802185 80.168403625 0.3063690066 2.5360999107 2.2195000648
 1628.3928113 96.558601379 80.883102417 0.3022769988 2.5394999981 2.1767001152
 1628.5452113 97.361000061 79.792503357 0.3114219904 2.5448999405 2.1407999992
 1628.6976113 97.902397156 79.444503784 0.3268510103 2.5488998890 2.1126000881
 1628.8500113 98.204803467 81.574203491 0.3236379921 2.5495998859 2.0892999172
 1629.0024113 98.297607422 82.959800720 0.3080540001 2.5457999706 2.0717999935
 1629.1548113 98.046401978 80.707603455 0.2981770039 2.5390999317 2.0587000847
 1629.3072113 97.900001526 78.825599670 0.2979759872 2.5322999954 2.0490000248
 1629.4596113 98.002403259 80.914802551 0.2962130010 2.5288000107 2.0413000584
 1629.6120113 97.895301819 83.180702209 0.2926239967 2.5306999683 2.0325000286
 1629.7644113 97.751197815 82.107902527 0.3004940152 2.5367000103 2.0227999687
 1629.9168113 97.544197083 79.742103577 0.3129459918 2.5427999496 2.0120000839
 1630.0692113 97.555793762 78.879997253 0.3224010170 2.5467998981 1.9988000393
 1630.2216113 98.209197998 78.494499207 0.3317979872 2.5466001034 1.9867000580
 1630.3740113 98.753402710 77.595497131 0.3393979967 2.5399999619 1.9744000435
 1630.5264113 99.053398132 76.700897217 0.3364939988 2.5281999111 1.9601999521
 1630.6788113 99.302299500 77.449600220 0.3309740126 2.5169000626 1.9444999695
 1630.8312113 99.348899841 78.130599976 0.3221519887 2.5109000206 1.9269000292
 1630.9836113 99.504402161 78.312400818 0.3136210144 2.5051000118 1.9077999592
 1631.1360113 99.955497742 77.743698120 0.3143129945 2.4888999462 1.8876999617
 1631.2884113 100.30220032 78.116096497 0.3210510015 2.4595000744 1.8676999807
 1631.4408113 100.60440063 80.794601440 0.3287950158 2.4326000214 1.8490999937
 1631.5932113 100.95320129 83.629203796 0.3208330274 2.4309999943 1.8320000172
 1631.7456113 101.55970001 85.003402710 0.3079760075 2.4526998997 1.8173999786
 1631.8980113 101.43820190 83.659400940 0.3051899970 2.4697000980 1.8050999641
 1632.0504113 100.59360504 81.959800720 0.3140679896 2.4597001076 1.7928999662
 1632.2028113 99.993698120 80.820098877 0.3285680115 2.4335000515 1.7812000513
 1632.3552113 99.904197693 81.081398010 0.3299509883 2.4163999557 1.7713999748
 1632.5076113 99.793800354 82.139099121 0.3205799758 2.4198000431 1.7625999451
 1632.6600113 99.653099060 81.459899902 0.3098509908 2.4391000271 1.7538000345
 1632.8124113 100.51439667 79.273399353 0.2975260019 2.4628999233 1.7460000515
 1632.9648113 101.09799957 76.412498474 0.2892960012 2.4818000793 1.7391999960
 1633.1172113 101.00000000 75.526603699 0.2941229939 2.4918000698 1.7328000069
 1633.2696113 101.66309357 77.081901550 0.3137420118 2.4927999973 1.7264000177
 1633.4220113 101.79000092 78.519302368 0.3398849964 2.4830999374 1.7186000347
 1633.5744113 100.63710022 78.195800781 0.3658760190 2.4616999626 1.7102999687
 1633.7268113 100.76480103 76.845703125 0.3921860158 2.4381999969 1.7029999495
 1633.8792113 101.80590057 76.700202942 0.4038180113 2.4303998947 1.6960999966
 1634.0316113 102.45680237 76.474197388 0.3821649849 2.4447999001 1.6913000345
 1634.1840113 102.34130096 74.543899536 0.3424539864 2.4674000740 1.6898000240
 1634.3364113 101.84899139 72.064796448 0.3190310001 2.4814999104 1.6902999878
 1634.4888113 101.64720154 70.467300415 0.3105069995 2.4867999554 1.6917999983
 1634.6412113 101.75469971 70.252296448 0.3006570041 2.4946000576 1.6943000555
 1634.7936113 101.64350128 70.348800659 0.2958950102 2.5023000240 1.6971999407
 1634.9460113 101.40190125 70.621803284 0.3072569966 2.4941000938 1.7000999451
 1635.0984113 101.55091095 71.849800110 0.3348350227 2.4674000740 1.7021000385
 1635.2508113 101.54911041 74.180900574 0.3527849913 2.4384999275 1.7009999752
 1635.4032113 101.19460297 76.728500366 0.3628480136 2.4256000519 1.6971000433
 1635.5556113 101.05269623 78.314796448 0.3659730256 2.4309000969 1.6901999712
 1635.7080113 102.06509399 76.910400391 0.3532420099 2.4423999786 1.6813999414
 1635.8604113 103.05269623 75.360298157 0.3296099901 2.4465000629 1.6700999737
 1636.0128113 102.89469910 76.241600037 0.3120369911 2.4416000843 1.6543999910
 1636.1652113 102.54910278 77.849899292 0.3093619943 2.4388999939 1.6354000568
 1636.3176113 101.99140167 77.311500549 0.3063679934 2.4460999966 1.6128000021
 1636.4700113 102.16110992 76.103103638 0.3132959902 2.4543001652 1.5864000320
 1636.6224113 102.69831085 77.146598816 0.3321950138 2.4518001080 1.5535000563
 1636.7748113 102.95590210 79.126899719 0.3563209772 2.4412000179 1.5147999525
 1636.9272113 104.01171112 78.721496582 0.3644670248 2.4300000668 1.4746999741
 1637.0796113 106.07231140 77.594703674 0.3473419845 2.4230000973 1.4321000576
 1637.2320113 107.40000153 79.449401855 0.3406050205 2.4235000610 1.3885999918
 1637.3844113 107.40000153 82.266601563 0.3596429825 2.4260001183 1.3465000391
 1637.5368113 107.45080566 83.547401428 0.3949219882 2.4161000252 1.3073999882
 1637.6892113 107.39839935 82.807403564 0.4105020165 2.3940000534 1.2806999683
 1637.8416113 106.89370728 82.227699280 0.3967929780 2.3863999844 1.2690000534
 1637.9940113 106.85549927 81.911003113 0.3877330124 2.4033999443 1.2681000233
 1638.1464113 106.18440247 79.967300415 0.3852310181 2.4272000790 1.2734999657
 1638.2988113 103.87998962 76.806602478 0.3627560139 2.4432001114 1.2778999805
 1638.4512113 102.90460205 76.143898010 0.3380459845 2.4554998875 1.2809000015
 1638.6036113 102.43870544 76.541099548 0.3322930038 2.4656999111 1.2882000208
 1638.7560113 102.81649017 77.454696655 0.3488999903 2.4597001076 1.3028999567
 1638.9084113 104.45819855 77.630699158 0.3658120036 2.4463000298 1.3195999861
 1639.0608113 104.59410858 78.437301636 0.3699820042 2.4479999542 1.3287999630
 1639.2132113 103.59130096 79.700996399 0.3611789942 2.4574000835 1.3296999931
 1639.3656113 104.06510162 78.494400024 0.3362649977 2.4447000027 1.3282999992
 1639.5180113 104.38999939 77.718200684 0.3141990006 2.4102001190 1.3308000565
 1639.6704113 104.25779724 78.925300598 0.3166559935 2.3961999416 1.3421000242
 1639.8228113 104.90139771 81.432403564 0.3302980065 2.4284999371 1.3657000065
 1639.9752113 105.50689697 85.496200562 0.3390990198 2.4767999649 1.4024000168
