# LAS format log file from PETREL
# Project units are specified as depth units
#==================================================================
~Version information
VERS.   2.0:
WRAP.   NO:
#==================================================================
~Well
STRT .m      598.62601128 :
STOP .m      2812.0836113 :
STEP .m     0.15240000 :
NULL .        -999.250000 :
COMP.           : COMPANY
WELL.  SEM0410   : WELL
FLD.            : FIELD
LOC.            : LOCATION
SRVC.           : SERVICE COMPANY
DATE.  2020-05-08 20:04:55   : Log Export Date {yyyy-MM-dd HH:mm:ss}
PROV.           : PROVINCE
UWI.   SEM0410   : UNIQUE WELL ID
API.            : API NUMBER
#==================================================================
~Curve
DEPT .m                   : DEPTH
DT .us/ft                 : DT
GR .gAPI                  : GR
NPHI .m3/m3               : NPHI
RHOB .g/cm3               : RHOB
RT .ohm.m                 : RT
~Parameter
#==================================================================
~Ascii
# ...
 1919.9340113 91.952789307 81.902603149 0.3353860080 2.5920000076 2.1113998890
 1920.0864113 93.350502014 82.820198059 0.3510960042 2.5876998901 2.0841999054
 1920.2388113 93.901000977 85.567001343 0.3555589914 2.5794000626 2.0820999146
 1920.3912113 94.437599182 85.823196411 0.3477529883 2.5701999664 2.1057000160
 1920.5436113 94.048698425 83.260299683 0.3446569741 2.5704998970 2.1624000072
 1920.6960113 92.472702026 83.043197632 0.3320220113 2.5804998875 2.2574000359
 1920.8484113 89.671302795 84.972503662 0.3096680045 2.5836000443 2.3740000725
 1921.0008113 87.487998962 88.035400391 0.2976810038 2.5611000061 2.5072999001
 1921.1532113 88.739601135 92.380203247 0.3182649910 2.5144999027 2.6847999096
 1921.3056113 92.103599548 99.248100281 0.3718740046 2.4586999416 2.9091999531
 1921.4580113 97.767303467 101.95760345 0.4236840010 2.4028999805 3.1431000233
 1921.6104113 104.07800293 100.13179779 0.4078699946 2.3622000217 3.3647999763
 1921.7628113 105.81050110 94.990699768 0.3285250068 2.3566000462 3.5799000263
 1921.9152113 102.89929962 90.000602722 0.2600510120 2.3970999718 3.8046000004
 1922.0676113 98.521400452 87.137298584 0.2030419856 2.4611001015 4.0872998238
 1922.2200113 89.672203064 84.414299011 0.1553760022 2.5185000896 4.4404997826
 1922.3724113 82.686401367 79.894500732 0.1234029979 2.5531001091 4.8324999809
 1922.5248113 78.049011230 72.207603455 0.1125679985 2.5727999210 5.2369999886
 1922.6772113 74.424896240 63.825801849 0.1136429980 2.5882000923 5.6570000648
 1922.8296113 74.025001526 57.717498779 0.1209969968 2.6013998985 6.0809998512
 1922.9820113 73.537597656 57.591499329 0.1308300048 2.6059000492 6.4411997795
 1923.1344113 72.362396240 61.222301483 0.1438769996 2.5987999439 6.6514000893
 1923.2868113 73.249801636 63.576099396 0.1605979949 2.5889000893 6.6572999954
 1923.4392113 74.449699402 61.486000061 0.1731559932 2.5887000561 6.4286999702
 1923.5916113 74.862800598 61.767200470 0.1835549921 2.6019999981 6.0383000374
 1923.7440113 74.899398804 62.872299194 0.1883769929 2.6191999912 5.6194000244
 1923.8964113 76.199607849 66.730201721 0.1913450062 2.6280000210 5.2642002106
 1924.0488113 76.774902344 72.452400208 0.2002519965 2.6243000031 4.9429998398
 1924.2012113 78.360198975 79.507102966 0.2183959931 2.6152999401 4.6094999313
 1924.3536113 80.762596130 83.091903687 0.2375690043 2.6075000763 4.2502999306
 1924.5060113 81.036796570 82.763298035 0.2487969995 2.6006000042 3.9022998810
 1924.6584113 82.385803223 79.705802917 0.2537960112 2.5926001072 3.5901999474
 1924.8108113 83.999298096 77.856399536 0.2649599910 2.5882000923 3.3259999752
 1924.9632113 84.948898315 76.716499329 0.2704310119 2.5927000046 3.0929999352
 1925.1156113 86.111389160 77.088798523 0.2571290135 2.6036000252 2.8879001141
 1925.2680113 86.874801636 79.261001587 0.2498080134 2.6127998829 2.7009000778
 1925.4204113 87.523399353 80.032997131 0.2709220052 2.6149001122 2.5411999226
 1925.5728113 88.960601807 81.146003723 0.3229769766 2.6112000942 2.4302999973
 1925.7252113 90.610000610 80.909599304 0.3630149961 2.5938999653 2.3589999676
 1925.8776113 93.443901062 82.486000061 0.3927899897 2.5517001152 2.3178999424
 1926.0300113 96.872398376 85.685997009 0.4201830029 2.4900000095 2.3018999100
 1926.1824113 98.784301758 92.241897583 0.4260680079 2.4430000782 2.3085999489
 1926.3348113 101.22019958 96.571403503 0.4156560004 2.4379999638 2.3515000343
 1926.4872113 103.58529663 97.764198303 0.4090999961 2.4612998962 2.4502000809
 1926.6396113 103.98940277 96.703598022 0.3971110284 2.4797999859 2.6033999920
 1926.7920113 103.52390289 94.064498901 0.4074269831 2.4658999443 2.7750999928
 1926.9444113 104.90740204 88.147697449 0.4526689947 2.4151000977 2.9258000851
 1927.0968113 107.49530029 80.752899170 0.4919850230 2.3461999893 3.0392999649
 1927.2492113 110.49189758 75.679000854 0.4815770090 2.2943999767 3.1157000065
 1927.4016113 111.80670166 74.337501526 0.4400550127 2.2885999680 3.1796998978
 1927.5540113 108.38320160 75.943603516 0.4096649885 2.3266000748 3.2613999844
 1927.7064113 105.10540009 77.836402893 0.3730790019 2.3824999332 3.3427999020
 1927.8588113 100.99109650 79.842597961 0.3294450045 2.4300999641 3.4161999226
 1928.0112113 95.183998108 82.175399780 0.3009350002 2.4591000080 3.4997999668
 1928.1636113 91.496101379 84.720901489 0.2714189887 2.4776000977 3.6103999615
 1928.3160113 87.474800110 84.098197937 0.2634769976 2.4962999821 3.7725999355
 1928.4684113 84.250999451 82.059501648 0.2489079982 2.5174999237 4.0447001457
 1928.6208113 82.585098267 78.275901794 0.2456290126 2.5352001190 4.3769998550
 1928.7732113 79.827697754 78.190597534 0.2335219979 2.5497000217 4.7192001343
 1928.9256113 79.013900757 77.859397888 0.2232760042 2.5631999969 5.0939002037
 1929.0780113 78.402297974 76.419403076 0.2064920068 2.5722999573 5.4499001503
 1929.2304113 78.011596680 72.259803772 0.1801549941 2.5759999752 5.7444000244
 1929.3828113 78.051200867 68.531898499 0.1595270038 2.5743999481 5.9812002182
 1929.5352113 77.204902649 66.637397766 0.1566089988 2.5748999119 6.1563000679
 1929.6876113 75.791007996 66.222702026 0.1659650058 2.5769999027 6.2557997704
 1929.8400113 75.397392273 68.054298401 0.1765710115 2.5771000385 6.3125000000
 1929.9924113 76.606201172 67.936401367 0.1870630085 2.5648999214 6.3231000900
 1930.1448113 78.468902588 62.092899323 0.1825889945 2.5323998928 6.2389998436
 1930.2972113 80.454597473 47.667499542 0.1693549901 2.4795000553 6.0734000206
 1930.4496113 82.754394531 34.244701385 0.1545879990 2.4214999676 5.8997998238
 1930.6020113 84.980003357 25.003299713 0.1524190009 2.3745000362 5.7346000671
 1930.7544113 86.522796631 22.277200699 0.1587059945 2.3461999893 5.5678000450
 1930.9068113 87.085601807 20.566400528 0.1619330049 2.3350999355 5.3948998451
 1931.0592113 86.954589844 20.325199127 0.1637599915 2.3361999989 5.1739997864
 1931.2116113 86.348396301 19.531400681 0.1645289958 2.3434000015 4.8808999062
 1931.3640113 87.342102051 20.785600662 0.1566710025 2.3480999470 4.4997000694
 1931.5164113 88.822601318 24.698499680 0.1632150114 2.3548998833 4.1073999405
 1931.6688113 89.162902832 34.645099640 0.1933169961 2.3763999939 3.7758998871
 1931.8212113 89.211303711 51.339000702 0.2324279994 2.4235000610 3.4879000187
 1931.9736113 89.214599609 69.109199524 0.2674140036 2.4872999191 3.2590000629
 1932.1260113 88.603401184 82.590896606 0.2864819765 2.5462000370 3.0678999424
 1932.2784113 88.433601379 88.334800720 0.2984539866 2.5813999176 2.9019000530
 1932.4308113 88.666496277 88.311897278 0.3115279973 2.5917999744 2.7794001102
 1932.5832113 87.655395508 86.067596436 0.3257559836 2.5892999172 2.7218999863
 1932.7356113 86.603698730 84.083099365 0.3285549879 2.5843000412 2.7137000561
 1932.8880113 85.692596436 82.014396667 0.3171710074 2.5810000896 2.7404999733
 1933.0404113 84.962997437 79.466796875 0.2959129810 2.5806000233 2.7918000221
 1933.1928113 84.900001526 78.624900818 0.2720319927 2.5822000504 2.8599998951
 1933.3452113 85.122100830 78.807601929 0.2671250105 2.5864999294 2.9268000126
 1933.4976113 85.462997437 80.756301880 0.2572430074 2.5934998989 2.9821999073
 1933.6500113 84.918998718 82.299003601 0.2527039945 2.6061000824 3.0211999416
 1933.8024113 84.210998535 81.902801514 0.2552190125 2.6208999157 3.0355999470
 1933.9548113 84.362998962 79.197402954 0.2715109885 2.6298000813 3.0385999680
 1934.1072113 84.225997925 76.574203491 0.2811689973 2.6335000992 3.0329999924
 1934.2596113 84.432701111 77.282402039 0.2839280069 2.6350998878 3.0192000866
 1934.4120113 84.962997437 78.113403320 0.2702459991 2.6356999874 3.0002999306
 1934.5644113 84.900001526 79.805603027 0.2632600069 2.6277000904 2.9774999619
 1934.7168113 85.232589722 81.089401245 0.2660959959 2.6089999676 2.9523000717
 1934.8692113 85.578300476 82.578201294 0.2767629921 2.5913999081 2.9263999462
 1935.0216113 85.273902893 83.348899841 0.2778069973 2.5899000168 2.9005999565
 1935.1740113 85.178398132 83.802902222 0.2777409852 2.6063001156 2.8794000149
 1935.3264113 85.353797913 83.342796326 0.2924999893 2.6271998882 2.8626999855
