# LAS format log file from PETREL
# Project units are specified as depth units
#==================================================================
~Version information
VERS.   2.0:
WRAP.   NO:
#==================================================================
~Well
STRT .m      598.62601128 :
STOP .m      2812.0836113 :
STEP .m     0.15240000 :
NULL .        -999.250000 :
COMP.           : COMPANY
WELL.  SEM0410   : WELL
FLD.            : FIELD
LOC.            : LOCATION
SRVC.           : SERVICE COMPANY
DATE.  2020-05-08 20:04:55   : Log Export Date {yyyy-MM-dd HH:mm:ss}
PROV.           : PROVINCE
UWI.   SEM0410   : UNIQUE WELL ID
API.            : API NUMBER
#==================================================================
~Curve
DEPT .m                   : DEPTH
DT .us/ft                 : DT
GR .gAPI                  : GR
NPHI .m3/m3               : NPHI
RHOB .g/cm3               : RHOB
RT .ohm.m                 : RT
~Parameter
#==================================================================
~Ascii
# ...
 2199.7404113 84.647598267 28.239200592 0.1541090012 2.4086000919 5.9450001717
 2199.8928113 85.099998474 27.266300201 0.1498139948 2.3921999931 5.8505001068
 2200.0452113 84.534500122 25.161500931 0.1463679969 2.3949000835 5.6937999725
 2200.1976113 82.406692505 28.201799393 0.1534759998 2.4206998348 5.4717998505
 2200.3500113 80.929702759 38.934101105 0.1715739965 2.4690001011 5.1933999062
 2200.5024113 80.001701355 53.204898834 0.1859499961 2.5239999294 4.9513998032
 2200.6548113 80.117500305 64.547401428 0.1967690140 2.5673999786 4.7639999390
 2200.8072113 81.768302917 70.623100281 0.2079649866 2.5875999928 4.6131000519
 2200.9596113 83.047302246 72.528602600 0.2265409976 2.5920000076 4.4520998001
 2201.1120113 83.279197693 74.081703186 0.2503529787 2.5929999352 4.2547001839
 2201.2644113 82.796203613 77.402099609 0.2603630126 2.5915000439 4.0528998375
 2201.4168113 84.184700012 77.682899475 0.2509799898 2.5817999840 3.8754000664
 2201.5692113 87.531600952 76.883903503 0.2557620108 2.5634999275 3.7572000027
 2201.7216113 91.159797668 79.033798218 0.2916060090 2.5446999073 3.6986000538
 2201.8740113 93.426498413 89.341796875 0.3318600059 2.5364000797 3.6847999096
 2202.0264113 92.808105469 94.416397095 0.3392260075 2.5413000584 3.6932001114
 2202.1788113 91.012298584 93.654403687 0.3272629976 2.5557000637 3.7427000999
 2202.3312113 87.975997925 91.467102051 0.2885349989 2.5696001053 3.8747999668
 2202.4836113 83.294502258 87.244003296 0.2371570021 2.5785999298 4.0836000443
 2202.6360113 79.863906860 81.202697754 0.1964280009 2.5822000504 4.3867001534
 2202.7884113 77.361900330 74.965698242 0.1739290059 2.5851998329 4.7867999077
 2202.9408113 75.235397339 71.172500610 0.1651609987 2.5890998840 5.2870998383
 2203.0932113 73.604400635 68.997398376 0.1632349938 2.5954000950 5.8516001701
 2203.2456113 73.195503235 67.047599792 0.1608330011 2.6026000977 6.3825998306
 2203.3980113 73.360298157 64.931800842 0.1569090039 2.6087000370 6.7908000946
 2203.5504113 71.755798340 63.180500031 0.1599829942 2.6161999702 7.0605998039
 2203.7028113 71.048797607 62.474700928 0.1686770022 2.6275000572 7.1925997734
 2203.8552113 71.346496582 60.894901276 0.1657979935 2.6428000927 7.1652998924
 2204.0076113 71.995201111 62.290000916 0.1713909954 2.6500999928 7.0490999222
 2204.1600113 72.795196533 63.574600220 0.1784460098 2.6463999748 6.8206000328
 2204.3124113 73.692596436 64.395698547 0.1954990029 2.6363999844 6.5181999207
 2204.4648113 74.599998474 62.842498779 0.1978970021 2.6315999031 6.1574001312
 2204.6172113 74.697502136 65.274398804 0.1944870055 2.6305000782 5.7272000313
 2204.7696113 75.194900513 69.862602234 0.2052989900 2.6282999516 5.2856001854
 2204.9220113 76.165397644 74.105003357 0.2115309834 2.6252999306 4.9081001282
 2205.0744113 77.786994934 75.110603333 0.2260300070 2.6238999367 4.6210999489
 2205.2268113 79.494796753 73.085601807 0.2349550128 2.6228001118 4.4200000763
 2205.3792113 80.489402771 73.719902039 0.2498089969 2.6189000607 4.3301000595
 2205.5316113 81.675697327 74.499000549 0.2561260164 2.6145000458 4.3259000778
 2205.6840113 81.697303772 75.082496643 0.2585580051 2.6140999794 4.3737001419
 2205.8364113 81.756797791 71.644599915 0.2410650104 2.6138999462 4.4686999321
 2205.9888113 80.854103088 70.591102600 0.2277459949 2.6096999645 4.6129999161
 2206.1412113 80.327102661 69.267303467 0.2223529965 2.6015999317 4.7870001793
 2206.2936113 80.002799988 68.197700500 0.2139019966 2.5973999500 4.9029002190
 2206.4460113 79.748596191 63.076999664 0.2010100037 2.5975999832 4.9436001778
 2206.5984113 79.900001526 62.916400909 0.1975769997 2.5969998837 4.9038000107
 2206.7508113 80.094200134 70.137100220 0.2164829969 2.5945000648 4.7792000771
 2206.9032113 80.894088745 80.771697998 0.2293789983 2.5959000587 4.5696997643
 2207.0556113 81.524307251 86.123001099 0.2346290052 2.6050999165 4.2730998993
 2207.2080113 81.624298096 85.322097778 0.2409799993 2.6171000004 3.9130001068
 2207.3604113 81.724197388 84.532897949 0.2575390041 2.6257998943 3.6133999825
 2207.5128113 82.308998108 83.325500488 0.2775630057 2.6277999878 3.3977999687
 2207.6652113 84.142303467 82.028602600 0.3084320128 2.6259999275 3.2486999035
 2207.8176113 85.166496277 83.253799438 0.2980500162 2.6221001148 3.1821000576
 2207.9700113 86.048400879 84.177497864 0.2815209925 2.6157000065 3.1926000118
 2208.1224113 85.885299683 88.948898315 0.2599519789 2.6119000912 3.2658998966
 2208.2748113 84.294898987 84.294296265 0.2453479916 2.6159000397 3.3959999084
 2208.4272113 81.262802124 79.940399170 0.2148279995 2.6322000027 3.6122000217
 2208.5796113 77.167900085 74.485801697 0.1729400009 2.6451001167 3.8956999779
 2208.7320113 75.185607910 73.211502075 0.1616029888 2.6456000805 4.2750000954
 2208.8844113 74.441703796 73.728599548 0.1670829952 2.6326999664 4.7544999123
 2209.0368113 75.465797424 74.315498352 0.1834449917 2.6191000938 5.3094000816
 2209.1892113 76.372497559 72.486999512 0.1905890107 2.6098001003 5.8715000153
 2209.3416113 75.971992493 68.327697754 0.1773130000 2.6043000221 6.3849000931
 2209.4940113 73.420501709 62.821701050 0.1517990083 2.6024000645 6.8358998299
 2209.6464113 71.575897217 57.323501587 0.1294760108 2.6041998863 7.2880997658
 2209.7988113 71.451698303 56.177101135 0.1198130026 2.6092998981 7.7213001251
 2209.9512113 71.661903381 54.782600403 0.1111370027 2.6101000309 8.0943002701
 2210.1036113 73.113502502 53.135501862 0.0959109962 2.6073000431 8.4015998840
 2210.2560113 73.883003235 48.636901855 0.0807400048 2.6031999588 8.6040000916
 2210.4084113 73.199996948 46.358898163 0.0800900012 2.6006999016 8.7431001663
 2210.5608113 73.175903320 47.793498993 0.0894890055 2.5980999470 8.8367996216
 2210.7132113 72.883201599 49.911998749 0.1037850007 2.5947000980 8.8903999329
 2210.8656113 72.392700195 53.258998871 0.1207310036 2.5933001041 8.9546003342
 2211.0180113 72.422203064 56.669498444 0.1305699944 2.6005001068 8.9966001511
 2211.1704113 69.950202942 61.776699066 0.1258289963 2.6236000061 8.9764003754
 2211.3228113 67.851898193 63.008598328 0.1127490029 2.6533999443 8.9284000397
 2211.4752113 67.675903320 57.689601898 0.1143570021 2.6631999016 8.9535999298
 2211.6276113 68.201202393 57.142799377 0.1265169978 2.6405999660 9.1347999573
 2211.7800113 70.845199585 57.362499237 0.1302080005 2.6034998894 9.3893003464
 2211.9324113 73.632598877 57.709701538 0.1230720058 2.5845999718 9.5938997269
 2212.0848113 75.192192078 51.920101166 0.1142069995 2.5885999203 9.6143999100
 2212.2372113 75.559806824 45.698501587 0.1133700013 2.6059999466 9.4664001465
 2212.3896113 74.968101501 43.642101288 0.1155309975 2.6201000214 9.2250003815
 2212.5420113 74.875900269 42.723201752 0.1211320013 2.6201000214 8.9468002319
 2212.6944113 73.188003540 46.248298645 0.1283870041 2.6084001064 8.7515001297
 2212.8468113 74.267898560 52.057598114 0.1439590007 2.5971999168 8.6250000000
 2212.9992113 74.560203552 58.190700531 0.1587229967 2.5962998867 8.5253000259
 2213.1516113 73.871902466 63.663898468 0.1697040051 2.6031000614 8.4408998489
 2213.3040113 73.932197571 63.255001068 0.1662520021 2.6077001095 8.3210000992
 2213.4564113 73.040603638 59.954898834 0.1514479965 2.6089999676 8.1975002289
 2213.6088113 71.708396912 53.986301422 0.1350889951 2.6059000492 8.1112003326
 2213.7612113 71.052101135 50.600200653 0.1270989925 2.6015999317 8.0513000488
 2213.9136113 70.995796204 50.892200470 0.1419709921 2.5968999863 7.9721999168
 2214.0660113 71.658996582 54.502498627 0.1648159921 2.5947999954 7.8284001350
 2214.2184113 73.111000061 59.485401154 0.1943659931 2.5987999439 7.5517001152
 2214.3708113 74.243499756 64.092498779 0.2126059979 2.6070001125 7.0808000565
 2214.5232113 75.082603455 64.456199646 0.2187969983 2.6154000759 6.5780000687
 2214.6756113 76.586898804 64.142501831 0.2226890028 2.6178998947 6.1051998138
 2214.8280113 77.667297363 66.150199890 0.2332160026 2.6168999672 5.6887998581
 2214.9804113 78.415000916 70.743202209 0.2465550005 2.6166000366 5.3271999359
 2215.1328113 79.123893738 74.363403320 0.2522319853 2.6180000305 4.9523000717
