# LAS format log file from PETREL
# Project units are specified as depth units
#==================================================================
~Version information
VERS.   2.0:
WRAP.   NO:
#==================================================================
~Well
STRT .m      598.62601128 :
STOP .m      2812.0836113 :
STEP .m     0.15240000 :
NULL .        -999.250000 :
COMP.           : COMPANY
WELL.  SEM0410   : WELL
FLD.            : FIELD
LOC.            : LOCATION
SRVC.           : SERVICE COMPANY
DATE.  2020-05-08 20:04:55   : Log Export Date {yyyy-MM-dd HH:mm:ss}
PROV.           : PROVINCE
UWI.   SEM0410   : UNIQUE WELL ID
API.            : API NUMBER
#==================================================================
~Curve
DEPT .m                   : DEPTH
DT .us/ft                 : DT
GR .gAPI                  : GR
NPHI .m3/m3               : NPHI
RHOB .g/cm3               : RHOB
RT .ohm.m                 : RT
~Parameter
#==================================================================
~Ascii
# ...
 893.97721128 103.60539246 53.321399689 0.2719579935 2.3443999290 4.1936998367
 894.12961128 101.16380310 52.952499390 0.2788629830 2.3559999466 4.4092001915
 894.28201128 99.347503662 59.232200623 0.2977730036 2.3794999123 4.6119999886
 894.43441128 100.21060181 60.073001862 0.2888680100 2.4007000923 4.7273001671
 894.58681128 100.91259766 58.608600616 0.2821390033 2.4061000347 4.7385001183
 894.73921128 100.65830231 53.689201355 0.2685419917 2.3938999176 4.6760001183
 894.89161128 101.53949738 54.840000153 0.2694199979 2.3787999153 4.5416002274
 895.04401128 103.40809631 60.038501740 0.2846899927 2.3698000908 4.3516998291
 895.19641128 107.62831116 62.808399200 0.3086370230 2.3733999729 4.1612000465
 895.34881128 108.89769745 62.329498291 0.3260060251 2.3785998821 3.9475998878
 895.50121128 110.28079987 60.995700836 0.3217400014 2.3828999996 3.6681001186
 895.65361128 111.69529724 65.729202271 0.3149859905 2.3901000023 3.3763000965
 895.80601128 111.30239868 68.241996765 0.3026670218 2.4042999744 3.1386001110
 895.95841128 113.16339874 71.301498413 0.3160060048 2.4203999043 2.9539000988
 896.11081128 116.65820313 72.834503174 0.3288069963 2.4291000366 2.8129000664
 896.26321128 116.60260010 74.349700928 0.3520199955 2.4284999371 2.6958999634
 896.41561128 117.60939789 77.558799744 0.3634940088 2.4226999283 2.5859000683
 896.56801128 116.17859650 76.396003723 0.3563040197 2.4206998348 2.4806001186
 896.72041128 116.15599823 79.146499634 0.3400200009 2.4237000942 2.3798999786
 896.87281128 116.11470032 74.846199036 0.3307720125 2.4286000729 2.2955999374
 897.02521128 118.23280334 75.790397644 0.3575669825 2.4298000336 2.2188999653
 897.17761128 118.51470184 74.957000732 0.3948040009 2.4298999310 2.1679999828
 897.33001128 118.92650604 75.348701477 0.4297479987 2.4314000607 2.1479001045
 897.48241128 119.00000000 76.347297668 0.4463469982 2.4321000576 2.1505000591
 897.63481128 119.17060089 76.011398315 0.4402289987 2.4272000790 2.1979999542
 897.78721128 118.09140015 74.729896545 0.4216770232 2.4159998894 2.3013000488
 897.93961128 115.68299866 70.663803101 0.3900719881 2.4049000740 2.4305999279
 898.09201128 111.80419922 66.257301331 0.3405339718 2.3991000652 2.5806000233
 898.24441128 107.70449829 61.852798462 0.3001520038 2.3976998329 2.7630999088
 898.39681128 105.73599243 57.620601654 0.2644210160 2.3926000595 2.9707000256
 898.54921128 104.56230164 57.556400299 0.2541819811 2.3854999542 3.1710999012
 898.70161128 103.97380066 57.126499176 0.2533729970 2.3829998970 3.3078999519
 898.85401128 105.17839813 57.212898254 0.2849130034 2.3940999508 3.3473999500
 899.00641128 106.59309387 56.543899536 0.2975779772 2.4082000256 3.2895998955
 899.15881128 107.56690216 56.619598389 0.2972179949 2.4151000977 3.1693999767
 899.31121128 109.23370361 61.055500031 0.3029739857 2.4110000134 3.0369000435
 899.46361128 108.13680267 69.746597290 0.3106240034 2.4105000496 2.9063999653
 899.61601128 108.07039642 73.579299927 0.2998380065 2.4163000584 2.7623999119
 899.76841128 111.84819794 72.409202576 0.2995220125 2.4142000675 2.5971000195
 899.92081128 119.14389801 69.219001770 0.3247800171 2.3805000782 2.4298000336
 900.07321128 127.70989990 72.376998901 0.4063159823 2.3010001183 2.2990000248
 900.22561128 131.64010620 75.403503418 0.4396070242 2.2077000141 2.2100999355
 900.37801128 132.86639404 72.940597534 0.4653239846 2.1463000774 2.1528000832
 900.53041128 131.72270203 70.705001831 0.4418289959 2.1603999138 2.1233000755
 900.68281128 123.66680145 71.220397949 0.4256339967 2.2295999527 2.1210999489
 900.83521128 118.63920593 72.539001465 0.3674820065 2.3090999126 2.1475999355
 900.98761128 115.70149994 70.460403442 0.3194179833 2.3649001122 2.2209000587
 901.14001128 110.02249908 68.535400391 0.2988030016 2.3998000622 2.3348999023
 901.29241128 108.58930206 68.324996948 0.2789710164 2.4293999672 2.4832000732
 901.44481128 106.45739746 65.293998718 0.2748059928 2.4542000294 2.6918001175
 901.59721128 102.44069672 62.630298615 0.2626909912 2.4691998959 2.9491000175
 901.74961128 103.58699799 62.475399017 0.2633700073 2.4704999924 3.2360000610
 901.90201128 104.92099762 61.267200470 0.2478829920 2.4567000866 3.5065999031
 902.05441128 106.46130371 58.228000641 0.2357739955 2.4318997860 3.7097001076
 902.20681128 108.48650360 52.420299530 0.2370849997 2.4061999321 3.8722999096
 902.35921128 106.75839996 50.963199615 0.2400610000 2.3940999508 4.0153999329
 902.51161128 106.65518951 52.248401642 0.2263920009 2.3940999508 4.1203999519
 902.66401128 105.84949493 52.851001740 0.2237280011 2.3963000774 4.1887998581
 902.81641128 104.50939941 53.359901428 0.2324579954 2.3912999630 4.2284002304
 902.96881128 103.87480164 53.484500885 0.2474160045 2.3831999302 4.2505002022
 903.12121128 104.31020355 51.853698730 0.2522619963 2.3805000782 4.2701997757
 903.27361128 104.48500061 53.793998718 0.2327609956 2.3847999573 4.3034000397
 903.42601128 106.88039398 52.678901672 0.2424789965 2.3875999451 4.3456001282
 903.57841128 109.51020813 52.124000549 0.2448810041 2.3840000629 4.3722000122
 903.73081128 111.00499725 49.551399231 0.2513920069 2.3742001057 4.3958001137
 903.88321128 113.06990051 50.082000732 0.2436940074 2.3650999069 4.4028000832
 904.03561128 111.70030212 51.073398590 0.2284020036 2.3561999798 4.3966999054
 904.18801128 109.78539276 49.134998322 0.2344480008 2.3512001038 4.3821001053
 904.34041128 106.44099426 50.207401276 0.2268250138 2.3559999466 4.3527998924
 904.49281128 103.52101135 53.065799713 0.2210000008 2.3729999065 4.3045001030
 904.64521128 103.77970123 54.794399261 0.2138179988 2.3931999207 4.2298002243
 904.79761128 104.40969849 53.071498871 0.2023040056 2.4073998928 4.1107001305
 904.95001128 104.58489990 53.765701294 0.1970539987 2.4135999680 3.9809999466
 905.10241128 103.92049408 54.667499542 0.2230409980 2.4205999374 3.8624999523
 905.25481128 102.69589996 56.766601563 0.2713470161 2.4293000698 3.7365000248
 905.40721128 101.90550232 52.735298157 0.2728829980 2.4391999245 3.5961999893
 905.55961128 101.88490295 54.897899628 0.2673380077 2.4458999634 3.4428999424
 905.71201128 101.98490143 58.988098145 0.2345339954 2.4500000477 3.2953000069
 905.86441128 101.91510010 62.077098846 0.2275560051 2.4544999599 3.1565001011
 906.01681128 101.56040192 62.153598785 0.2419000119 2.4605998993 3.0264000893
 906.16921128 101.92440033 61.119598389 0.2702330053 2.4651000500 2.9031999111
 906.32161128 103.61270905 63.301998138 0.3085960150 2.4665999413 2.7883000374
 906.47401128 105.08820343 63.950000763 0.2958430052 2.4633998871 2.6932001114
 906.62641128 108.27030182 65.600303650 0.3153820038 2.4597001076 2.6229000092
 906.77881128 109.13939667 66.451896667 0.2887189984 2.4525001049 2.5676000118
 906.93121128 108.09690094 67.593902588 0.2712549865 2.4493000507 2.5304000378
 907.08361128 106.71219635 67.910202026 0.2444359958 2.4532999992 2.5857000351
 907.23601128 105.90609741 67.587196350 0.2460250109 2.4644999504 2.7097001076
 907.38841128 105.20619965 67.819702148 0.2573809922 2.4709999561 2.9475998878
 907.54081128 106.28749847 65.060096741 0.2736800015 2.4388000965 3.3736000061
 907.69321128 112.77639771 58.844699860 0.3413370252 2.3010001183 4.0071997643
 907.84561128 121.78730011 47.791599274 0.4182980061 2.0250999928 4.8411002159
 907.99801128 131.00180054 33.609500885 0.4894039929 1.6956000328 5.9471001625
 908.15041128 138.08129883 23.737600327 0.5116140246 1.4299999475 7.2869000435
 908.30281128 141.30450439 17.759099960 0.5165410042 1.2977000475 8.8240003586
 908.45521128 142.37829590 17.037700653 0.6336089969 1.2540999651 10.187000275
 908.60761128 142.83909607 20.071199417 0.7145059705 1.2598999739 9.3332004547
 908.76001128 142.22189331 26.995599747 0.7161300182 1.3171999454 7.3972001076
 908.91241128 137.94679260 38.562900543 0.5628250241 1.4696999788 5.7466001511
 909.06481128 128.80949402 49.358001709 0.4135559797 1.7465000153 4.5769000053
 909.21721128 123.65599823 61.797100067 0.3484799862 2.0399999619 3.6840999126
 909.36961128 120.28839874 65.674697876 0.3492549956 2.2346999645 2.9776000977
