# LAS format log file from PETREL
# Project units are specified as depth units
#==================================================================
~Version information
VERS.   2.0:
WRAP.   NO:
#==================================================================
~Well
STRT .m      598.62601128 :
STOP .m      2812.0836113 :
STEP .m     0.15240000 :
NULL .        -999.250000 :
COMP.           : COMPANY
WELL.  SEM0410   : WELL
FLD.            : FIELD
LOC.            : LOCATION
SRVC.           : SERVICE COMPANY
DATE.  2020-05-08 20:04:55   : Log Export Date {yyyy-MM-dd HH:mm:ss}
PROV.           : PROVINCE
UWI.   SEM0410   : UNIQUE WELL ID
API.            : API NUMBER
#==================================================================
~Curve
DEPT .m                   : DEPTH
DT .us/ft                 : DT
GR .gAPI                  : GR
NPHI .m3/m3               : NPHI
RHOB .g/cm3               : RHOB
RT .ohm.m                 : RT
~Parameter
#==================================================================
~Ascii
# ...
 1033.8804113 112.25260162 72.984497070 0.2870199978 2.4679999352 1.8406000137
 1034.0328113 111.53179932 71.890899658 0.2727679908 2.4690999985 1.8361999989
 1034.1852113 110.19509888 70.268203735 0.2883160114 2.4644000530 1.8186000586
 1034.3376113 109.66329956 69.814903259 0.3190999925 2.4551999569 1.8004000187
 1034.4900113 110.94139862 67.677398682 0.3573789895 2.4512999058 1.7875000238
 1034.6424113 111.22109985 69.262001038 0.3734799922 2.4553000927 1.7826999426
 1034.7948113 113.01450348 69.936599731 0.3609420061 2.4679000378 1.7875000238
 1034.9472113 111.84339905 72.620201111 0.3270379901 2.4830999374 1.7950999737
 1035.0996113 109.90130615 71.303497314 0.3099009991 2.4885001183 1.8006000519
 1035.2520113 110.20989990 71.818603516 0.3278430104 2.4746999741 1.8115999699
 1035.4044113 110.24229431 72.420501709 0.3573409915 2.4467000961 1.8296999931
 1035.5568113 112.40799713 71.964797974 0.3763299882 2.4219000340 1.8653000593
 1035.7092113 113.31539917 72.217697144 0.3498429954 2.4116001129 1.9146000147
 1035.8616113 113.40000153 72.981300354 0.3445650041 2.4124000072 1.9456000328
 1036.0140113 113.71530914 76.228797913 0.3420460224 2.4154999256 1.9608999491
 1036.1664113 113.80000305 76.393096924 0.3539170027 2.4189999104 1.9674999714
 1036.3188113 113.48469543 75.499603271 0.3573199809 2.4226000309 1.9661999941
 1036.4712113 114.42459869 74.050598145 0.3276579976 2.4261000156 1.9594999552
 1036.6236113 114.14830017 74.217399597 0.3196330070 2.4173998833 1.9493999481
 1036.7760113 114.47280884 76.086799622 0.3078510165 2.3945999146 1.9355000257
 1036.9284113 114.91520691 76.900001526 0.3261180222 2.3638999462 1.9170000553
 1037.0808113 116.18180084 75.698699951 0.3232400119 2.3417999744 1.8983000517
 1037.2332113 116.02729797 75.337898254 0.3165439963 2.3255999088 1.8796999454
 1037.3856113 116.84529877 75.793197632 0.3102680147 2.3115000725 1.8611999750
 1037.5380113 117.33630371 79.627296448 0.3219490051 2.3073000908 1.8411999941
 1037.6904113 117.32119751 82.220703125 0.3461349905 2.3224999905 1.8207000494
 1037.8428113 118.24500275 83.147399902 0.3479389846 2.3461999893 1.8040000200
 1037.9952113 117.39759827 78.685897827 0.3402439952 2.3541998863 1.7906999588
 1038.1476113 118.20230103 72.059600830 0.3184059858 2.3422999382 1.7803000212
 1038.3000113 117.24030304 68.163597107 0.3799319863 2.3299002647 1.7664999962
 1038.4524113 118.39569855 68.249603271 0.4106660187 2.3368999958 1.7470999956
 1038.6048113 118.01280212 68.518203735 0.4188359976 2.3647000790 1.7232999802
 1038.7572113 116.61940002 68.305603027 0.3771569729 2.3921000957 1.6971999407
 1038.9096113 118.89720154 69.164901733 0.3710030019 2.3968000412 1.6727999449
 1039.0620113 118.89170074 71.960700989 0.3853830099 2.3775999546 1.6469000578
 1039.2144113 119.48690033 75.005401611 0.3810710013 2.3682999611 1.6195000410
 1039.3668113 123.00460052 76.467498779 0.3822939992 2.3912000656 1.5917999744
 1039.5192113 122.71990204 75.683502197 0.3766269982 2.4317998886 1.5657000542
 1039.6716113 118.46669769 76.243301392 0.3588770032 2.4628000259 1.5414999723
 1039.8240113 116.37740326 77.281997681 0.3615710139 2.4728000164 1.5177999735
 1039.9764113 115.23480225 77.162399292 0.3830059767 2.4707000256 1.4934999943
 1040.1288113 115.47190094 75.510398865 0.4078409970 2.4611001015 1.4697999954
 1040.2812113 118.74549866 75.064697266 0.4254779816 2.4470999241 1.4447000027
 1040.4336113 121.64439392 77.488899231 0.4269200265 2.4323000908 1.4277000427
 1040.5860113 122.59310150 79.385398865 0.4105110168 2.4138998985 1.4177000523
 1040.7384113 122.62139893 82.422698975 0.3930740058 2.3959999084 1.4064999819
 1040.8908113 121.81390381 78.927803040 0.3644649982 2.3826000690 1.3917000294
 1041.0432113 121.36419678 79.715301514 0.3650439978 2.3856999874 1.3830000162
 1041.1956113 118.47059631 78.082901001 0.3778049946 2.4031000137 1.3854000568
 1041.3480113 117.22850037 77.748397827 0.3818389773 2.4307999611 1.3963999748
 1041.5004113 116.54989624 76.027099609 0.3877349794 2.4656000137 1.4121999741
 1041.6528113 116.00711060 73.879501343 0.4060460031 2.4971001148 1.4242999554
 1041.8052113 117.47130585 73.249397278 0.4134840071 2.5095000267 1.4280999899
 1041.9576113 114.99330139 75.039901733 0.4037539959 2.4921998978 1.4285000563
 1042.1100113 114.59278870 78.979301453 0.3927569985 2.4540998936 1.4270000458
 1042.2624113 114.30728912 81.776100159 0.3731980026 2.4166998863 1.4242000580
 1042.4148113 114.74979401 82.515197754 0.3747650087 2.3959000111 1.4213000536
 1042.5672113 115.84239960 81.201797485 0.3956429958 2.3912999630 1.4153000116
 1042.7196113 116.88519287 80.087303162 0.4023039937 2.3952000141 1.4069000483
 1042.8720113 116.00080109 80.590499878 0.4176770151 2.4030001163 1.3964999914
 1043.0244113 115.07189941 80.059700012 0.3815999925 2.4126000404 1.3904000521
 1043.1768113 117.25509644 80.730499268 0.3532029986 2.4247000217 1.3992999792
 1043.3292113 117.74299622 81.396301270 0.3535570204 2.4272999763 1.4220000505
 1043.4816113 118.17089844 80.669197083 0.3732320070 2.4175000191 1.4491000175
 1043.6340113 116.80889893 79.298896790 0.3916579783 2.4073998928 1.4766000509
 1043.7864113 114.59510040 77.530296326 0.3779970109 2.4049000740 1.4970999956
 1043.9388113 113.00150299 74.861000061 0.3377600014 2.4059998989 1.5164999962
 1044.0912113 112.77850342 73.129997253 0.2988089919 2.4022998810 1.5437999964
 1044.2436113 113.50610352 72.043701172 0.2838839889 2.3994998932 1.5815999508
 1044.3960113 113.69999695 71.514297485 0.3008370101 2.4007000923 1.6240999699
 1044.5484113 112.13120270 73.122596741 0.3257839978 2.4038000107 1.6541999578
 1044.7008113 112.09220123 74.023300171 0.3550540209 2.4051001072 1.6713999510
 1044.8532113 111.10209656 76.382598877 0.3733640015 2.4086999893 1.6885000467
 1045.0056113 109.93740082 75.902397156 0.3717150092 2.4128999710 1.7184000015
 1045.1580113 110.32730103 73.698303223 0.3562789857 2.4138998985 1.7685999870
 1045.3104113 112.06809235 73.224800110 0.3302299976 2.4137001038 1.8343000412
 1045.4628113 109.12899780 74.322097778 0.3043299913 2.4177999496 1.9040999413
 1045.6152113 106.31870270 77.711601257 0.3018740118 2.4284000397 1.9888000488
 1045.7676113 103.91880035 78.475196838 0.3141179979 2.4377000332 2.1077001095
 1045.9200113 100.89199829 74.413200378 0.3203239739 2.4398000240 2.2544000149
 1046.0724113 100.90529633 71.680801392 0.3083270192 2.4437003136 2.4214000702
 1046.2248113 98.984298706 72.431098938 0.2782839835 2.4681999683 2.6057000160
 1046.3772113 94.717399597 67.398803711 0.2456749976 2.5057001114 2.7734999657
 1046.5296113 92.368095398 62.116199493 0.2532590032 2.5204999447 2.9035000801
 1046.6820113 93.880096436 59.339500427 0.2345700115 2.5069000721 3.0211999416
 1046.8344113 95.888298035 62.477401733 0.2179730088 2.4806001186 3.1310999393
 1046.9868113 100.68620300 65.946800232 0.2368810028 2.4579999447 3.1847000122
 1047.1392113 103.30970764 69.717697144 0.2526880205 2.4212000370 3.1658999920
 1047.2916113 102.76029968 66.561500549 0.2558720112 2.3698999882 3.1206998825
 1047.4440113 103.67459869 62.962001801 0.2525550127 2.3371000290 3.0996000767
 1047.5964113 103.53019714 60.650299072 0.2608270049 2.3415999413 3.1357998848
 1047.7488113 103.47830200 61.649299622 0.2912349999 2.3610000610 3.2283999920
 1047.9012113 104.43939972 65.069000244 0.3316389918 2.3689999580 3.3178000450
 1048.0536113 103.83900452 67.386001587 0.3228319883 2.3738000393 3.3714001179
 1048.2060113 102.03459930 67.088798523 0.2699939907 2.3868999481 3.4223001003
 1048.3584113 100.58260345 65.386299133 0.2391279936 2.4045000076 3.4932000637
 1048.5108113 100.69129944 64.632499695 0.2723509967 2.4087998867 3.5769999027
 1048.6632113 100.87830353 63.800300598 0.3311209977 2.4021000862 3.6752998829
 1048.8156113 101.91709900 60.815101624 0.3696490228 2.3952000141 3.7558000088
 1048.9680113 102.35649872 58.322101593 0.3596379757 2.3928999901 3.7757000923
 1049.1204113 102.32180023 56.988399506 0.3112039864 2.3963999748 3.7430999279
 1049.2728113 101.90889740 57.746700287 0.2738989890 2.3984000683 3.7032001019
