# LAS format log file from PETREL
# Project units are specified as depth units
#==================================================================
~Version information
VERS.   2.0:
WRAP.   NO:
#==================================================================
~Well
STRT .m      619.96198080 :
STOP .m      2949.0911808 :
STEP .m     0.15240000 :
NULL .        -999.250000 :
COMP.           : COMPANY
WELL.  SEM0400   : WELL
FLD.            : FIELD
LOC.            : LOCATION
SRVC.           : SERVICE COMPANY
DATE.  2020-05-08 20:04:29   : Log Export Date {yyyy-MM-dd HH:mm:ss}
PROV.           : PROVINCE
UWI.   SEM0400   : UNIQUE WELL ID
API.            : API NUMBER
#==================================================================
~Curve
DEPT .m                   : DEPTH
DT .us/ft                 : DT
GR .gAPI                  : GR
NPHI .m3/m3               : NPHI
RHOB .g/cm3               : RHOB
RT .ohm.m                 : RT
FACIES .                    : FACIES
~Parameter
#==================================================================
~Ascii
 619.96198080 80.499992371 32.848598480 0.5523369908 1.8263000250 8.4271001816  -999.250000
 620.11438080 90.599998474 33.776000977 0.5675449967 2.0241000652 2.9870998859  -999.250000
 620.26678080 129.69999695 36.726699829 0.6418679953 2.1919000149 2.2990000248  -999.250000
 620.41918080 162.20001221 38.851501465 0.7046440244 2.2413001060 2.5123000145  -999.250000
 620.57158080 175.10000610 45.234100342 0.7296730280 2.1702001095 3.0581998825  -999.250000
 620.72398080 170.80000305 47.120998383 0.5520790219 2.0648999214 3.1140000820  -999.250000
 620.87638080 141.10000610 47.955299377 0.4858639836 2.0199000835 1.5426000357  -999.250000
 621.02878080 128.39999390 43.092998505 0.4706460238 2.0035998821 0.7505999804  -999.250000
 621.18118080 113.40000153 39.937999725 0.4897589982 2.0076999664 0.5814999938  -999.250000
 621.33358080 118.69999695 40.027599335 0.4762130082 2.0297999382 0.5853000283  -999.250000
 621.48598080 109.50000000 43.561599731 0.4730879962 2.2462999821 0.7559000254  -999.250000
 621.63838080 112.09999847 48.266700745 0.4690150023 2.1582999229 1.5332000256  -999.250000
 621.79078080 124.19999695 58.863800049 0.4474610090 2.1596000195 3.1103000641  -999.250000
 621.94318080 140.39999390 67.398300171 0.4436900020 2.1953999996 3.5260999203  -999.250000
 622.09558080 143.50000000 74.788200378 0.4891040027 2.2146999836 3.4270000458  -999.250000
 622.24798080 150.00000000 74.433898926 0.5070230365 2.2227001190 3.2230000496  -999.250000
 622.40038080 139.69999695 73.874702454 0.5403670073 2.2232999802 3.0613000393  -999.250000
 622.55278080 132.60000610 74.724197388 0.4848630130 2.2213997841 2.9914000034  -999.250000
 622.70518080 137.10000610 72.342002869 0.4355580211 2.2116999626 2.9953000546  -999.250000
 622.85758080 133.39999390 69.177001953 0.3991429806 2.2088999748 3.1603999138  -999.250000
 623.00998080 134.60000610 66.813003540 0.3877300024 2.2093999386 3.4867000580  -999.250000
 623.16238080 136.89999390 67.712699890 0.4081560075 2.2112998962 3.6789999008  -999.250000
 623.31478080 136.50000000 73.449302673 0.4194079936 2.2111001015 3.6847999096  -999.250000
 623.46718080 136.30000305 73.548797607 0.4431209862 2.2054998875 3.5371999741  -999.250000
 623.61958080 135.80000305 76.861000061 0.4702380002 2.2070999146 3.2709999084  -999.250000
 623.77198080 133.19999695 74.096199036 0.4868470132 2.2162001133 3.1331000328  -999.250000
 623.92438080 133.30000305 77.415100098 0.5023599863 2.2293999195 3.1331000328  -999.250000
 624.07678080 130.00000000 75.388496399 0.4836469889 2.2395000458 3.1738998890  -999.250000
 624.22918080 130.10000610 77.819198608 0.4503830075 2.2476999760 3.2225000858  -999.250000
 624.38158080 130.80000305 75.122100830 0.4418310225 2.2572999001 3.2593998909  -999.250000
 624.53398080 128.50000000 77.012802124 0.4417839944 2.2574999332 3.2788000107  -999.250000
 624.68638080 129.89999390 79.451400757 0.4251169860 2.2548999786 3.2943000793  -999.250000
 624.83878080 128.89999390 84.034103394 0.4614219964 2.2425999641 3.3196001053  -999.250000
 624.99118080 129.39999390 82.156700134 0.4739820063 2.2311000824 3.3643000126  -999.250000
 625.14358080 130.39999390 84.134399414 0.5192449689 2.2155001163 3.4166998863  -999.250000
 625.29598080 132.60000610 84.286003113 0.5211920142 2.2074000835 3.4381000996  -999.250000
 625.44838080 133.50000000 92.087097168 0.4884139895 2.2183001041 3.4284000397  -999.250000
 625.60078080 133.30000305 91.247398376 0.5142530203 2.1995999813 3.3973000050  -999.250000
 625.75318080 132.60000610 91.128700256 0.4759559929 2.2279000282 3.3643000126  -999.250000
 625.90558080 133.39999390 88.615798950 0.5194990039 2.1781001091 3.3585000038  -999.250000
 626.05798080 134.50000000 86.670898438 0.4755530059 2.1926000118 3.4739000797  -999.250000
 626.21038080 134.80000305 88.022499084 0.5154479742 2.1624999046 3.7439999580  -999.250000
 626.36278080 136.80000305 84.350799561 0.4952940047 2.1633999348 4.2501997948  -999.250000
 626.51518080 137.39999390 79.927001953 0.5390250087 2.1289999485 4.9904999733  -999.250000
 626.66758080 140.60000610 62.418598175 0.6186929941 1.9981000423 5.8674998283  -999.250000
 626.81998080 144.60000610 45.360900879 0.7888429761 1.7713999748 6.7593002319  -999.250000
 626.97238080 144.19999695 27.936399460 1.0000029802 1.5325000286 7.5349001884  -999.250000
 627.12478080 142.80000305 23.780099869 0.9789810181 1.3668999672 8.0715999603  -999.250000
 627.27718080 138.60000610 25.743299484 1.0000029802 1.3042000532 8.3461999893  -999.250000
 627.42958080 142.19999695 33.056499481 1.0000029802 1.3288999796 8.3432998657  -999.250000
 627.58198080 144.69999695 47.042999268 0.9489409924 1.4553999901 7.5520000458  -999.250000
 627.73438080 146.60000610 61.593700409 0.6626110077 1.7373000383 6.4720001221  -999.250000
 627.88678080 147.19999695 70.705802917 0.5430030227 1.9270000458 5.3351001740  -999.250000
 628.03918080 149.70001221 70.370399475 0.5429949760 1.9350999594 4.3660001755  -999.250000
 628.19158080 147.19999695 68.757598877 0.5842900276 1.9135999680 3.7165999413  -999.250000
 628.34398080 146.30000305 72.058700562 0.6698570251 1.9050999880 3.3201000690  -999.250000
 628.49638080 143.89999390 78.405700684 0.7362270355 1.9581999779 3.0773999691  -999.250000
 628.64878080 142.50000000 81.646301270 0.7574419975 2.0169000626 2.9166998863  -999.250000
 628.80118080 145.30000305 81.219001770 0.7268409729 2.0348000526 2.7679998875  -999.250000
 628.95358080 144.50000000 84.144699097 0.6901609898 2.0209000111 2.6231000423  -999.250000
 629.10598080 149.39999390 85.114303589 0.6025300026 2.0051000118 2.5610001087  -999.250000
 629.25838080 150.50000000 86.194198608 0.5364300013 1.9948999882 2.5420999527  -999.250000
 629.41078080 148.60000610 85.497901917 0.5198550224 1.9966000319 2.5741999149  -999.250000
 629.56318080 147.39999390 80.253997803 0.5554080009 2.0239000320 2.7465000153  -999.250000
 629.71558080 143.89999390 79.617202759 0.5349019766 2.0841999054 3.0432999134  -999.250000
 629.86798080 140.10000610 72.567497253 0.4751310050 2.1642000675 3.4214000702  -999.250000
 630.02038080 132.89999390 64.377098083 0.4201139808 2.2293000221 3.8447999954  -999.250000
 630.17278080 131.50000000 50.349601746 0.4082880020 2.2506000996 4.3710999489  -999.250000
 630.32518080 127.99999237 39.789199829 0.4174869955 2.2211999893 5.1781001091  -999.250000
 630.47758080 131.89999390 35.427501678 0.4227299988 2.1717998981 6.2484002113  -999.250000
 630.62998080 135.00000000 35.090499878 0.4239410162 2.1259000301 7.4142999649  -999.250000
 630.78238080 134.89999390 35.714500427 0.4096280038 2.0999000072 8.1957998276  -999.250000
 630.93478080 141.30000305 35.607601166 0.4061020017 2.0827000141 8.7049999237  -999.250000
 631.08718080 140.89999390 32.498401642 0.4152500033 2.0738999844 8.9765996933  -999.250000
 631.23958080 142.60000610 33.551101685 0.4735110104 2.0676999092 9.1541004181  -999.250000
 631.39198080 147.30000305 30.441299438 0.4250929952 2.0596001148 9.2840995789  -999.250000
 631.54438080 146.00000000 31.869699478 0.4313760102 2.0497999191 9.3331003189  -999.250000
 631.69678080 142.89999390 28.441299438 0.4048370123 2.0446000099 9.2920999527  -999.250000
 631.84918080 142.30000305 32.837001801 0.4665069878 2.0578999519 9.1382999420  -999.250000
 632.00158080 149.50000000 32.331501007 0.4695869684 2.0806999207 8.7363004684  -999.250000
 632.15398080 149.10000610 32.737201691 0.4951020181 2.1099998951 7.8933000565  -999.250000
 632.30638080 147.00000000 31.212699890 0.4786729813 2.1245999336 6.9003000259  -999.250000
 632.45878080 150.69999695 34.512599945 0.5392159820 2.1278998852 5.9924998283  -999.250000
 632.61118080 139.60000610 41.613498688 0.5311300159 2.1257998943 5.2979998589  -999.250000
 632.76358080 138.19999695 55.350399017 0.5370420218 2.1466000080 4.7824997902  -999.250000
 632.91598080 139.10000610 73.499397278 0.5092809796 2.1681001186 4.3439998627  -999.250000
 633.06838080 134.39999390 83.285598755 0.5081350207 2.1735999584 3.9674000740  -999.250000
