# LAS format log file from PETREL
# Project units are specified as depth units
#==================================================================
~Version information
VERS.   2.0:
WRAP.   NO:
#==================================================================
~Well
STRT .m      598.62601128 :
STOP .m      2812.0836113 :
STEP .m     0.15240000 :
NULL .        -999.250000 :
COMP.           : COMPANY
WELL.  SEM0410   : WELL
FLD.            : FIELD
LOC.            : LOCATION
SRVC.           : SERVICE COMPANY
DATE.  2020-05-08 20:04:55   : Log Export Date {yyyy-MM-dd HH:mm:ss}
PROV.           : PROVINCE
UWI.   SEM0410   : UNIQUE WELL ID
API.            : API NUMBER
#==================================================================
~Curve
DEPT .m                   : DEPTH
DT .us/ft                 : DT
GR .gAPI                  : GR
NPHI .m3/m3               : NPHI
RHOB .g/cm3               : RHOB
RT .ohm.m                 : RT
~Parameter
#==================================================================
~Ascii
# ...
 2059.8372113 97.741798401 75.527198792 0.4098870158 2.3952000141 2.9312999249
 2059.9896113 88.765899658 80.572799683 0.2948690057 2.5020000935 3.1703999043
 2060.1420113 84.256095886 82.467597961 0.2621800005 2.5567998886 3.3752999306
 2060.2944113 83.460700989 77.972099304 0.2557899952 2.5729000568 3.5690999031
 2060.4468113 82.403503418 71.858497620 0.2399830073 2.5785000324 3.7959001064
 2060.5992113 80.757896423 69.122100830 0.2160070091 2.5826001167 4.0405001640
 2060.7516113 78.876098633 67.051101685 0.2015510052 2.5838999748 4.2804999352
 2060.9040113 78.248001099 64.930099487 0.1966000050 2.5838999748 4.5072999001
 2061.0564113 77.583297729 66.312797546 0.1971769929 2.5843999386 4.6838998795
 2061.2088113 78.796401978 68.062400818 0.2117250115 2.5836000443 4.8162999153
 2061.3612113 80.457603455 67.962600708 0.2411240041 2.5764000416 4.9166002274
 2061.5136113 82.080703735 65.361000061 0.2646050155 2.5606000423 4.9904999733
 2061.6660113 83.728897095 60.396499634 0.2608550191 2.5355999470 5.0286998749
 2061.8184113 84.967697144 55.844299316 0.2345260084 2.5044999123 5.0353999138
 2061.9708113 85.097000122 54.210998535 0.2102980018 2.4781000614 5.0381999016
 2062.1232113 84.857299805 52.946899414 0.2079999894 2.4653999805 5.0345001221
 2062.2756113 84.189201355 52.255100250 0.2180540115 2.4612998962 5.0225000381
 2062.4280113 83.933601379 48.604900360 0.2080710083 2.4400000572 4.9994001389
 2062.5804113 84.340896606 40.182399750 0.1858530045 2.4017999172 4.9503002167
 2062.7328113 85.564796448 35.011100769 0.1699029952 2.3715000153 4.9059000015
 2062.8852113 86.352203369 34.633899689 0.1873710006 2.3763000965 4.8755002022
 2063.0376113 85.676101685 40.598999023 0.1981520057 2.4017000198 4.8309001923
 2063.1900113 85.338096619 39.544601440 0.1857109964 2.4119000435 4.7588000298
 2063.3424113 84.859497070 33.635700226 0.1551139951 2.3949999809 4.6623001099
 2063.4948113 84.626098633 27.357799530 0.1454460025 2.3701999187 4.5527000427
 2063.6472113 85.738098145 27.645200729 0.1671120077 2.3640000820 4.4512000084
 2063.7996113 85.785598755 34.931499481 0.1998329908 2.3784000874 4.3653001785
 2063.9520113 86.663902283 42.085700989 0.2154759914 2.3961999416 4.2676000595
 2064.1044113 87.390800476 43.535598755 0.2048189938 2.3991000652 4.1403999329
 2064.2568113 87.132797241 39.187599182 0.1884860098 2.3854999542 3.9974999428
 2064.4092113 88.069099426 34.939701080 0.1805859953 2.3631999493 3.8715999126
 2064.5616113 87.721900940 32.373001099 0.1758270115 2.3420000076 3.7790000439
 2064.7140113 86.914596558 27.609500885 0.1658490002 2.3257999420 3.7151000500
 2064.8664113 86.283798218 23.061800003 0.1504919976 2.3183999062 3.6719999313
 2065.0188113 85.027999878 21.352399826 0.1401659995 2.3173000813 3.6263000965
 2065.1712113 83.022201538 21.327600479 0.1276820004 2.3187999725 3.5833001137
 2065.3236113 82.492599487 21.914600372 0.1276340038 2.3197000027 3.5536000729
 2065.4760113 82.946891785 22.499300003 0.1337780058 2.3238000870 3.5313000679
 2065.6284113 83.870201111 24.704000473 0.1391969919 2.3259999752 3.5202999115
 2065.7808113 84.699996948 23.461200714 0.1372410059 2.3229000568 3.5088000298
 2065.9332113 84.761703491 22.262300491 0.1370799989 2.3157999516 3.4921000004
 2066.0856113 84.437599182 21.240900040 0.1436090022 2.3171999454 3.4734001160
 2066.2380113 83.276702881 21.540000916 0.1487870067 2.3304998875 3.4565999508
 2066.3904113 82.753501892 22.193399429 0.1553239971 2.3475000858 3.4458999634
 2066.5428113 82.138397217 21.563299179 0.1562670022 2.3559000492 3.4488999844
 2066.6952113 82.184799194 20.008800507 0.1569060087 2.3515999317 3.4598000050
 2066.8476113 82.599998474 20.712200165 0.1586419940 2.3438999653 3.4702999592
 2067.0000113 82.630798340 23.396400452 0.1660160124 2.3369998932 3.4760000706
 2067.1524113 82.761604309 24.657100677 0.1705310047 2.3320999146 3.4897999763
 2067.3048113 82.961502075 22.158899307 0.1674440056 2.3273999691 3.5165998936
 2067.4572113 83.223098755 20.117700577 0.1584029943 2.3333001137 3.5550999641
 2067.6096113 83.530799866 21.693000793 0.1517270058 2.3540000916 3.6080000401
 2067.7620113 83.661499023 24.747600555 0.1481309980 2.3777999878 3.6791000366
 2067.9144113 83.338897705 26.461299896 0.1521800011 2.3918001652 3.7625000477
 2068.0668113 82.177101135 26.965799332 0.1563549936 2.3921999931 3.8475000858
 2068.2192113 81.992202759 27.167699814 0.1617099941 2.3887999058 3.9275999069
 2068.3716113 82.261398315 26.892299652 0.1597680002 2.3877000809 3.9972000122
 2068.5240113 82.830001831 26.438699722 0.1453810036 2.3896000385 4.0637001991
 2068.6764113 83.677200317 27.513299942 0.1332129985 2.3915998936 4.1483001709
 2068.8288113 82.878105164 28.763700485 0.1289390028 2.3905999660 4.2204999924
 2068.9812113 81.761398315 29.237300873 0.1307359934 2.3877000809 4.2688999176
 2069.1336113 81.807899475 29.249700546 0.1345829964 2.3847999573 4.2941999435
 2069.2860113 81.569297791 28.880500793 0.1349830031 2.3824999332 4.3000001907
 2069.4384113 81.806701660 27.620500565 0.1333490014 2.3815999031 4.2909998894
 2069.5908113 82.438705444 27.353399277 0.1378940046 2.3805000782 4.2779998779
 2069.7432113 82.300003052 26.494300842 0.1421269923 2.3775999546 4.2600002289
 2069.8956113 82.177398682 25.669900894 0.1396090090 2.3721001148 4.2353000641
 2070.0480113 81.961296082 25.038900375 0.1248589978 2.3654000759 4.2055001259
 2070.2004113 82.069396973 24.683399200 0.1202389970 2.3585999012 4.1690001488
 2070.3528113 82.122497559 24.199800491 0.1207530051 2.3533999920 4.1311001778
 2070.5052113 82.277488708 23.270099640 0.1324329972 2.3499999046 4.0957999229
 2070.6576113 82.000000000 23.919099808 0.1395450085 2.3485999107 4.0618000031
 2070.8100113 81.847000122 24.026199341 0.1399900019 2.3485999107 4.0377001762
 2070.9624113 81.347000122 23.616199493 0.1370119900 2.3510999680 4.0310997963
 2071.1148113 81.000000000 22.553300858 0.1323779970 2.3573999405 4.0295000076
 2071.2672113 81.000000000 21.836700439 0.1295430064 2.3654999733 4.0346999168
 2071.4196113 80.877700806 22.996500015 0.1323380023 2.3712000847 4.0437002182
 2071.5720113 80.783401489 25.265499115 0.1386650056 2.3724000454 4.0577998161
 2071.7244113 81.077697754 26.200899124 0.1400230080 2.3714001179 4.0822000504
 2071.8768113 80.800003052 26.166299820 0.1342450082 2.3708000183 4.1174001694
 2072.0292113 80.861099243 25.909099579 0.1290140003 2.3708999157 4.1563000679
 2072.1816113 80.816703796 26.020000458 0.1284919977 2.3687000275 4.2067999840
 2072.3340113 80.430496216 26.434499741 0.1307870001 2.3645999432 4.2715001106
 2072.4864113 80.469497681 25.630199432 0.1299030036 2.3619000912 4.3498001099
 2072.6388113 80.033699036 23.612600327 0.1239000037 2.3640999794 4.4305000305
 2072.7912113 78.925399780 22.734699249 0.1158720031 2.3715000153 4.5142002106
 2072.9436113 78.086410522 23.649999619 0.1104269996 2.3824999332 4.5852999687
 2073.0960113 77.508499146 25.582099915 0.1106249988 2.3940000534 4.6305999756
 2073.2484113 77.421997070 27.965099335 0.1149349958 2.4012999535 4.6469001770
 2073.4008113 78.218299866 26.527700424 0.1196109951 2.3991000652 4.6409001350
 2073.5532113 79.582901001 27.397199631 0.1215320006 2.3870000839 4.6153998375
 2073.7056113 80.152397156 27.954999924 0.1238949969 2.3726000786 4.5690999031
 2073.8580113 80.682800293 27.378200531 0.1338849962 2.3612999916 4.5005002022
 2074.0104113 81.313201904 24.802000046 0.1386820078 2.3540000916 4.4183001518
 2074.1628113 81.891403198 24.391599655 0.1424800009 2.3466000557 4.3396000862
 2074.3152113 82.130401611 26.487100601 0.1418559998 2.3401999474 4.2715001106
 2074.4676113 82.047798157 28.667600632 0.1424199939 2.3373000622 4.2161002159
 2074.6200113 81.760894775 27.043100357 0.1430310011 2.3382000923 4.1792998314
 2074.7724113 81.778297424 23.987400055 0.1420330107 2.3396000862 4.1468000412
 2074.9248113 81.895401001 23.089199066 0.1471489966 2.3401999474 4.1104001999
 2075.0772113 82.769599915 24.571199417 0.1551350057 2.3399999142 4.0689001083
 2075.2296113 82.912803650 25.579799652 0.1491920054 2.3419001102 4.0212998390
