# LAS format log file from PETREL
# Project units are specified as depth units
#==================================================================
~Version information
VERS.   2.0:
WRAP.   NO:
#==================================================================
~Well
STRT .m      619.96198080 :
STOP .m      2949.0911808 :
STEP .m     0.15240000 :
NULL .        -999.250000 :
COMP.           : COMPANY
WELL.  SEM0400   : WELL
FLD.            : FIELD
LOC.            : LOCATION
SRVC.           : SERVICE COMPANY
DATE.  2020-05-08 20:04:29   : Log Export Date {yyyy-MM-dd HH:mm:ss}
PROV.           : PROVINCE
UWI.   SEM0400   : UNIQUE WELL ID
API.            : API NUMBER
#==================================================================
~Curve
DEPT .m                   : DEPTH
DT .us/ft                 : DT
GR .gAPI                  : GR
NPHI .m3/m3               : NPHI
RHOB .g/cm3               : RHOB
RT .ohm.m                 : RT
FACIES .                    : FACIES
~Parameter
#==================================================================
~Ascii
# ...
 2940.2519808 100.19998932 103.90409851 0.3104520142 2.5494999886 4.6307997704  -999.250000
 2940.4043808 100.09999847 102.20439911 0.2537060082 2.5836000443 5.1526999474  -999.250000
 2940.5567808 100.00000000 99.142898560 0.2013310045 2.6115000248 5.9008998871  -999.250000
 2940.7091808 100.09999847 90.988098145 0.1675769985 2.5969998837 6.9780001640  -999.250000
 2940.8615808 100.19998932 82.100898743 0.1425639987 2.5432999134 8.3684997559  -999.250000
 2941.0139808 100.09999847 73.801902771 0.1341380030 2.4663999081 10.126899719  -999.250000
 2941.1663808 100.00000000 73.167198181 0.1251630038 2.4158999920 12.243599892  -999.250000
 2941.3187808 100.00000000 72.274803162 0.1165050045 2.4022998810 14.572500229  -999.250000
 2941.4711808 100.09999847 73.435096741 0.1072489992 2.4093000889 16.589399338  -999.250000
 2941.6235808 100.09999847 74.311996460 0.1061140001 2.4140000343 17.640899658  -999.250000
 2941.7759808 100.09999847 75.083900452 0.1023279950 2.3959000111 17.604600906  -999.250000
 2941.9283808 100.00000000 72.921501160 0.0985739976 2.3771998882 16.784999847  -999.250000
 2942.0807808 100.09999847 74.267799377 0.0939520001 2.3510000706 15.025199890  -999.250000
 2942.2331808 100.00000000 73.914001465 0.0999360010 2.3526000977 13.225700378  -999.250000
 2942.3855808 100.09999847 75.156600952 0.1087810025 2.3836998940 11.998800278  -999.250000
 2942.5379808 100.09999847 73.648300171 0.1218850017 2.4539999962 11.029600143  -999.250000
 2942.6903808 100.09999847 70.537399292 0.1381210089 2.5285000801 10.290800095  -999.250000
 2942.8427808 100.09999847 68.692802429 0.1516830027 2.5769999027 9.8275995255  -999.250000
 2942.9951808 100.09999847 68.272499084 0.1530650109 2.5776000023 9.4663000107  -999.250000
 2943.1475808 100.09999847 69.803596497 0.1467349976 2.5404000282 10.122500420  -999.250000
 2943.2999808 100.09999847 70.754402161 0.1401509941 2.4921998978 11.335499763  -999.250000
 2943.4523808 100.09999847 71.825500488 0.1357769966 2.4618999958 12.944100380  -999.250000
 2943.6047808 100.09999847 71.450897217 0.1306439936 2.4632000923 14.878399849  -999.250000
 2943.7571808 100.09999847 70.914001465 0.1252660006 2.4895000458 17.727699280  -999.250000
 2943.9095808 100.09999847 70.888900757 0.1211340055 2.5227999687 23.015100479  -999.250000
 2944.0619808 100.09999847 68.593696594 0.1167289987 2.5464000702 25.592699051  -999.250000
 2944.2143808 100.09999847 68.337402344 0.1071909964 2.5597000122 27.277200699  -999.250000
 2944.3667808 100.09999847 68.056098938 0.1002530009 2.5711998940 29.249900818  -999.250000
 2944.5191808 100.09999847 68.960296631 0.0958160013 2.5880999565 30.046800613  -999.250000
 2944.6715808 100.09999847 70.669403076 0.0979310051 2.6045000553 30.351499557  -999.250000
 2944.8239808 100.09999847 70.979896545 0.0989579931 2.6101000309 30.117099762  -999.250000
 2944.9763808 100.09999847 70.745697021 0.1008049995 2.6047000885 30.023300171  -999.250000
 2945.1287808 100.09999847 70.400497437 0.1003400013 2.5894000530 26.656400681  -999.250000
 2945.2811808 100.09999847 70.356597900 0.1000720039 2.5715000629 22.991899490  -999.250000
 2945.4335808 100.09999847 70.356597900 0.0987440050 2.5552999973 17.524799347  -999.250000
 2945.5859808 100.09999847 70.356597900 0.0966069996 2.5478000641 12.652299881  -999.250000
 2945.7383808 100.09999847 70.356597900 0.0959049985 2.5471999645 10.714300156  -999.250000
 2945.8907808 100.09999847 70.392898560 0.0972159952 2.5520000458 8.5902004242  -999.250000
 2946.0431808 100.09999847 70.499801636 0.0986590013 2.5641999245 6.9233999252  -999.250000
 2946.1955808 100.09999847 70.643997192 0.0986649990 2.5841999054 6.4717001915  -999.250000
 2946.3479808 100.09999847 70.737503052 0.0988519937 2.6034998894 6.3629999161  -999.250000
 2946.5003808 100.09999847 70.690498352 0.1000160053 2.6094000340 5.8461999893  -999.250000
 2946.6527808 100.09999847 70.508598328 0.0990739986 2.5978999138 5.5125999451  -999.250000
 2946.8051808 100.09999847 70.356597900 0.0977550000 2.5815999508 5.3491001129  -999.250000
 2946.9575808 100.09999847 70.367500305 0.0978390053 2.5717999935 5.2449002266  -999.250000
 2947.1099808 100.09999847 70.414703369 0.0976879969 2.5778999329 5.1958999634  -999.250000
 2947.2623808 100.09999847 70.387496948 0.0971450061 2.5899999142 5.1276998520  -999.250000
 2947.4147808 100.09999847 70.387496948 0.0965310037 2.6033999920 5.1410999298  -999.250000
 2947.5671808 100.09999847 70.510597229 0.0950170010 2.6105000973 5.0927000046  -999.250000
 2947.7195808 100.09999847 70.479797363 0.0946650058 2.6117999554 4.6209998131  -999.250000
 2947.8719808 100.09999847 70.449096680 0.0945269987 2.6084001064 4.2631001472  -999.250000
 2948.0243808 100.09999847 70.418296814 0.0945619941 2.6085000038 4.2059001923  -999.250000
 2948.1767808 100.09999847 70.387496948 0.0961200073 2.6096000671 3.9110000134  -999.250000
 2948.3291808 100.09999847 70.418296814 0.0968239978 2.6161000729 3.4168000221  -999.250000
 2948.4815808 100.09999847 70.510597229 0.0974530056 2.6222000122 3.2885000706  -999.250000
 2948.6339808 100.09999847 70.479797363 0.0971259996 2.6345999241 3.2941999435  -999.250000
 2948.7863808 100.09999847 70.418296814 0.0963239968 2.6421000957 3.2962000370  -999.250000
 2948.9387808 100.09999847 70.479797363 0.0959179997 2.6435999870 3.2980999947  -999.250000
 2949.0911808 100.09999847 70.633201599 0.0961769968 2.6366000175 3.2980999947  -999.250000
