# LAS format log file from PETREL
# Project units are specified as depth units
#==================================================================
~Version information
VERS.   2.0:
WRAP.   NO:
#==================================================================
~Well
STRT .m      619.96198080 :
STOP .m      2949.0911808 :
STEP .m     0.15240000 :
NULL .        -999.250000 :
COMP.           : COMPANY
WELL.  SEM0400   : WELL
FLD.            : FIELD
LOC.            : LOCATION
SRVC.           : SERVICE COMPANY
DATE.  2020-05-08 20:04:29   : Log Export Date {yyyy-MM-dd HH:mm:ss}
PROV.           : PROVINCE
UWI.   SEM0400   : UNIQUE WELL ID
API.            : API NUMBER
#==================================================================
~Curve
DEPT .m                   : DEPTH
DT .us/ft                 : DT
GR .gAPI                  : GR
NPHI .m3/m3               : NPHI
RHOB .g/cm3               : RHOB
RT .ohm.m                 : RT
FACIES .                    : FACIES
~Parameter
#==================================================================
~Ascii
# ...
 1548.0779808 101.59999847 91.776397705 0.3124879897 2.5566000938 1.3681000471 4.0000000000
 1548.2303808 102.59999847 88.566902161 0.3426499963 2.4028999805 1.3750000000 4.0000000000
 1548.3827808 102.09999847 94.637702942 0.3387960196 2.5432999134 1.3877999783 4.0000000000
 1548.5351808 102.80000305 94.860900879 0.3770460188 2.5100998878 1.4016000032 4.0000000000
 1548.6875808 103.40000153 94.699302673 0.3605780005 2.5192999840 1.4114999771 4.0000000000
 1548.8399808 103.09999847 91.749397278 0.4275159836 2.4556000233 1.4134999514 4.0000000000
 1548.9923808 102.59999847 88.913398743 0.4141199887 2.4565999508 1.4125000238 4.0000000000
 1549.1447808 103.40000153 93.238197327 0.4254740179 2.4465999603 1.4084999561 4.0000000000
 1549.2971808 102.90000153 88.462799072 0.4072029889 2.4844000340 1.4055999517 4.0000000000
 1549.4495808 102.59999847 85.883201599 0.3877049983 2.4997000694 1.4046000242 4.0000000000
 1549.6019808 100.19998932 79.652397156 0.4269340038 2.4642999172 1.4016000032 2.0000000000
 1549.7543808 105.19998932 81.244499207 0.4461370111 2.4105999470 1.3956999779 4.0000000000
 1549.9067808 102.90000153 85.473701477 0.4629150033 2.4017999172 1.3828999996 4.0000000000
 1550.0591808 105.30000305 89.343101501 0.4261530042 2.4479000568 1.3651000261 4.0000000000
 1550.2115808 102.19999695 91.527297974 0.4082310200 2.4707999229 1.3562999964 4.0000000000
 1550.3639808 106.19999695 91.691001892 0.3811939955 2.4892001152 1.3543000221 4.0000000000
 1550.5163808 104.09999847 90.580596924 0.3998399973 2.4697999954 1.3631999493 4.0000000000
 1550.6687808 104.00000000 89.524299622 0.4141750038 2.4533998966 1.3806999922 4.0000000000
 1550.8211808 105.80000305 89.767898560 0.4471189976 2.4240999222 1.4088000059 4.0000000000
 1550.9735808 104.40000153 89.394203186 0.4223619699 2.4407999516 1.4572999477 4.0000000000
 1551.1259808 101.80000305 90.750801086 0.4068239927 2.4581999779 1.5484000444 4.0000000000
 1551.2783808 102.40000153 87.428001404 0.4410940111 2.4537000656 1.6720000505 4.0000000000
 1551.4307808 101.80000305 91.685401917 0.4282989800 2.4669001102 1.7839000225 4.0000000000
 1551.5831808 100.59999847 90.819702148 0.4234260321 2.4809999466 1.8717000484 4.0000000000
 1551.7355808 102.19999695 92.555198669 0.4000929892 2.4572000504 1.9588999748 4.0000000000
 1551.8879808 107.09999847 88.954002380 0.4526109993 2.3958001137 2.0636000633 4.0000000000
 1552.0403808 107.69998932 85.166900635 0.4671210051 2.3222000599 2.1761999130 4.0000000000
 1552.1927808 107.69998932 82.234298706 0.4479559958 2.3018999100 2.2744998932 4.0000000000
 1552.3451808 104.59999847 84.132003784 0.3784889877 2.3484001160 2.3454999924 4.0000000000
 1552.4975808 99.900001526 90.314002991 0.3300159872 2.4251000881 2.3819999695 4.0000000000
 1552.6499808 96.800003052 90.129898071 0.3121500015 2.4921000004 2.3956999779 4.0000000000
 1552.8023808 92.800003052 87.246398926 0.3164600134 2.5288999081 2.4166998863 4.0000000000
 1552.9547808 91.599998474 88.207496643 0.3334690034 2.5388000011 2.4653999805 4.0000000000
 1553.1071808 91.000000000 86.285202026 0.3256430030 2.5399000645 2.5450999737 4.0000000000
 1553.2595808 89.099998474 85.176101685 0.3114250004 2.5355000496 2.6798999310 4.0000000000
 1553.4119808 88.500000000 79.630798340 0.3162429929 2.5343999863 2.9623999596 2.0000000000
 1553.5643808 89.599998474 82.218597412 0.3364120126 2.5299000740 3.3006999493 4.0000000000
 1553.7167808 88.600006104 85.989402771 0.3355419934 2.5183000565 3.6737999916 4.0000000000
 1553.8691808 88.300003052 82.958000183 0.3172410131 2.5025999546 4.1676001549 4.0000000000
 1554.0215808 87.900001526 73.955703735 0.2727710009 2.4855000973 4.8646001816 2.0000000000
 1554.1739808 88.500000000 59.630699158 0.2737179995 2.4662001133 5.7252001762 2.0000000000
 1554.3263808 87.000000000 45.397701263 0.2762759924 2.4279999733 6.4222998619 2.0000000000
 1554.4787808 89.699996948 35.212799072 0.2952480018 2.3756000996 6.7890000343 2.0000000000
 1554.6311808 92.000000000 33.016300201 0.3103120029 2.3152000904 6.7150998116 3.0000000000
 1554.7835808 91.699996948 45.431301117 0.3142859936 2.2843000889 5.6265001297 3.0000000000
 1554.9359808 92.199996948 57.465900421 0.2876870036 2.2902998924 4.3654999733 3.0000000000
 1555.0883808 90.300003052 70.675903320 0.2743079960 2.3306999207 3.3763999939 3.0000000000
 1555.2407808 90.300003052 79.557403564 0.2885199785 2.3729000092 2.6631999016 3.0000000000
 1555.3931808 92.099998474 86.950401306 0.3406580091 2.4038000107 2.1443998814 3.0000000000
 1555.5455808 96.800003052 91.928703308 0.3989830017 2.4210999012 1.7854000330 4.0000000000
 1555.6979808 101.90000153 94.654899597 0.4251810014 2.4274001122 1.5470999479 4.0000000000
 1555.8503808 104.40000153 96.437797546 0.4263190031 2.4291999340 1.3653999567 4.0000000000
 1556.0027808 104.69999695 98.889701843 0.4246500134 2.4270000458 1.2297999859 4.0000000000
 1556.1551808 104.59999847 100.44159698 0.4248630106 2.4289000034 1.1956000328 4.0000000000
 1556.3075808 105.00000000 98.877403259 0.4274249971 2.4331998825 1.1979000568 4.0000000000
 1556.4599808 104.90000153 95.037002563 0.4045869708 2.4960999489 1.2225999832 4.0000000000
 1556.6123808 105.19998932 92.785102844 0.4096130133 2.4749000072 1.2929999828 4.0000000000
 1556.7647808 105.09999847 95.696701050 0.4141660035 2.4693999290 1.4029999971 4.0000000000
 1556.9171808 105.30000305 97.664398193 0.4187979996 2.4621999264 1.5103000402 4.0000000000
 1557.0695808 105.19998932 94.595298767 0.4025590122 2.4584000111 1.5686999559 4.0000000000
 1557.2219808 105.49999237 90.549499512 0.4412859976 2.4056999683 1.5904999971 4.0000000000
 1557.3743808 108.90000916 88.603897095 0.5314469934 2.3087999821 1.5843000412 4.0000000000
 1557.5267808 115.40000153 88.070503235 0.6339359879 2.2083001137 1.5276000500 4.0000000000
 1557.6791808 115.09999847 95.500801086 0.5629280210 2.2850999832 1.4778000116 4.0000000000
 1557.8315808 114.59999847 96.094398499 0.4929629862 2.3538999557 1.4445999861 4.0000000000
 1557.9839808 110.40000153 95.947700500 0.4280170202 2.3355000019 1.4070999622 4.0000000000
 1558.1363808 104.59999847 90.964797974 0.3910669982 2.4707999229 1.3595999479 4.0000000000
 1558.2887808 104.30000305 86.176399231 0.3695320189 2.4605998993 1.3142999411 4.0000000000
 1558.4411808 104.80000305 87.868598938 0.3748300076 2.4895000458 1.2871999741 4.0000000000
 1558.5935808 103.60000610 83.704002380 0.3908789754 2.4807999134 1.2804000378 4.0000000000
 1558.7459808 102.80000305 88.946899414 0.4137969911 2.4979999065 1.3231999874 4.0000000000
 1558.8983808 101.00000000 87.965599060 0.3947809935 2.5056002140 1.4063999653 4.0000000000
 1559.0507808 100.59999847 86.342697144 0.3956309855 2.4951999187 1.5173000097 4.0000000000
 1559.2031808 100.30000305 83.378898621 0.3758769929 2.4797000885 1.6243000031 4.0000000000
 1559.3555808 101.10000610 82.268302917 0.3758520186 2.4646999836 1.7087999582 4.0000000000
 1559.5079808 101.50000000 72.200401306 0.3542950153 2.4421999454 1.7947000265 1.0000000000
 1559.6603808 102.30000305 65.625000000 0.3172920048 2.4240999222 1.8982000351 1.0000000000
 1559.8127808 102.19999695 66.671501160 0.2903409898 2.4235999584 2.0222001076 1.0000000000
 1559.9651808 102.99999237 67.406196594 0.2710050046 2.4475998878 2.1630001068 1.0000000000
 1560.1175808 100.30000305 67.110496521 0.2513680160 2.4800000191 2.3104999065 1.0000000000
 1560.2699808 96.199996948 66.773902893 0.2367489934 2.5053000450 2.4475998878 1.0000000000
 1560.4223808 92.400001526 67.266998291 0.2377230078 2.5169999599 2.5625000000 1.0000000000
 1560.5747808 87.699989319 69.006896973 0.2451020032 2.5213999748 2.6491999626 1.0000000000
 1560.7271808 86.199996948 72.024398804 0.2572529912 2.5246000290 2.7014000416 1.0000000000
 1560.8795808 87.099998474 75.432800293 0.2751049995 2.5302999020 2.7170000076 1.0000000000
 1561.0319808 87.300003052 75.564201355 0.2783569992 2.5297999382 2.7111999989 1.0000000000
 1561.1843808 87.599998474 76.615501404 0.2823919952 2.5295999050 2.7053999901 1.0000000000
