# LAS format log file from PETREL
# Project units are specified as depth units
#==================================================================
~Version information
VERS.   2.0:
WRAP.   NO:
#==================================================================
~Well
STRT .m      619.96198080 :
STOP .m      2949.0911808 :
STEP .m     0.15240000 :
NULL .        -999.250000 :
COMP.           : COMPANY
WELL.  SEM0400   : WELL
FLD.            : FIELD
LOC.            : LOCATION
SRVC.           : SERVICE COMPANY
DATE.  2020-05-08 20:04:29   : Log Export Date {yyyy-MM-dd HH:mm:ss}
PROV.           : PROVINCE
UWI.   SEM0400   : UNIQUE WELL ID
API.            : API NUMBER
#==================================================================
~Curve
DEPT .m                   : DEPTH
DT .us/ft                 : DT
GR .gAPI                  : GR
NPHI .m3/m3               : NPHI
RHOB .g/cm3               : RHOB
RT .ohm.m                 : RT
FACIES .                    : FACIES
~Parameter
#==================================================================
~Ascii
# ...
 779.06758080 119.40000153 86.391601563 0.3287810087 2.4056000710 3.6240999699  -999.250000
 779.21998080 117.30000305 88.357803345 0.3320470154 2.4212999344 3.6261000633  -999.250000
 779.37238080 113.40000153 87.787803650 0.3097330034 2.4518001080 3.6359000206  -999.250000
 779.52478080 112.99999237 89.545097351 0.3027560115 2.4735999107 3.6514999866  -999.250000
 779.67718080 112.59999847 86.641799927 0.2992230058 2.4616999626 3.6496000290  -999.250000
 779.82958080 113.69999695 90.003501892 0.3105710149 2.4670999050 3.5845999718  -999.250000
 779.98198080 114.30000305 90.425399780 0.3458069861 2.4353001118 3.4414999485  -999.250000
 780.13438080 112.99999237 98.484298706 0.3820720017 2.4474000931 3.2676999569  -999.250000
 780.28678080 113.40000153 95.992103577 0.4138930142 2.4261000156 3.1136999130  -999.250000
 780.43918080 116.10000610 96.103500366 0.4271470010 2.4228000641 2.9834001064  -999.250000
 780.59158080 119.09999847 92.862800598 0.4141439795 2.4179999828 2.8749001026  -999.250000
 780.74398080 122.80000305 90.654998779 0.3914479911 2.4094998837 2.7781999111  -999.250000
 780.89638080 123.19999695 89.808097839 0.4021839797 2.3987998962 2.6856999397  -999.250000
 781.04878080 123.19999695 88.767303467 0.4085699916 2.3901000023 2.6205000877  -999.250000
 781.20118080 122.69998932 93.170303345 0.4142800272 2.3854999542 2.5980000496  -999.250000
 781.35358080 122.50000000 94.857498169 0.4279449880 2.3880999088 2.6019001007  -999.250000
 781.50598080 121.00000000 94.277900696 0.4204150140 2.3949000835 2.6212000847  -999.250000
 781.65838080 121.30000305 92.731399536 0.3998360038 2.4045000076 2.6700000763  -999.250000
 781.81078080 122.09999847 88.153099060 0.3693539798 2.4124999046 2.7441999912  -999.250000
 781.96318080 121.90000153 86.282402039 0.3522349894 2.4200997353 2.8304998875  -999.250000
 782.11558080 121.10000610 91.023002625 0.3400419950 2.4289999008 2.9230000973  -999.250000
 782.26798080 120.09999847 98.259902954 0.3198879957 2.4932000637 3.0237998962  -999.250000
 782.42038080 117.50000000 104.29499817 0.3216089904 2.5304999352 3.1152000427  -999.250000
 782.57278080 115.30000305 104.66680145 0.3265990019 2.5322999954 3.1914000511  -999.250000
 782.72518080 114.50000000 98.656501770 0.3459709883 2.4816999435 3.2560999393  -999.250000
 782.87758080 113.90000916 95.506103516 0.3832870126 2.4267001152 3.3071999550  -999.250000
 783.02998080 113.80000305 93.721801758 0.4240050018 2.3752999306 3.3348999023  -999.250000
 783.18238080 113.40000153 97.567497253 0.5075740218 2.3057999611 3.3387999535  -999.250000
 783.33478080 118.29999542 106.87280273 0.5534830093 2.2939999104 3.3348999023  -999.250000
 783.48718080 126.30000305 111.22270203 0.6021209955 2.2456998825 3.3210000992  -999.250000
 783.63958080 132.60000610 110.49690247 0.5498580337 2.2755999565 3.2737998962  -999.250000
 783.79198080 137.00000000 100.24549866 0.6229540110 2.1217000484 3.1501998901  -999.250000
 783.94438080 142.10000610 96.044799805 0.6704689860 2.0390000343 2.9505999088  -999.250000
 784.09678080 140.60000610 98.744796753 0.6086419821 2.1247999668 2.7248001099  -999.250000
 784.24918080 141.50000000 108.52300262 0.4867279828 2.3197999001 2.5178999901  -999.250000
 784.40158080 143.10000610 113.18630219 0.4621060193 2.3801000118 2.3861999512  -999.250000
 784.55398080 139.80000305 109.84410095 0.4618560076 2.3687000275 2.3210999966  -999.250000
 784.70638080 136.30000305 103.16429901 0.4360210001 2.3659000397 2.2739000320  -999.250000
 784.85878080 134.50000000 95.168601990 0.4153010249 2.3492999077 2.2133998871  -999.250000
 785.01118080 132.10000610 89.424102783 0.4053369761 2.3601999283 2.1493999958  -999.250000
 785.16358080 127.50000000 86.365898132 0.3733520210 2.3843998909 2.1243999004  -999.250000
 785.31598080 123.90000916 86.915397644 0.3432780206 2.4210000038 2.1435999870  -999.250000
 785.46838080 119.80000305 89.957496643 0.3457949758 2.4465999603 2.2147998810  -999.250000
 785.62078080 118.09999847 90.256202698 0.3652429879 2.4302000999 2.3148999214  -999.250000
 785.77318080 119.30000305 87.545303345 0.3808520138 2.4103000164 2.3975999355  -999.250000
 785.92558080 117.80000305 86.535003662 0.4103990197 2.4242999554 2.4456999302  -999.250000
 786.07798080 137.10000610 84.109596252 0.4301380217 2.4333000183 2.4795999527  -999.250000
 786.23038080 143.50000000 82.038200378 0.4261240065 2.4263999462 2.5462000370  -999.250000
 786.38278080 120.00000000 82.003799438 0.3866830170 2.4052999020 2.6861000061  -999.250000
 786.53518080 117.69998932 83.249702454 0.3685929775 2.3810000420 2.8743999004  -999.250000
 786.68758080 118.80000305 84.665000916 0.3543349802 2.3619999886 3.0550999641  -999.250000
 786.83998080 118.29999542 84.529998779 0.3435499966 2.3491001129 3.2286000252  -999.250000
 786.99238080 117.69998932 80.057998657 0.3332880139 2.3376998901 3.4274001122  -999.250000
 787.14478080 119.30000305 77.767501831 0.3406249881 2.3327999115 3.6709001064  -999.250000
 787.29718080 115.79999542 75.896697998 0.3406949937 2.3347001076 3.9475998878  -999.250000
 787.44958080 115.79999542 71.596496582 0.3298360109 2.3448998928 4.2336997986  -999.250000
 787.60198080 115.59999847 66.393898010 0.3148300052 2.3505001068 4.5966000557  -999.250000
 787.75438080 113.29999542 58.910198212 0.2970499992 2.3443999290 4.9517002106  -999.250000
 787.90678080 112.99999237 52.611999512 0.2846719921 2.3259999752 5.3853998184  -999.250000
 788.05918080 111.59999847 48.813800812 0.2929960191 2.3041000366 5.9498000145  -999.250000
 788.21158080 109.30000305 45.097999573 0.3162229955 2.2836999893 6.6093001366  -999.250000
 788.36398080 113.69999695 41.398799896 0.3036040068 2.2544000149 7.3390998840  -999.250000
 788.51638080 115.90000153 39.238498688 0.2972940207 2.1970999241 7.9682998657  -999.250000
 788.66878080 123.60000610 30.526599884 0.3174970150 2.1231000423 8.2750997543  -999.250000
 788.82118080 124.80000305 25.511199951 0.3761560023 2.0641999245 8.3605003357  -999.250000
 788.97358080 123.60000610 25.259599686 0.3989120126 2.0325999260 7.9952001572  -999.250000
 789.12598080 125.19998932 29.641199112 0.4039250314 2.0181999207 7.0125999451  -999.250000
 789.27838080 121.80000305 33.245800018 0.3717089891 2.0320000648 5.9257001877  -999.250000
 789.43078080 119.80000305 41.439800262 0.3112629950 2.1415998936 5.0160999298  -999.250000
 789.58318080 117.30000305 53.581901550 0.2794879973 2.2667000294 4.3035998344  -999.250000
 789.73558080 115.09999847 64.016296387 0.2653120160 2.3629999161 3.7000999451  -999.250000
 789.88798080 112.69998932 73.440498352 0.3054659963 2.3952000141 3.1282000542  -999.250000
 790.04038080 112.90000153 77.896797180 0.3298459947 2.4212999344 2.6456999779  -999.250000
 790.19278080 113.50000000 78.822700500 0.3567459881 2.4395000935 2.3108000755  -999.250000
 790.34518080 119.00000000 77.356597900 0.3990459740 2.4426999092 2.1329998970  -999.250000
 790.49758080 120.79999542 75.080299377 0.4295749962 2.4368000031 2.1189000607  -999.250000
 790.64998080 127.90000153 82.487998962 0.4905830026 2.4277999401 2.1728000641  -999.250000
 790.80238080 130.10000610 79.864402771 0.4646569788 2.4216001034 2.3055000305  -999.250000
 790.95478080 132.10000610 81.993400574 0.4254600108 2.4356999397 2.4437999725  -999.250000
 791.10718080 115.59999847 66.506896973 0.3230839968 2.4807999134 2.5169000626  -999.250000
 791.25958080 102.50000000 62.027500153 0.2483169883 2.5617001057 2.5810000896  -999.250000
 791.41198080 91.599998474 58.696498871 0.2154719979 2.6152999401 2.7258999348  -999.250000
 791.56438080 87.800003052 64.845703125 0.2839940190 2.6017000675 2.9212999344  -999.250000
 791.71678080 101.10000610 69.013000488 0.3386610150 2.5341999531 3.0202999115  -999.250000
 791.86918080 121.80000305 73.453903198 0.3958330154 2.4813001156 2.9437999725  -999.250000
 792.02158080 122.50000000 72.465896606 0.3940969706 2.4656999111 2.7534999847  -999.250000
 792.17398080 120.09999847 74.403900146 0.3792160153 2.4621999264 2.5560998917  -999.250000
