# LAS format log file from PETREL
# Project units are specified as depth units
#==================================================================
~Version information
VERS.   2.0:
WRAP.   NO:
#==================================================================
~Well
STRT .m      598.62601128 :
STOP .m      2812.0836113 :
STEP .m     0.15240000 :
NULL .        -999.250000 :
COMP.           : COMPANY
WELL.  SEM0410   : WELL
FLD.            : FIELD
LOC.            : LOCATION
SRVC.           : SERVICE COMPANY
DATE.  2020-05-08 20:04:55   : Log Export Date {yyyy-MM-dd HH:mm:ss}
PROV.           : PROVINCE
UWI.   SEM0410   : UNIQUE WELL ID
API.            : API NUMBER
#==================================================================
~Curve
DEPT .m                   : DEPTH
DT .us/ft                 : DT
GR .gAPI                  : GR
NPHI .m3/m3               : NPHI
RHOB .g/cm3               : RHOB
RT .ohm.m                 : RT
~Parameter
#==================================================================
~Ascii
# ...
 738.52921128 121.63140106 65.086502075 0.3471370041 2.3222000599 1.9850000143
 738.68161128 119.83149719 64.330001831 0.3791500032 2.3331999779 2.0431001186
 738.83401128 127.85630035 62.885898590 0.4081340134 2.3224000931 2.1285998821
 738.98641128 131.55839539 69.051597595 0.4230989814 2.2994999886 2.2216000557
 739.13881128 136.52619934 73.536598206 0.4030590057 2.2669999599 2.2827999592
 739.29121128 138.66059875 78.690399170 0.3998860121 2.2255001068 2.3092999458
 739.44361128 140.83850098 82.012496948 0.3983350098 2.1684999466 2.2992000580
 739.59601128 141.74119568 82.641700745 0.4180580080 2.1068000793 2.2595000267
 739.74841128 142.17059326 81.785202026 0.4364009798 2.0608000755 2.2499001026
 739.90081128 138.40190125 79.710800171 0.4192450047 2.0457999706 2.2880001068
 740.05321128 132.44970703 76.656402588 0.3723520041 2.0748000145 2.3534998894
 740.20561128 127.27629089 75.433403015 0.3211600184 2.1431000233 2.4230999947
 740.35801128 121.71360016 74.030799866 0.3015669882 2.2279999256 2.4804000854
 740.51041128 117.78089142 69.438499451 0.3145250082 2.2962000370 2.5388998985
 740.66281128 115.27760315 65.556098938 0.3684239984 2.3345999718 2.6308999062
 740.81521128 116.11849976 64.287002563 0.4062060118 2.3459999561 2.7572999001
 740.96761128 120.18119812 64.228302002 0.3743470013 2.3436000347 2.8815000057
 741.12001128 118.92620087 60.926300049 0.3598970175 2.3371999264 2.9256999493
 741.27241128 116.57830048 57.297500610 0.3546690047 2.3376998901 2.8706998825
 741.42481128 118.43639374 56.392501831 0.3790570199 2.3431000710 2.7386999130
 741.57721128 119.34049988 63.950099945 0.4036790133 2.3443000317 2.5762000084
 741.72961128 120.23300171 69.043701172 0.4207759798 2.3345999718 2.4049999714
 741.88201128 124.74210358 74.190399170 0.4466329813 2.3160998821 2.2486999035
 742.03441128 125.37760162 78.586303711 0.4604249895 2.2904999256 2.1159999371
 742.18681128 130.39660645 86.268699646 0.4519409835 2.2551000118 2.0027999878
 742.33921128 134.40829468 93.328697205 0.4301509857 2.2039999962 1.9215999842
 742.49161128 139.69580078 95.818702698 0.4101990163 2.1493000984 1.8773000240
 742.64401128 141.30259705 99.787902832 0.4018749893 2.1115000248 1.8550000191
 742.79641128 139.55000305 101.86720276 0.3748329878 2.1106998920 1.8560999632
 742.94881128 134.49789429 96.226501465 0.3534579873 2.1443998814 1.8760999441
 743.10121128 128.92080688 87.519996643 0.3554819822 2.1923000813 1.9111000299
 743.25361128 122.02649689 78.597503662 0.3557450175 2.2284998894 1.9543000460
 743.40601128 120.02040100 74.234199524 0.3738479912 2.2435998917 1.9925999641
 743.55841128 121.93419647 74.379096985 0.3706530035 2.2518999577 2.0280001163
 743.71081128 123.11699677 75.388099670 0.3537040055 2.2708001137 2.0859000683
 743.86321128 120.33399963 78.424201965 0.3140479922 2.3006999493 2.1703999043
 744.01561128 114.09120178 75.442298889 0.2824500203 2.3299999237 2.2964999676
 744.16801128 110.64199829 74.344200134 0.2781740129 2.3489000797 2.4834001064
 744.32041128 109.56809235 65.910499573 0.2751849890 2.3524000645 2.7223999500
 744.47281128 107.74400330 60.853298187 0.2692869902 2.3394999504 2.9988000393
 744.62521128 109.54070282 54.515998840 0.2631500065 2.3124001026 3.3234999180
 744.77761128 113.85839844 48.181900024 0.2702720165 2.2751998901 3.6584000587
 744.93001128 119.92890167 45.007598877 0.2788299918 2.2453999519 3.8929998875
 745.08241128 121.04679871 45.097599030 0.2628560066 2.2351999283 3.9519000053
 745.23481128 118.14360046 51.733501434 0.2434310019 2.2492001057 3.8041000366
 745.38721128 115.77529907 54.698600769 0.2314829975 2.2667000294 3.4886999130
 745.53961128 113.84490204 57.348598480 0.2276829928 2.2627999783 3.1294000149
 745.69201128 119.42669678 58.390300751 0.2234050035 2.2288999557 2.7481000423
 745.84441128 125.62619781 58.436599731 0.2315449864 2.1826999187 2.3594999313
 745.99681128 133.58050537 60.709300995 0.2263419926 2.1530001163 2.0504000187
 746.14921128 140.38710022 61.808101654 0.2242849916 2.1549999714 1.8207000494
 746.30161128 144.22410583 62.852600098 0.2438030094 2.1768999100 1.6727000475
 746.45401128 139.51420593 66.106796265 0.2602989972 2.2000000477 1.5846999884
 746.60641128 138.26910400 70.945602417 0.2830269933 2.2118999958 1.5320999622
 746.75881128 137.18449402 73.616203308 0.3196089864 2.2109000683 1.5213999748
 746.91121128 137.71800232 76.265403748 0.3511780202 2.1979000568 1.5654000044
 747.06361128 142.18089294 78.640998840 0.3872800171 2.1619999409 1.6234999895
 747.21601128 146.65699768 79.939102173 0.4233599901 2.0861999989 1.6909999847
 747.36841128 146.56250000 76.832702637 0.4328159988 1.9769999981 1.7743999958
 747.52081128 145.59500122 73.681503296 0.4260459840 1.8884999752 1.8623000383
 747.67321128 139.44949341 77.184898376 0.3864649832 1.8839000463 1.9664000273
 747.82561128 133.27749634 84.440803528 0.3771469891 1.9630000591 2.0943999290
 747.97801128 130.26879883 87.722801208 0.3796419799 2.0629000664 2.1816000938
 748.13041128 129.99249268 89.920402527 0.4186190069 2.1210000515 2.2118000984
 748.28281128 132.51950073 88.006698608 0.4294139743 2.1343998909 2.2163999081
 748.43521128 129.88420105 88.648597717 0.4135209918 2.1373000145 2.2235999107
 748.58761128 125.14449310 83.250503540 0.3846510053 2.1621999741 2.2543001175
 748.74001128 121.86199951 80.749298096 0.3523870111 2.2135999203 2.3168001175
 748.89241128 116.51280212 75.442802429 0.3201169968 2.2757000923 2.4031999111
 749.04481128 113.17209625 75.516601563 0.2955909967 2.3254001141 2.5553998947
 749.19721128 112.56929779 73.081497192 0.2933079898 2.3517999649 2.7750999928
 749.34961128 112.21849823 68.155799866 0.2977660000 2.3659000397 3.0931999683
 749.50201128 110.12439728 62.322498322 0.2743729949 2.3847000599 3.5653998852
 749.65441128 102.94210815 52.163200378 0.2172480077 2.4181001186 4.1848001480
 749.80681128 93.731597900 44.451499939 0.1350329965 2.4716000557 4.8737001419
 749.95921128 82.695999146 36.666400909 0.0771479979 2.5420000553 5.7013998032
 750.11161128 70.397598267 34.876800537 0.0506629981 2.6057000160 6.8875999451
 750.26401128 67.927597046 36.655200958 0.0700139999 2.6308999062 8.2206001282
 750.41641128 67.620796204 41.249698639 0.1186919957 2.6096999645 8.7396001816
 750.56881128 71.181198120 47.103599548 0.1745260060 2.5648000240 8.2835998535
 750.72121128 77.782501221 49.774101257 0.1941290051 2.5213000774 7.3907999992
 750.87361128 85.279998779 52.711799622 0.2085120082 2.4881999493 6.4542999268
 751.02601128 94.532493591 53.176998138 0.2254980057 2.4612998962 5.7260999680
 751.17841128 98.142898560 53.724899292 0.2512470186 2.4377000332 5.1252999306
 751.33081128 98.217796326 54.492500305 0.2816329896 2.4148001671 4.6662998199
 751.48321128 101.03360748 54.572399139 0.2889460027 2.3993000984 4.3689999580
 751.63561128 101.81590271 57.168498993 0.2877510190 2.3984999657 4.1489000320
 751.78801128 105.39179993 54.780601501 0.2719630003 2.4059000015 3.9525001049
 751.94041128 109.94029999 53.732200623 0.2528479993 2.4063999653 3.7530000210
 752.09281128 110.67970276 50.571601868 0.2535090148 2.3863999844 3.5383000374
 752.24521128 114.05359650 50.481800079 0.2633689940 2.3547999859 3.2832000256
 752.39761128 116.88039398 51.230400085 0.2790859938 2.3293001652 3.0411999226
 752.55001128 116.78900146 56.297901154 0.2909910083 2.3211998940 2.8148000240
 752.70241128 117.83650970 62.566898346 0.2912809849 2.3283998966 2.6071000099
 752.85481128 116.70559692 66.589897156 0.2963140011 2.3417999744 2.3996000290
 753.00721128 116.20420074 68.126296997 0.2810699940 2.3580000401 2.2395999432
 753.15961128 117.87770081 66.134399414 0.2743220031 2.3763000965 2.1559998989
 753.31201128 117.90419769 67.101699829 0.2955699861 2.3924002647 2.1247999668
 753.46441128 116.92810822 64.696403503 0.2754119933 2.4015998840 2.1768999100
 753.61681128 116.46800232 63.420101166 0.2700780034 2.4014999866 2.2783999443
 753.76921128 115.15900421 59.716701508 0.2482760102 2.3976998329 2.4214999676
 753.92161128 113.54280090 58.678298950 0.2474920154 2.3910999298 2.5852000713
