# LAS format log file from PETREL
# Project units are specified as depth units
#==================================================================
~Version information
VERS.   2.0:
WRAP.   NO:
#==================================================================
~Well
STRT .m      619.96198080 :
STOP .m      2949.0911808 :
STEP .m     0.15240000 :
NULL .        -999.250000 :
COMP.           : COMPANY
WELL.  SEM0400   : WELL
FLD.            : FIELD
LOC.            : LOCATION
SRVC.           : SERVICE COMPANY
DATE.  2020-05-08 20:04:29   : Log Export Date {yyyy-MM-dd HH:mm:ss}
PROV.           : PROVINCE
UWI.   SEM0400   : UNIQUE WELL ID
API.            : API NUMBER
#==================================================================
~Curve
DEPT .m                   : DEPTH
DT .us/ft                 : DT
GR .gAPI                  : GR
NPHI .m3/m3               : NPHI
RHOB .g/cm3               : RHOB
RT .ohm.m                 : RT
FACIES .                    : FACIES
~Parameter
#==================================================================
~Ascii
# ...
 2635.2995808 102.00000000 126.06970215 0.4125089943 2.4693000317 3.2019999027 4.0000000000
 2635.4519808 105.00000000 139.57589722 0.4704050124 2.4247000217 3.3190000057 4.0000000000
 2635.6043808 105.00000000 143.41079712 0.4615100026 2.4135000706 3.4047000408 4.0000000000
 2635.7567808 105.00000000 135.32209778 0.4431110024 2.4217998981 3.5081000328 4.0000000000
 2635.9091808 105.19998932 122.88629913 0.4368000031 2.4389998913 3.6742000580 4.0000000000
 2636.0615808 99.199996948 114.75099945 0.4316659868 2.4658000469 3.7994000912 4.0000000000
 2636.2139808 92.900001526 110.50650024 0.4181460142 2.5171000957 3.8642001152 4.0000000000
 2636.3663808 86.699996948 107.37889862 0.3636360168 2.5594000816 3.9044001102 4.0000000000
 2636.5187808 84.199996948 101.94300079 0.3150320053 2.5773999691 3.9409999847 4.0000000000
 2636.6711808 84.900001526 99.708999634 0.2842289805 2.5720000267 4.0255999565 4.0000000000
 2636.8235808 85.199989319 101.34729767 0.2881239951 2.5729999542 4.1717000008 4.0000000000
 2636.9759808 83.199996948 101.27279663 0.2789259851 2.5878000259 4.2870998383 4.0000000000
 2637.1283808 81.599998474 96.804901123 0.2793450058 2.6027998924 4.3562998772 4.0000000000
 2637.2807808 81.599998474 91.964599609 0.2839300036 2.6077001095 4.4138998985 4.0000000000
 2637.4331808 81.500000000 91.323501587 0.2941620052 2.5987000465 4.4485001564 4.0000000000
 2637.5855808 82.400001526 89.641296387 0.2967419922 2.5882999897 4.4793000221 4.0000000000
 2637.7379808 84.000000000 91.341003418 0.2746190131 2.5841000080 4.5023999214 4.0000000000
 2637.8903808 83.199996948 98.509300232 0.2786940038 2.5845999718 4.4984998703 4.0000000000
 2638.0427808 83.600006104 101.02200317 0.2914670110 2.5875000954 4.5163998604 4.0000000000
 2638.1951808 82.900001526 105.89939880 0.2980079949 2.5906999111 4.5805001259 4.0000000000
 2638.3475808 81.500000000 101.31759644 0.2941360176 2.5934000015 4.6905999184 4.0000000000
 2638.4999808 80.900001526 103.57890320 0.2831430137 2.5875999928 4.8850998878 4.0000000000
 2638.6523808 77.199996948 100.12200165 0.2565519810 2.6354999542 5.0795001984 4.0000000000
 2638.8047808 75.099998474 87.128700256 0.2290430069 2.6333999634 5.2238001823 4.0000000000
 2638.9571808 73.599998474 79.925903320 0.1913779974 2.6322000027 5.3758001328 2.0000000000
 2639.1095808 72.800003052 78.049697876 0.1718380004 2.6303000450 5.5468997955 2.0000000000
 2639.2619808 74.099998474 85.429000854 0.1852179915 2.6340999603 5.7484998703 4.0000000000
 2639.4143808 75.699996948 90.010803223 0.2133079916 2.6119000912 5.9576997757 4.0000000000
 2639.5667808 76.000000000 90.971496582 0.2246559858 2.6250000000 6.0728001595 4.0000000000
 2639.7191808 77.000000000 90.380302429 0.2363240123 2.6315000057 6.1571002007 4.0000000000
 2639.8715808 76.199996948 89.419601440 0.2386529893 2.6315999031 6.3600997925 4.0000000000
 2640.0239808 74.500000000 85.281196594 0.2362540066 2.6221001148 6.6209001541 4.0000000000
 2640.1763808 72.900001526 84.542098999 0.2195899934 2.6206998825 7.0427999496 4.0000000000
 2640.3287808 71.699996948 79.812500000 0.2006450146 2.6266999245 7.7803001404 2.0000000000
 2640.4811808 69.199996948 74.196098328 0.1796299964 2.6396999359 8.7052001953 2.0000000000
 2640.6335808 67.599998474 68.986099243 0.1517529935 2.6508998871 9.5728998184 2.0000000000
 2640.7859808 64.900001526 61.928600311 0.1299600005 2.6551001072 10.349499702 2.0000000000
 2640.9383808 64.900001526 60.302799225 0.1259769946 2.6514999866 10.942700386 2.0000000000
 2641.0907808 65.599998474 57.088100433 0.1228390038 2.6408998966 11.339799881 2.0000000000
 2641.2431808 66.400001526 62.556800842 0.1274240017 2.6280999184 11.560600281 3.0000000000
 2641.3955808 67.800003052 66.547401428 0.1328099966 2.6198000908 11.485699654 3.0000000000
 2641.5479808 68.800003052 72.311599731 0.1420779973 2.6136000156 11.286100388 3.0000000000
 2641.7003808 69.500000000 72.533302307 0.1461060047 2.6150999069 11.053299904 3.0000000000
 2641.8527808 69.800003052 71.277000427 0.1520220041 2.6149001122 10.828700066 3.0000000000
 2642.0051808 70.199996948 72.089897156 0.1586239934 2.6161000729 10.737199783 3.0000000000
 2642.1575808 71.300003052 71.757400513 0.1711100042 2.6094000340 10.704000473 3.0000000000
 2642.3099808 71.800003052 73.715698242 0.1763979942 2.6013998985 10.720600128 3.0000000000
 2642.4623808 72.000000000 72.791999817 0.1810880154 2.5913999081 10.820400238 3.0000000000
 2642.6147808 71.099998474 75.637100220 0.1803319901 2.5917000771 10.920200348 3.0000000000
 2642.7671808 69.900001526 71.424797058 0.1778860092 2.5999000072 10.903599739 3.0000000000
 2642.9195808 69.199996948 70.796699524 0.1649659872 2.6143000126 10.813799858 3.0000000000
 2643.0719808 70.000000000 68.394897461 0.1597599983 2.6199998856 10.691200256 3.0000000000
 2643.2243808 71.000000000 73.272300720 0.1674039960 2.6154999733 10.428099632 3.0000000000
 2643.3767808 71.800003052 75.009002686 0.1800989956 2.6075000763 10.041600227 3.0000000000
 2643.5291808 72.400001526 78.851799011 0.1808180064 2.6057999134 9.6148996353 3.0000000000
 2643.6815808 71.599998474 76.339202881 0.1820970029 2.6171998978 9.0573997498 3.0000000000
 2643.8339808 72.699996948 79.516899109 0.1816650033 2.6243000031 8.6414003372 3.0000000000
 2643.9863808 74.500000000 79.812500000 0.1792040020 2.6257998943 8.4815998077 3.0000000000
 2644.1387808 75.099998474 85.946296692 0.1867359877 2.6147999763 8.5276002884 4.0000000000
 2644.2911808 76.000000000 82.916297913 0.2084939927 2.6080999374 8.6801004410 4.0000000000
 2644.4435808 73.300003052 78.623397827 0.2160660028 2.6057999134 8.7621002197 3.0000000000
 2644.5959808 71.199996948 70.300498962 0.1951029897 2.6078999043 8.8070001602 3.0000000000
 2644.7483808 69.900001526 70.548797607 0.1689690053 2.6094000340 8.8692998886 3.0000000000
 2644.9007808 70.099998474 70.496902466 0.1553919911 2.6103000641 8.9490995407 3.0000000000
 2645.0531808 70.800003052 71.059898376 0.1637170017 2.6115999222 8.9709997177 3.0000000000
 2645.2055808 73.800003052 74.039001465 0.1779409945 2.6117000580 8.8743000031 3.0000000000
 2645.3579808 74.699996948 73.712303162 0.1933329999 2.6099998951 8.5605001450 3.0000000000
 2645.5103808 76.599998474 74.223800659 0.1993059963 2.6087999344 8.0678997040 3.0000000000
 2645.6627808 77.699989319 76.366897583 0.2090819925 2.6103000641 7.5486001968 3.0000000000
 2645.8151808 78.199996948 80.662399292 0.2208499908 2.6119000912 7.0680999756 4.0000000000
 2645.9675808 78.199996948 83.466003418 0.2348259985 2.6124999523 6.3650999069 4.0000000000
 2646.1199808 78.900009155 84.850997925 0.2489999980 2.6103000641 5.7287001610 4.0000000000
 2646.2723808 79.500000000 84.690002441 0.2540850043 2.6089999676 5.0560002327 4.0000000000
 2646.4247808 79.199996948 89.077796936 0.2529920042 2.6127998829 4.3973999023 4.0000000000
 2646.5771808 80.800003052 94.442497253 0.2546349764 2.6194999218 3.8852000237 4.0000000000
 2646.7295808 82.500000000 93.969100952 0.2686389983 2.6264998913 3.4844000340 4.0000000000
 2646.8819808 84.199996948 95.183799744 0.2961879969 2.6254999638 3.1853001118 4.0000000000
 2647.0343808 87.900001526 97.326896667 0.3253860176 2.6189999580 2.9646999836 4.0000000000
 2647.1867808 91.100006104 101.68710327 0.3519769907 2.6043000221 2.9333000183 4.0000000000
 2647.3391808 93.099998474 104.42140198 0.3810889721 2.5845000744 2.9902000427 4.0000000000
 2647.4915808 95.400001526 104.27359772 0.3806269765 2.5578000546 3.1721999645 4.0000000000
 2647.6439808 96.000000000 103.09120178 0.3742269874 2.5276000500 3.4779999256 4.0000000000
 2647.7963808 100.40000153 105.45600128 0.3937830031 2.4542000294 3.8673000336 4.0000000000
 2647.9487808 109.09999847 112.32869720 0.4729449749 2.3229000568 4.3252000809 4.0000000000
 2648.1011808 109.69999695 113.95010376 0.5782880187 2.1810998917 4.8064999580 4.0000000000
 2648.2535808 106.00000000 109.07710266 0.5869320035 2.1210000515 5.1673998833 4.0000000000
 2648.4059808 98.099998474 105.23429871 0.4987149835 2.2081999779 5.4271998405 4.0000000000
