# LAS format log file from PETREL
# Project units are specified as depth units
#==================================================================
~Version information
VERS.   2.0:
WRAP.   NO:
#==================================================================
~Well
STRT .m      598.62601128 :
STOP .m      2812.0836113 :
STEP .m     0.15240000 :
NULL .        -999.250000 :
COMP.           : COMPANY
WELL.  SEM0410   : WELL
FLD.            : FIELD
LOC.            : LOCATION
SRVC.           : SERVICE COMPANY
DATE.  2020-05-08 20:04:55   : Log Export Date {yyyy-MM-dd HH:mm:ss}
PROV.           : PROVINCE
UWI.   SEM0410   : UNIQUE WELL ID
API.            : API NUMBER
#==================================================================
~Curve
DEPT .m                   : DEPTH
DT .us/ft                 : DT
GR .gAPI                  : GR
NPHI .m3/m3               : NPHI
RHOB .g/cm3               : RHOB
RT .ohm.m                 : RT
~Parameter
#==================================================================
~Ascii
# ...
 2355.1884113 86.200805664 39.159999847 0.1646500081 2.3863000870 10.545999527
 2355.3408113 83.588699341 39.353698730 0.1624460071 2.3759000301 10.627400398
 2355.4932113 79.679702759 41.318099976 0.1635610014 2.3606998920 10.627400398
 2355.6456113 76.662597656 44.182300568 0.1744450033 2.3619000912 10.455599785
 2355.7980113 73.788101196 43.775600433 0.2036580145 2.3887000084 9.9694004059
 2355.9504113 72.542503357 46.965400696 0.2370380014 2.4316000938 9.0865001678
 2356.1028113 73.873100281 51.843399048 0.2733820081 2.4705998898 7.8133001328
 2356.2552113 74.838493347 59.146099091 0.3128769994 2.5043001175 6.5120000839
 2356.4076113 75.863296509 65.405502319 0.3349579871 2.5369999409 5.4291000366
 2356.5600113 78.464599609 72.620597839 0.3407779932 2.5634999275 4.5998001099
 2356.7124113 83.101303101 80.053703308 0.3378279805 2.5748000145 3.9447000027
 2356.8648113 85.810997009 84.967498779 0.3388890028 2.5715999603 3.4611001015
 2357.0172113 87.369102478 88.792602539 0.3586879969 2.5675001144 3.0827999115
 2357.1696113 87.665496826 90.413398743 0.3671889901 2.5739998817 2.8234000206
 2357.3220113 87.707099915 88.984001160 0.3517900109 2.6057999134 2.6858999729
 2357.4744113 88.889694214 88.189903259 0.3345830142 2.6335999966 2.6535999775
 2357.6268113 89.524108887 86.868103027 0.3376359940 2.6442000866 2.7221999168
 2357.7792113 87.510597229 87.666397095 0.3271590173 2.6322000027 2.8464000225
 2357.9316113 83.872703552 86.394897461 0.3137080073 2.6212000847 3.0269999504
 2358.0840113 82.265602112 86.249702454 0.3071590066 2.6178998947 3.2702999115
 2358.2364113 81.962303162 90.939598083 0.3190430105 2.6112000942 3.6008000374
 2358.3888113 81.351600647 90.392601013 0.3296720088 2.6024999619 4.0309000015
 2358.5412113 80.963607788 89.701797485 0.2961570024 2.5971000195 4.5679998398
 2358.6936113 77.057502747 88.685401917 0.2531850040 2.6020998955 5.1670999527
 2358.8460113 72.312599182 90.746803284 0.1964360029 2.6138000488 5.8049998283
 2358.9984113 69.000000000 93.168899536 0.1804949939 2.6308999062 6.5156002045
 2359.1508113  -999.250000 94.118896484 0.1754000038 2.6440000534 7.3954000473
 2359.3032113  -999.250000 95.196800232 0.1722680032 2.6542000771 8.4518995285
 2359.4556113  -999.250000 91.609703064 0.1547780037 2.6640999317 9.6810998917
 2359.6080113  -999.250000 87.334701538 0.1452070028 2.6760001183 10.640899658
 2359.7604113  -999.250000 84.473396301 0.1499100029 2.6828999519 11.203800201
 2359.9128113  -999.250000 84.365798950 0.1614570022 2.6728000641 11.566699982
 2360.0652113  -999.250000 85.449600220 0.1706760079 2.6431999207 11.775699615
 2360.2176113  -999.250000 87.801200867 0.1634370089 2.6024999619 11.873600006
 2360.3700113  -999.250000 85.977401733 0.1572950035 2.5710999966 11.774200439
 2360.5224113  -999.250000 85.752197266 0.1573310047 2.5692999363 11.620100021
 2360.6748113  -999.250000 86.353797913 0.1634960026 2.5836999416 11.510100365
 2360.8272113  -999.250000 86.169799805 0.1657480001 2.5539999008 11.582400322
 2360.9796113  -999.250000 88.945800781 0.1503619999 2.4551999569 11.761500359
 2361.1320113  -999.250000 90.178901672 0.1282880008 2.3297998905 11.947899818
 2361.2844113  -999.250000 94.259399414 0.1166600063 2.2557001114 12.135299683
 2361.4368113  -999.250000 91.791297913 0.1113549992 2.2592999935 12.345299721
 2361.5892113  -999.250000 92.064201355 0.1157629937 2.2969000340 12.638400078
 2361.7416113  -999.250000 91.030899048 0.1079479977 2.3315999508 12.965700150
 2361.8940113  -999.250000 91.652198792 0.1050090045 2.3461000919 13.281299591
 2362.0464113  -999.250000 90.600601196 0.1064830050 2.3591001034 13.555100441
 2362.1988113  -999.250000 90.793998718 0.1115719974 2.3733000755 13.701000214
 2362.3512113  -999.250000 90.423103333 0.1206090003 2.3987998962 13.731399536
 2362.5036113  -999.250000 90.311500549 0.1235800013 2.4303998947 13.742400169
 2362.6560113  -999.250000 89.390899658 0.1339270025 2.4705998898 13.719200134
 2362.8084113  -999.250000 87.486503601 0.1436360031 2.5062003136 13.674599648
 2362.9608113  -999.250000 86.062400818 0.1654879898 2.5341000557 13.644000053
 2363.1132113  -999.250000 86.672897339 0.1718199849 2.5539000034 13.520999908
 2363.2656113  -999.250000 86.977798462 0.1850109994 2.5536999702 13.439399719
 2363.4180113  -999.250000 87.282798767 0.1758230031 2.5467998981 13.272100449
 2363.5704113  -999.250000 87.082496643 0.1738839895 2.5492000580 12.991900444
 2363.7228113  -999.250000 87.271102905 0.1627240032 2.5794000626 12.496999741
 2363.8752113  -999.250000 85.859100342 0.1672520041 2.5992999077 11.790200233
 2364.0276113  -999.250000 85.431900024 0.1739439964 2.5982999802 11.015099525
 2364.1800113  -999.250000 85.497802734 0.2043679953 2.5831000805 10.278300285
 2364.3324113  -999.250000 85.791702271 0.2247850001 2.5887000561 9.5927000046
 2364.4848113  -999.250000 86.019798279 0.2425310016 2.6157000065 8.9734001160
 2364.6372113  -999.250000  -999.250000 0.2407210022 2.6451001167 8.4841003418
 2364.7896113  -999.250000  -999.250000 0.2461770028 2.6524000168 8.0441999435
 2364.9420113  -999.250000  -999.250000 0.2488809973 2.6443998814 7.6586999893
 2365.0944113  -999.250000  -999.250000 0.2389170080 2.6324000359 7.3864002228
 2365.2468113  -999.250000  -999.250000 0.2400349975 2.6326999664 7.2133002281
 2365.3992113  -999.250000  -999.250000 0.2365539968 2.6340000629 7.1279997826
 2365.5516113  -999.250000  -999.250000 0.2517270148 2.6303000450 7.0447998047
 2365.7040113  -999.250000  -999.250000 0.2441290021 2.6201999187 6.9418001175
 2365.8564113  -999.250000  -999.250000 0.2445639968 2.6050000191 6.8596000671
 2366.0088113  -999.250000  -999.250000 0.2473030090 2.5968000889 6.8179001808
 2366.1612113  -999.250000  -999.250000 0.2640050054 2.5971999168 6.7779998779
 2366.3136113  -999.250000  -999.250000 0.2755769789 2.6105000973 6.7097001076
 2366.4660113  -999.250000  -999.250000 0.2714850008 2.6177000999 6.6135001183
 2366.6184113  -999.250000  -999.250000 0.2560679913 2.6145000458 6.5144000053
 2366.7708113  -999.250000  -999.250000 0.2570599914 2.5943000317 6.4402999878
 2366.9232113  -999.250000  -999.250000 0.2610819936 2.5734999180 6.3898000717
 2367.0756113  -999.250000  -999.250000 0.2600890100 2.5620000362 6.3260002136
 2367.2280113  -999.250000  -999.250000 0.2467370033 2.5629999638 6.2635998726
 2367.3804113  -999.250000  -999.250000 0.2374939919 2.5701999664 6.2017998695
 2367.5328113  -999.250000  -999.250000 0.2427809834 2.5762999058 6.1062002182
 2367.6852113  -999.250000  -999.250000 0.2601009905 2.5787999630 5.9814000130
 2367.8376113  -999.250000  -999.250000 0.2636550069 2.5840001106 5.8074002266
 2367.9900113  -999.250000  -999.250000 0.2698859870 2.5936000347 5.6220998764
 2368.1424113  -999.250000  -999.250000 0.2757140100 2.6124999523 5.4446001053
 2368.2948113  -999.250000  -999.250000 0.2783359885 2.6240000725 5.2603998184
 2368.4472113  -999.250000  -999.250000 0.2735619843 2.6261000633 5.0746998787
 2368.5996113  -999.250000  -999.250000 0.2650490105 2.6145000458 4.8687000275
 2368.7520113  -999.250000  -999.250000 0.2668849826 2.6071999073 4.6641998291
 2368.9044113  -999.250000  -999.250000 0.2696329951 2.6029999256 4.4684000015
 2369.0568113  -999.250000  -999.250000 0.2597140074 2.6001999378 4.3323001862
 2369.2092113  -999.250000  -999.250000 0.2582850158 2.5963997841 4.2181000710
 2369.3616113  -999.250000  -999.250000 0.2575019896 2.5945999622 4.1433000565
 2369.5140113  -999.250000  -999.250000 0.2626210153 2.5992999077 4.0939002037
 2369.6664113  -999.250000  -999.250000 0.2652739882 2.6003000736 4.0598001480
 2369.8188113  -999.250000  -999.250000 0.2651920021 2.6003999710 4.0343999863
 2369.9712113  -999.250000  -999.250000 0.2651659846 2.6022000313 4.0187997818
 2370.1236113  -999.250000  -999.250000 0.2649050057 2.6027998924 4.0053000450
 2370.2760113  -999.250000  -999.250000 0.2635129988 2.5968999863 3.9932000637
 2370.4284113  -999.250000  -999.250000 0.2602770030 2.5690000057 3.9600999355
 2370.5808113  -999.250000  -999.250000 0.2841579914 2.4967999458 3.8296999931
