# LAS format log file from PETREL
# Project units are specified as depth units
#==================================================================
~Version information
VERS.   2.0:
WRAP.   NO:
#==================================================================
~Well
STRT .m      598.62601128 :
STOP .m      2812.0836113 :
STEP .m     0.15240000 :
NULL .        -999.250000 :
COMP.           : COMPANY
WELL.  SEM0410   : WELL
FLD.            : FIELD
LOC.            : LOCATION
SRVC.           : SERVICE COMPANY
DATE.  2020-05-08 20:04:55   : Log Export Date {yyyy-MM-dd HH:mm:ss}
PROV.           : PROVINCE
UWI.   SEM0410   : UNIQUE WELL ID
API.            : API NUMBER
#==================================================================
~Curve
DEPT .m                   : DEPTH
DT .us/ft                 : DT
GR .gAPI                  : GR
NPHI .m3/m3               : NPHI
RHOB .g/cm3               : RHOB
RT .ohm.m                 : RT
~Parameter
#==================================================================
~Ascii
# ...
 1189.3284113 101.01910400 79.544197083 0.2955929935 2.4565999508 3.2657999992
 1189.4808113 96.702499390 76.543197632 0.2457029969 2.4793000221 3.4679999352
 1189.6332113 94.754898071 72.052696228 0.2058050036 2.4888999462 3.7349998951
 1189.7856113 93.711601257 66.983802795 0.1798069924 2.4858999252 4.0692000389
 1189.9380113 92.181701660 61.888599396 0.1653580070 2.4765999317 4.5050997734
 1190.0904113 91.485000610 57.523799896 0.1668500006 2.4669001102 5.2091999054
 1190.2428113 91.400009155 53.904201508 0.1714040041 2.4563999176 6.1310000420
 1190.3952113 91.400009155 50.958900452 0.1752189994 2.4435999393 6.9499001503
 1190.5476113 92.761100769 48.098300934 0.1774150133 2.4286999702 7.6427998543
 1190.7000113 94.087898254 45.275398254 0.1695010066 2.4165999889 8.1417999268
 1190.8524113 94.543197632 43.958499908 0.1610849947 2.4086000919 8.2522001266
 1191.0048113 93.096099854 44.592998505 0.1583119929 2.4047999382 8.0893001556
 1191.1572113 92.213607788 46.404899597 0.1622089893 2.4059998989 7.7480998039
 1191.3096113 91.455596924 48.501201630 0.1758959889 2.4151000977 7.3323998451
 1191.4620113 90.698898315 50.762901306 0.1962060034 2.4314999580 6.9281997681
 1191.6144113 91.430603027 53.772800446 0.2154940069 2.4486999512 6.5606999397
 1191.7668113 93.016799927 57.499099731 0.2372850031 2.4581999779 6.1956000328
 1191.9192113 94.788299561 59.268199921 0.2523530126 2.4605000019 5.8095998764
 1192.0716113 94.584403992 57.435001373 0.2442099899 2.4583001137 5.4675998688
 1192.2240113 95.516502380 56.373699188 0.2209779918 2.4598999023 5.2280998230
 1192.3764113 94.998298645 57.767398834 0.2210709900 2.4663000107 5.0640997887
 1192.5288113 94.027702332 58.133300781 0.2343899906 2.4753999710 4.9126000404
 1192.6812113 96.017601013 55.622898102 0.2369860113 2.4769999981 4.6901998520
 1192.8336113 97.543800354 53.527698517 0.2333239913 2.4649000168 4.3815999031
 1192.9860113 98.014602661 56.382198334 0.2638880014 2.4495999813 4.0777997971
 1193.1384113 99.601799011 58.958400726 0.2724339962 2.4495999813 3.8341999054
 1193.2908113 99.198898315 65.869201660 0.2745519876 2.4707000256 3.6496999264
 1193.4432113 98.513999939 69.241996765 0.2355149984 2.4985001087 3.4807999134
 1193.5956113 98.257003784 74.088699341 0.2235199958 2.5176999569 3.2948999405
 1193.7480113 97.699600220 74.464103699 0.2561079860 2.5220000744 3.1270999908
 1193.9004113 98.715103149 73.007003784 0.3066570163 2.5165998936 3.0188000202
 1194.0528113 99.271499634 73.617103577 0.3105210066 2.5074999332 2.9558999538
 1194.2052113 99.657302856 74.663200378 0.2704429924 2.5025999546 2.9381000996
 1194.3576113 100.51460266 75.428703308 0.2476070076 2.5060999393 2.9577000141
 1194.5100113 99.442398071 72.342102051 0.2574459910 2.5151998997 2.9935998917
 1194.6624113 97.828300476 70.729202271 0.2781699896 2.5246999264 3.0394999981
 1194.8148113 96.328498840 70.809196472 0.2676770091 2.5292000771 3.0941998959
 1194.9672113 94.685699463 70.964698792 0.2440329939 2.5278999805 3.1528999805
 1195.1196113 94.199996948 67.993698120 0.2258919924 2.5258998871 3.2167999744
 1195.2720113 94.699897766 67.123298645 0.2267079949 2.5248000622 3.2799000740
 1195.4244113 95.114196777 67.519096375 0.2321079969 2.5260999203 3.3340001106
 1195.5768113 95.199989319 71.957901001 0.2310510129 2.5294001102 3.3850998878
 1195.7292113 94.985794067 72.675201416 0.2286379933 2.5337998867 3.4477000237
 1195.8816113 94.043403625 73.340499878 0.2187330127 2.5383999348 3.5281999111
 1196.0340113 93.699996948 69.477897644 0.2094189972 2.5394999981 3.6059000492
 1196.1864113 92.415298462 65.307800293 0.2015269995 2.5394999981 3.6442999840
 1196.3388113 90.544105530 63.885299683 0.1963220090 2.5409998894 3.6240999699
 1196.4912113 89.571899414 65.441802979 0.1893379986 2.5471999645 3.5448000431
 1196.6436113 91.326499939 67.787902832 0.1919020116 2.5546000004 3.3975000381
 1196.7960113 94.739700317 68.609298706 0.2147369981 2.5552000999 3.1640000343
 1196.9484113 99.224197388 71.047500610 0.2473859936 2.5439999104 2.8891000748
 1197.1008113 104.16649628 75.384002686 0.2764240205 2.5171999931 2.6468999386
 1197.2532113 109.02349854 79.472801208 0.2891920209 2.4749000072 2.4263000488
 1197.4056113 111.75499725 82.037200928 0.2834280133 2.4226999283 2.2228999138
 1197.5580113 112.51390076 82.848396301 0.2717030048 2.3780000210 2.0532000065
 1197.7104113 111.95829773 81.625198364 0.2673740089 2.3633999825 1.9105999470
 1197.8628113 111.56320190 77.748199463 0.2731060088 2.3831000328 1.8070000410
 1198.0152113 112.55149841 72.713600159 0.2799719870 2.4110999107 1.7414000034
 1198.1676113 113.69039917 73.152801514 0.2687350214 2.4277999401 1.6964000463
 1198.3200113 114.42469788 76.698898315 0.2403580099 2.4309000969 1.6649999619
 1198.4724113 114.50140381 78.634101868 0.2398270071 2.4298000336 1.6423000097
 1198.6248113 114.30889893 77.235298157 0.2700539827 2.4172999859 1.6237000227
 1198.7772113 114.26509094 76.734901428 0.2929509878 2.3910999298 1.6102000475
 1198.9296113 113.95259857 74.580497742 0.3118520081 2.3740000725 1.6011999846
 1199.0820113 114.02890015 74.026802063 0.3237340152 2.3796000481 1.5974999666
 1199.2344113 114.06069946 72.623497009 0.3162139952 2.3970000744 1.5996999741
 1199.3868113 113.66960144 72.752403259 0.2985569835 2.4100999832 1.6051000357
 1199.5392113 113.58540344 72.593002319 0.3338040113 2.4165000916 1.6088999510
 1199.6916113 113.40699768 71.922500610 0.3524330258 2.4235999584 1.6090999842
 1199.8440113 112.87979889 73.228500366 0.3564350009 2.4388000965 1.6123000383
 1199.9964113 112.89929962 73.941596985 0.3384080231 2.4597001076 1.6347999573
 1200.1488113 113.27899933 74.281501770 0.3428760171 2.4728000164 1.7196999788
 1200.3012113 113.24109650 75.186203003 0.3464339972 2.4647998810 1.8899999857
 1200.4536113 113.19620514 69.924003601 0.3473569751 2.3996000290 2.2060999870
 1200.6060113 115.04650116 58.946701050 0.3809289932 2.2269999981 2.6377000809
 1200.7584113 119.92079926 41.203300476 0.4578549862 1.9485000372 3.1967000961
 1200.9108113 127.08859253 26.053899765 0.5381399989 1.6461000443 3.9725999832
 1201.0632113 133.03619385 16.643199921 0.5653480291 1.4257999659 5.1879000664
 1201.2156113 136.84919739 13.777899742 0.5654659867 1.3157999516 7.4569997787
 1201.3680113 137.58479309 14.158300400 0.5733140111 1.2814999819 11.817199707
 1201.5204113 135.86529541 15.110300064 0.6118460298 1.2833000422 15.939900398
 1201.6728113 134.15910339 14.262000084 0.6281639934 1.2987999916 15.494600296
 1201.8252113 134.41900635 16.381399155 0.5979470015 1.3272999525 10.934000015
 1201.9776113 135.20799255 24.082799911 0.5483660102 1.3895000219 7.0992999077
 1202.1300113 132.33189392 39.552299500 0.4723930061 1.5190000534 5.1697001457
 1202.2824113 124.39689636 58.856300354 0.3959629834 1.7364000082 4.0838999748
 1202.4348113 116.53179932 72.134300232 0.3457050025 2.0018000603 3.2978999615
 1202.5872113 110.51039886 77.717597961 0.3299430013 2.2165000439 2.7153999805
 1202.7396113 108.06469727 77.558197021 0.3404679894 2.3250000477 2.3385999203
 1202.8920113 108.22869873 78.148902893 0.3654470146 2.3469998837 2.1377000809
 1203.0444113 108.22580719 78.384803772 0.3872100115 2.3561000824 2.0576999187
 1203.1968113 107.63120270 77.336799622 0.3692269921 2.3757998943 2.1638998985
 1203.3492113 105.62699890 71.345596313 0.3313679993 2.3947000504 2.4254000187
 1203.5016113 102.01440430 63.031501770 0.2876390219 2.3877999783 2.7929000854
 1203.6540113 99.737602234 51.136699677 0.2543660104 2.3513998985 3.2160999775
 1203.8064113 99.694503784 40.415901184 0.2199580073 2.3032000065 3.7479999065
 1203.9588113 100.26349640 32.428398132 0.2037369907 2.2716999054 4.4059000015
 1204.1112113 99.706703186 28.993900299 0.1865690053 2.2662999630 5.1125001907
 1204.2636113 97.821601868 29.503799438 0.1835090071 2.2769999504 5.8076000214
 1204.4160113 96.102203369 31.662700653 0.1868090034 2.2888998985 6.4409999847
 1204.5684113 96.498291016 31.883199692 0.2026239932 2.2941999435 6.8295001984
 1204.7208113 98.347801208 29.760599136 0.2357519865 2.2850999832 6.9786000252
