# LAS format log file from PETREL
# Project units are specified as depth units
#==================================================================
~Version information
VERS.   2.0:
WRAP.   NO:
#==================================================================
~Well
STRT .m      619.96198080 :
STOP .m      2949.0911808 :
STEP .m     0.15240000 :
NULL .        -999.250000 :
COMP.           : COMPANY
WELL.  SEM0400   : WELL
FLD.            : FIELD
LOC.            : LOCATION
SRVC.           : SERVICE COMPANY
DATE.  2020-05-08 20:04:29   : Log Export Date {yyyy-MM-dd HH:mm:ss}
PROV.           : PROVINCE
UWI.   SEM0400   : UNIQUE WELL ID
API.            : API NUMBER
#==================================================================
~Curve
DEPT .m                   : DEPTH
DT .us/ft                 : DT
GR .gAPI                  : GR
NPHI .m3/m3               : NPHI
RHOB .g/cm3               : RHOB
RT .ohm.m                 : RT
FACIES .                    : FACIES
~Parameter
#==================================================================
~Ascii
# ...
 1084.0199808 115.79999542 78.815498352 0.5587239861 2.2355000973 1.8970999718  -999.250000
 1084.1723808 122.09999847 82.431701660 0.5350940228 2.1993999481 1.8990000486  -999.250000
 1084.3247808 125.49999237 85.222999573 0.4944719970 2.2623000145 1.9019000530  -999.250000
 1084.4771808 127.09999847 84.296897888 0.4853419960 2.2604000568 1.9106999636  -999.250000
 1084.6295808 125.49999237 79.307098389 0.4783860147 2.2393000126 1.9447000027  -999.250000
 1084.7819808 124.40000153 79.981697083 0.4671069980 2.2558000088 2.0508000851  -999.250000
 1084.9343808 122.30000305 81.355903625 0.4841890037 2.2451000214 2.2448999882  -999.250000
 1085.0867808 119.90000153 82.760398865 0.4684389830 2.1816000938 2.5206999779  -999.250000
 1085.2391808 115.19998932 80.337799072 0.4175429940 2.3194000721 2.8559000492  -999.250000
 1085.3915808 107.80000305 72.868698120 0.3701520264 2.3438999653 3.2495000362  -999.250000
 1085.5439808 104.19999695 63.142299652 0.3352839947 2.3250999451 3.6926999092  -999.250000
 1085.6963808 98.800003052 53.755401611 0.3051079810 2.3689999580 4.2129001617  -999.250000
 1085.8487808 97.999992371 54.412601471 0.2781789899 2.3824000359 4.8338999748  -999.250000
 1086.0011808 98.800003052 53.239200592 0.2802619934 2.3736000061 5.3849000931  -999.250000
 1086.1535808 99.099998474 50.474498749 0.2855269909 2.3523001671 5.6570000648  -999.250000
 1086.3059808 99.300003052 45.757198334 0.2752470076 2.3220000267 5.6861000061  -999.250000
 1086.4583808 100.80000305 47.837600708 0.2655040026 2.3052000999 5.5682001114  -999.250000
 1086.6107808 99.000000000 51.039398193 0.2666780055 2.3210000992 5.3236999512  -999.250000
 1086.7631808 98.300003052 56.339000702 0.2908819914 2.3606998920 5.0524001122  -999.250000
 1086.9155808 98.600006104 64.066902161 0.3016570210 2.3891000748 4.8077998161  -999.250000
 1087.0679808 97.999992371 73.696701050 0.3174560070 2.4251999855 4.5813999176  -999.250000
 1087.2203808 98.600006104 76.209197998 0.3010230064 2.3752000332 4.4176001549  -999.250000
 1087.3727808 99.500000000 72.959396362 0.2922459841 2.4479000568 4.3276000023  -999.250000
 1087.5251808 99.000000000 67.568199158 0.2748380005 2.3738999367 4.2864999771  -999.250000
 1087.6775808 97.500000000 61.878501892 0.3009209931 2.3931000233 4.2817997932  -999.250000
 1087.8299808 96.800003052 61.946098328 0.3214630187 2.3548998833 4.3090000153  -999.250000
 1087.9823808 97.400001526 64.431602478 0.3210200071 2.3850998878 4.3408999443  -999.250000
 1088.1347808 97.999992371 68.357902527 0.3183400035 2.4042999744 4.3408999443  -999.250000
 1088.2871808 98.199996948 66.755096436 0.3276060224 2.3861000538 4.2732000351  -999.250000
 1088.4395808 98.900009155 69.356796265 0.3343980014 2.3931999207 4.0897998810  -999.250000
 1088.5919808 98.699996948 72.189498901 0.3595180213 2.3849000931 3.8622000217  -999.250000
 1088.7443808 98.900009155 80.694503784 0.3745320141 2.4158000946 3.6412000656  -999.250000
 1088.8967808 98.400001526 82.398101807 0.4363709986 2.3619000912 3.4391000271  -999.250000
 1089.0491808 101.90000153 80.501098633 0.4278189838 2.3578000069 3.2478001118  -999.250000
 1089.2015808 102.90000153 83.353401184 0.4087310135 2.3894000053 3.0634000301  -999.250000
 1089.3539808 104.30000305 86.413803101 0.3640449941 2.4507999420 2.9000000954  -999.250000
 1089.5063808 105.19998932 88.305397034 0.3761810064 2.4493999481 2.7595000267  -999.250000
 1089.6587808 104.80000305 85.141998291 0.3863059878 2.4265999794 2.6505000591  -999.250000
 1089.8111808 104.69999695 84.184600830 0.3946789801 2.4179999828 2.5236001015  -999.250000
 1089.9635808 105.09999847 86.918296814 0.4041889906 2.4226999283 2.4093999863  -999.250000
 1090.1159808 108.09999847 90.609596252 0.4025790095 2.4416000843 2.2934999466  -999.250000
 1090.2683808 108.19999695 93.058502197 0.4008789957 2.4570000172 2.1786999702  -999.250000
 1090.4207808 109.40000153 95.816398621 0.3781859875 2.4979999065 2.0534000397  -999.250000
 1090.5731808 110.09999847 96.131698608 0.4091199934 2.4718999863 1.9189000130  -999.250000
 1090.7255808 110.79999542 94.365097046 0.4120550156 2.4611999989 1.8083000183  -999.250000
 1090.8779808 113.80000305 92.269699097 0.4562429786 2.3976998329 1.7647999525  -999.250000
 1091.0303808 116.40000916 94.366798401 0.4134989977 2.4463000298 1.7752000093  -999.250000
 1091.1827808 114.50000000 95.453498840 0.4474499822 2.4138000011 1.8309999704  -999.250000
 1091.3351808 115.49999237 94.079399109 0.4039590061 2.4498999119 1.9431999922  -999.250000
 1091.4875808 110.00000000 80.716003418 0.3643710017 2.4897000790 2.0401000977  -999.250000
 1091.6399808 99.199996948 71.983398438 0.2286389917 2.5762999058 2.1041998863  -999.250000
 1091.7923808 85.800003052 71.065902710 0.2072150111 2.6034998894 2.1761000156  -999.250000
 1091.9447808 80.699996948 75.670700073 0.2363069952 2.5940999985 2.2695999146  -999.250000
 1092.0971808 79.099998474 83.526496887 0.3046959937 2.6133000851 2.3496000767  -999.250000
 1092.2495808 90.499992371 86.349296570 0.3569720089 2.4948000908 2.3868000507  -999.250000
 1092.4019808 102.80000305 90.081596375 0.3790499866 2.4872999191 2.3987998962  -999.250000
 1092.5543808 105.69999695 92.211997986 0.3760629892 2.4809999466 2.3949000835  -999.250000
 1092.7067808 107.40000153 90.879898071 0.3952119946 2.4303998947 2.3812000751  -999.250000
 1092.8591808 107.59999847 88.706901550 0.4089130163 2.4400000572 2.3656001091  -999.250000
 1093.0115808 107.09999847 85.410598755 0.4122200012 2.4470999241 2.3617000580  -999.250000
 1093.1639808 106.40000916 85.610198975 0.4055359960 2.4570999146 2.3733999729  -999.250000
 1093.3163808 105.09999847 86.733703613 0.4086069763 2.4635999203 2.4047000408  -999.250000
 1093.4687808 106.10000610 88.007003784 0.3876830041 2.4695000648 2.4475998878  -999.250000
 1093.6211808 106.10000610 85.385498047 0.3705230057 2.4653000832 2.4749000072  -999.250000
 1093.7735808 106.00000000 88.846603394 0.3662680089 2.4683001041 2.4807999134  -999.250000
 1093.9259808 105.49999237 90.778297424 0.3703680038 2.4758000374 2.4588999748  -999.250000
 1094.0783808 105.69999695 88.612998962 0.3723970056 2.4614999294 2.4058001041  -999.250000
 1094.2307808 108.90000916 85.966903687 0.3649959862 2.4518001080 2.3392999172  -999.250000
 1094.3831808 108.40000153 80.319099426 0.3622399867 2.4195001125 2.2748000622  -999.250000
 1094.5355808 113.80000305 84.874702454 0.3759439886 2.4240999222 2.2163000107  -999.250000
 1094.6879808 110.90000153 84.462196350 0.4153360128 2.3829998970 2.1656000614  -999.250000
 1094.8403808 111.80000305 88.425903320 0.4514210224 2.3708999157 2.1189000607  -999.250000
 1094.9927808 111.30000305 92.711898804 0.4337689877 2.4135000706 2.0724000931  -999.250000
 1095.1451808 112.30000305 92.395301819 0.4132860303 2.4372000694 2.0394001007  -999.250000
 1095.2975808 108.40000153 87.921997070 0.4181869924 2.4119999409 2.0257999897  -999.250000
 1095.4499808 112.30000305 85.861297607 0.4214729965 2.3961000443 2.0278000832  -999.250000
 1095.6023808 109.80000305 91.517097473 0.4291859865 2.4140999317 2.0387001038  -999.250000
 1095.7547808 114.30000305 94.303398132 0.4037710130 2.4512999058 2.0534999371  -999.250000
 1095.9071808 111.10000610 95.220199585 0.3930180073 2.4670999050 2.0762999058  -999.250000
 1096.0595808 112.00000000 91.816497803 0.3914330006 2.4493000507 2.1226999760  -999.250000
 1096.2119808 112.19999695 91.259300232 0.4066469967 2.4212999344 2.2207000256  -999.250000
 1096.3643808 115.40000153 89.766197205 0.4329830110 2.3664000034 2.3942999840  -999.250000
 1096.5167808 120.30000305 87.184799194 0.4272129834 2.3385000229 2.6266000271  -999.250000
 1096.6691808 117.30000305 73.565597534 0.4925339818 2.1849999428 2.8485999107  -999.250000
 1096.8215808 120.40000153 57.417900085 0.6392309666 1.9450999498 2.9964001179  -999.250000
 1096.9739808 125.69999695 46.353599548 0.8162670135 1.6984000206 3.0571999550  -999.250000
 1097.1263808 126.10000610 52.833499908 0.7075459957 1.7921999693 3.0097000599  -999.250000
