# LAS format log file from PETREL
# Project units are specified as depth units
#==================================================================
~Version information
VERS.   2.0:
WRAP.   NO:
#==================================================================
~Well
STRT .m      598.62601128 :
STOP .m      2812.0836113 :
STEP .m     0.15240000 :
NULL .        -999.250000 :
COMP.           : COMPANY
WELL.  SEM0410   : WELL
FLD.            : FIELD
LOC.            : LOCATION
SRVC.           : SERVICE COMPANY
DATE.  2020-05-08 20:04:55   : Log Export Date {yyyy-MM-dd HH:mm:ss}
PROV.           : PROVINCE
UWI.   SEM0410   : UNIQUE WELL ID
API.            : API NUMBER
#==================================================================
~Curve
DEPT .m                   : DEPTH
DT .us/ft                 : DT
GR .gAPI                  : GR
NPHI .m3/m3               : NPHI
RHOB .g/cm3               : RHOB
RT .ohm.m                 : RT
~Parameter
#==================================================================
~Ascii
# ...
 2495.0916113 93.988601685 89.393997192 0.3305400014 2.6089999676 2.6087000370
 2495.2440113 94.865997314 98.016502380 0.3366459906 2.6045000553 2.5752000809
 2495.3964113 95.214302063 102.42250061 0.3259379864 2.5931000710 2.6059000492
 2495.5488113 96.435798645 101.23979950 0.3318980038 2.5706999302 2.7076001167
 2495.7012113 95.590499878 99.400001526 0.3267540038 2.5348000526 2.8594999313
 2495.8536113 93.600303650 98.191001892 0.3130730093 2.4976999760 3.0826001167
 2496.0060113 90.422897339 93.418403625 0.2765440047 2.4767000675 3.4075999260
 2496.1584113 85.502990723 86.609802246 0.2390040010 2.4800000191 3.8935999870
 2496.3108113 82.400299072 80.757698059 0.2201510072 2.4804000854 4.5043001175
 2496.4632113 90.192703247 77.981796265 0.2349239886 2.3931000233 5.2337999344
 2496.6156113 100.26709747 70.357696533 0.3459149897 2.1451001167 6.2550997734
 2496.7680113 112.96240234 60.970001221 0.5044339895 1.8179999590 7.6307997704
 2496.9204113 125.47689819 48.741298676 0.5796380043 1.5608999729 9.0017995834
 2497.0728113 131.03269958 46.465801239 0.5729309916 1.5025000572 10.030099869
 2497.2252113 122.88520050 50.905101776 0.5194590092 1.6037000418 10.001799583
 2497.3776113 114.24800110 61.534599304 0.4777349830 1.8042999506 8.9653997421
 2497.5300113 106.71109772 74.344497681 0.4152730107 2.0378999710 7.8902997971
 2497.6824113 99.039100647 82.736297607 0.3638130128 2.2525999546 6.9765000343
 2497.8348113 97.078903198 88.835700989 0.3534840047 2.3907999992 6.0720000267
 2497.9872113 98.695701599 90.418197632 0.3826089799 2.4468998909 5.2960000038
 2498.1396113 98.736404419 86.578399658 0.3777769804 2.4604001045 4.7565999031
 2498.2920113 94.777198792 87.933502197 0.3300019801 2.4791998863 4.4084000587
 2498.4444113 87.977600098 92.037498474 0.2573559880 2.5183999538 4.2508997917
 2498.5968113 81.733703613 95.171501160 0.2257719934 2.5669999123 4.2590999603
 2498.7492113 77.777893066 94.063697815 0.2193359882 2.6094999313 4.3765001297
 2498.9016113 75.230697632 84.433799744 0.2146190107 2.6373999119 4.6258001328
 2499.0540113 74.125602722 81.860801697 0.2073189914 2.6487998962 4.9454998970
 2499.2064113 74.093902588 84.906303406 0.1973489970 2.6514000893 5.2589998245
 2499.3588113 74.329399109 84.459899902 0.1873369962 2.6487998962 5.6227002144
 2499.5112113 72.326103210 86.523696899 0.1768909991 2.6438999176 6.0388998985
 2499.6636113 72.590896606 82.201301575 0.1664259881 2.6398000717 6.3745999336
 2499.8160113 73.507896423 81.229499817 0.1725079864 2.6377999783 6.5693001747
 2499.9684113 74.372200012 77.218002319 0.1867370009 2.6393001080 6.7452998161
 2500.1208113 74.534698486 78.070800781 0.1956170052 2.6391999722 6.9239997864
 2500.2732113 74.146697998 79.403999329 0.1853010058 2.6379001141 7.1100997925
 2500.4256113 73.942199707 78.726600647 0.1735379994 2.6373000145 7.3473000526
 2500.5780113 73.433898926 75.536003113 0.1691939980 2.6380000114 7.7147002220
 2500.7304113 73.334098816 73.197303772 0.1693020016 2.6354000568 8.3387002945
 2500.8828113 74.123497009 73.027000427 0.1740679890 2.6238999367 9.3620004654
 2501.0352113 75.991203308 66.878898621 0.1797270030 2.6001999378 10.890399933
 2501.1876113 78.423500061 60.457599640 0.1805750132 2.5634999275 12.894000053
 2501.3400113 80.513702393 49.632900238 0.1672759950 2.5134999752 15.412199974
 2501.4924113 82.155296326 41.850498199 0.1443509907 2.4583001137 18.849500656
 2501.6448113 82.411010742 31.829500198 0.1312749982 2.4098000526 23.186399460
 2501.7972113 82.047897339 27.336799622 0.1304039955 2.3770000935 28.371700287
 2501.9496113 81.436088562 24.280300140 0.1377200037 2.3573999405 33.532600403
 2502.1020113 81.152503967 22.156499863 0.1413659900 2.3499999046 36.816398621
 2502.2544113 81.526496887 21.343500137 0.1406639963 2.3580000401 37.421001434
 2502.4068113 80.805496216 22.498899460 0.1413680017 2.3819000721 36.759899139
 2502.5592113 80.010490417 24.433900833 0.1413789988 2.4107999802 35.860900879
 2502.7116113 79.942802429 25.591199875 0.1357250065 2.4407999516 34.868900299
 2502.8640113 77.982009888 29.283500671 0.1163300052 2.4823999405 33.609199524
 2503.0164113 71.883499146 29.880500793 0.0900989994 2.5480000973 31.889499664
 2503.1688113 64.565299988 29.702299118 0.0799190030 2.6159999371 29.143199921
 2503.3212113 62.274898529 27.669900894 0.0931029990 2.6503999233 26.187799454
 2503.4736113 67.816299438 30.695299149 0.1219769940 2.6243000031 23.213499069
 2503.6260113 73.778602600 33.297100067 0.1316999942 2.5617001057 19.860300064
 2503.7784113 79.892097473 34.134700775 0.1314930022 2.5018999577 16.693099976
 2503.9308113 82.170600891 34.115600586 0.1195180044 2.4804000854 14.053000450
 2504.0832113 79.866600037 38.303100586 0.1194719970 2.4948999882 12.170700073
 2504.2356113 76.698089600 48.068801880 0.1248830035 2.5276999474 10.831500053
 2504.3880113 74.079200745 55.298198700 0.1352940053 2.5562996864 9.7931003571
 2504.5404113 74.003997803 58.923801422 0.1402489990 2.5755000114 8.8822002411
 2504.6928113 74.796096802 59.603099823 0.1413109899 2.5875000954 8.3190002441
 2504.8452113 73.848098755 59.180198669 0.1399240047 2.5980999470 8.0499000549
 2504.9976113 73.317001343 58.091400146 0.1393920034 2.6045000553 7.9106998444
 2505.1500113 72.568901062 56.616199493 0.1389410049 2.6033999920 7.8668999672
 2505.3024113 72.403602600 57.461101532 0.1377930045 2.5966000557 7.8807001114
 2505.4548113 73.475997925 56.215499878 0.1340530068 2.5897998810 7.9169001579
 2505.6072113 75.072402954 54.099899292 0.1295610070 2.5855998993 7.9345998764
 2505.7596113 75.751701355 51.742698669 0.1267610043 2.5824999809 7.9274001122
 2505.9120113 76.231010437 49.631099701 0.1240909994 2.5801000595 7.9380998611
 2506.0644113 76.376098633 51.866798401 0.1212280020 2.5840001106 7.9601998329
 2506.2168113 75.248397827 55.847599030 0.1206219941 2.5924000740 7.9861001968
 2506.3692113 74.810302734 59.396198273 0.1214400008 2.5984001160 7.9869999886
 2506.5216113 74.951499939 57.197101593 0.1261170059 2.5933001041 7.9850997925
 2506.6740113 75.369110107 55.466701508 0.1314329952 2.5831000805 7.9991002083
 2506.8264113 75.161697388 52.843200684 0.1285890043 2.5810000896 8.0468997955
 2506.9788113 75.638298035 53.467098236 0.1296710074 2.5897998810 8.1133003235
 2507.1312113 75.017807007 52.749000549 0.1358460039 2.6043000221 8.2186002731
 2507.2836113 74.310302734 56.577701569 0.1385599971 2.6161999702 8.3816995621
 2507.4360113 74.338401794 59.148601532 0.1364490092 2.6326999664 8.5923004150
 2507.5884113 73.635902405 61.533401489 0.1351329982 2.6440999508 8.8828001022
 2507.7408113 72.210197449 60.749099731 0.1418229938 2.6468000412 9.1772003174
 2507.8932113 72.351196289 57.424900055 0.1449180096 2.6252000332 9.3850002289
 2508.0456113 73.014900208 52.995498657 0.1448630095 2.5989000797 9.4727001190
 2508.1980113 75.237495422 55.477001190 0.1513009965 2.5710000992 9.4553003311
 2508.3504113 78.629203796 58.074501038 0.1609860063 2.5559000969 9.4677000046
 2508.5028113 82.451103210 65.396499634 0.1884269863 2.5416998863 9.5311002731
 2508.6552113 82.665298462 72.308998108 0.2117879987 2.5374000072 9.5583000183
 2508.8076113 80.314498901 81.244598389 0.2167639881 2.5476999283 9.4252004623
 2508.9600113 77.280296326 79.905601501 0.1924679875 2.5829999447 9.0747003555
 2509.1124113 72.404701233 72.633499146 0.1731279939 2.6224000454 8.5398998260
 2509.2648113 70.034103394 67.143402100 0.1681290120 2.6480998993 7.9446001053
 2509.4172113 72.608497620 69.211898804 0.1776539981 2.6445999146 7.4222002029
 2509.5696113 77.293098450 72.042602539 0.2078910023 2.6310999393 6.9394998550
 2509.7220113 79.162490845 74.463401794 0.2359420061 2.6259000301 6.4657001495
 2509.8744113 80.660896301 79.598396301 0.2508639991 2.6361999512 6.0925002098
 2510.0268113 81.210098267 86.757598877 0.2461179942 2.6508998871 5.7357997894
 2510.1792113 81.148002625 89.138000488 0.2469350100 2.6505000591 5.4112000465
 2510.3316113 79.880996704 89.828598022 0.2405830026 2.6377999783 5.1026000977
 2510.4840113 80.559501648 85.227401733 0.2428829968 2.6231000423 4.8021998405
