# LAS format log file from PETREL
# Project units are specified as depth units
#==================================================================
~Version information
VERS.   2.0:
WRAP.   NO:
#==================================================================
~Well
STRT .m      619.96198080 :
STOP .m      2949.0911808 :
STEP .m     0.15240000 :
NULL .        -999.250000 :
COMP.           : COMPANY
WELL.  SEM0400   : WELL
FLD.            : FIELD
LOC.            : LOCATION
SRVC.           : SERVICE COMPANY
DATE.  2020-05-08 20:04:29   : Log Export Date {yyyy-MM-dd HH:mm:ss}
PROV.           : PROVINCE
UWI.   SEM0400   : UNIQUE WELL ID
API.            : API NUMBER
#==================================================================
~Curve
DEPT .m                   : DEPTH
DT .us/ft                 : DT
GR .gAPI                  : GR
NPHI .m3/m3               : NPHI
RHOB .g/cm3               : RHOB
RT .ohm.m                 : RT
FACIES .                    : FACIES
~Parameter
#==================================================================
~Ascii
# ...
 2476.1939808 82.699989319 96.513999939 0.2399900109 2.6333999634 4.5370998383 4.0000000000
 2476.3463808 83.699996948 104.05190277 0.2622750103 2.6284000874 4.5996999741 4.0000000000
 2476.4987808 83.699996948 99.026603699 0.2721750140 2.6235001087 4.6322999001 4.0000000000
 2476.6511808 81.699996948 100.37069702 0.2701799870 2.6280000210 4.6500000954 4.0000000000
 2476.8035808 78.699996948 96.714897156 0.2513660192 2.6335000992 4.7052998543 4.0000000000
 2476.9559808 77.900001526 96.292297363 0.2328490019 2.6342000961 4.8207998276 4.0000000000
 2477.1083808 77.199996948 94.307403564 0.2374980003 2.6263999939 4.9899997711 4.0000000000
 2477.2607808 77.900001526 90.186302185 0.2355010062 2.6143000126 5.1216001511 4.0000000000
 2477.4131808 78.800003052 85.574798584 0.2359459996 2.6038999557 5.1553997993 4.0000000000
 2477.5655808 79.099998474 80.436500549 0.2389670014 2.6001000404 5.0953001976 4.0000000000
 2477.7179808 78.900009155 82.738800049 0.2405590117 2.6029999256 5.0050001144 4.0000000000
 2477.8703808 79.400001526 84.476196289 0.2415689975 2.6099998951 4.9524002075 4.0000000000
 2478.0227808 80.599998474 89.954101563 0.2383580059 2.6152999401 5.0050001144 4.0000000000
 2478.1751808 80.699996948 97.121398926 0.2433020025 2.6143000126 5.1676001549 4.0000000000
 2478.3275808 81.000000000 99.164802551 0.2502120137 2.6019001007 5.3958001137 4.0000000000
 2478.4799808 78.199996948 92.527000427 0.2430949956 2.5947000980 5.6409997940 4.0000000000
 2478.6323808 76.599998474 77.819297791 0.2150229961 2.5427000523 5.9605998993 1.0000000000
 2478.7847808 76.599998474 57.563999176 0.1755550057 2.5253999233 6.3861999512 1.0000000000
 2478.9371808 76.300003052 44.292499542 0.1348740011 2.5034999847 6.9257001877 1.0000000000
 2479.0895808 76.599998474 42.155200958 0.1104359999 2.5078999996 7.5711998940 1.0000000000
 2479.2419808 75.400001526 42.236698151 0.1054049954 2.5211999416 8.1451997757 1.0000000000
 2479.3943808 72.300003052 47.338100433 0.1100860015 2.5371999741 8.5529003143 1.0000000000
 2479.5467808 70.500000000 50.864101410 0.1141259968 2.5522000790 8.9047002792 1.0000000000
 2479.6991808 68.900001526 53.152198792 0.1163360029 2.5678000450 9.2178001404 1.0000000000
 2479.8515808 69.000000000 53.039699554 0.1133810058 2.5773999691 9.4701004028 1.0000000000
 2480.0039808 69.599998474 51.914398193 0.1182839945 2.5834000111 9.6925001144 1.0000000000
 2480.1563808 69.099998474 52.943099976 0.1213749945 2.5878999233 9.8610000610 1.0000000000
 2480.3087808 69.099998474 56.234100342 0.1203299984 2.5947999954 10.055399895 1.0000000000
 2480.4611808 68.599998474 59.346900940 0.1187779978 2.6057000160 10.290800095 1.0000000000
 2480.6135808 69.000000000 58.573001862 0.1164319962 2.6135001183 10.543499947 1.0000000000
 2480.7659808 68.000000000 58.008499146 0.1178359985 2.6184000969 10.813699722 1.0000000000
 2480.9183808 67.800003052 52.870399475 0.1139630005 2.6152000427 11.077300072 1.0000000000
 2481.0707808 67.800003052 52.237400055 0.1175419986 2.6098001003 11.222000122 1.0000000000
 2481.2231808 67.000000000 51.194900513 0.1175440028 2.6040999889 11.334500313 1.0000000000
 2481.3755808 66.599998474 50.971500397 0.1191660017 2.6117999554 11.414899826 1.0000000000
 2481.5279808 67.800003052 51.306598663 0.1179130003 2.6252000332 11.471199989 1.0000000000
 2481.6803808 67.500000000 52.423599243 0.1157979965 2.6328999996 11.527500153 1.0000000000
 2481.8327808 68.800003052 52.460800171 0.1127499938 2.6229000092 11.535499573 1.0000000000
 2481.9851808 69.300003052 53.428798676 0.1137329936 2.6103999615 11.543499947 1.0000000000
 2482.1375808 68.400001526 52.684200287 0.1134589985 2.6019001007 11.455100060 1.0000000000
 2482.2899808 69.099998474 56.370201111 0.1220699996 2.6020998955 11.382800102 1.0000000000
 2482.4423808 70.099998474 60.205200195 0.1286949962 2.6001000404 11.374799728 1.0000000000
 2482.5947808 69.699996948 60.205200195 0.1365880072 2.5996000767 11.374799728 1.0000000000
 2482.7471808 70.400001526 60.312301636 0.1410129964 2.5963997841 11.406900406 1.0000000000
 2482.8995808 71.099998474 60.135898590 0.1413339972 2.5931000710 11.447099686 1.0000000000
 2483.0519808 71.300003052 61.633899689 0.1410579979 2.5878000259 11.487299919 1.0000000000
 2483.2043808 71.000000000 62.988899231 0.1426099986 2.5838000774 11.527500153 1.0000000000
 2483.3567808 70.300003052 63.860298157 0.1461900026 2.5817999840 11.543600082 1.0000000000
 2483.5091808 70.000000000 63.570701599 0.1489220113 2.5822000504 11.495400429 1.0000000000
 2483.6615808 69.900001526 61.357398987 0.1469330043 2.5855000019 11.398900032 1.0000000000
 2483.8139808 70.099998474 58.851501465 0.1481140107 2.5871999264 11.326600075 1.0000000000
 2483.9663808 70.400001526 55.984500885 0.1433860064 2.5920999050 11.246199608 1.0000000000
 2484.1187808 71.099998474 57.046298981 0.1432680041 2.5950000286 11.238200188 1.0000000000
 2484.2711808 72.699996948 56.748600006 0.1454409957 2.5943000317 11.213999748 1.0000000000
 2484.4235808 73.800003052 54.409198761 0.1520240009 2.5776000023 11.165800095 1.0000000000
 2484.5759808 75.599998474 50.467800140 0.1577930003 2.5427999496 11.029100418 1.0000000000
 2484.7283808 75.900001526 48.792198181 0.1582249999 2.5020999908 10.908499718 1.0000000000
 2484.8807808 75.800003052 48.417999268 0.1618939936 2.4769001007 10.787899971 1.0000000000
 2485.0331808 76.599998474 49.937698364 0.1655489951 2.4776999950 10.723699570 1.0000000000
 2485.1855808 76.599998474 48.369701385 0.1788060069 2.4788000584 10.667400360 1.0000000000
 2485.3379808 76.500000000 48.669101715 0.1850299984 2.4665000439 10.611100197 1.0000000000
 2485.4903808 75.900001526 52.399101257 0.1930930018 2.4806001186 10.530699730 1.0000000000
 2485.6427808 75.499992371 52.847801208 0.1831060052 2.4855999947 10.490599632 1.0000000000
 2485.7951808 75.699996948 49.891700745 0.1746299863 2.4774999619 10.619099617 1.0000000000
 2485.9475808 75.699996948 50.853000641 0.1987430006 2.4721000195 11.386799812 1.0000000000
 2486.0999808 76.500000000 49.391700745 0.2663800120 2.4402000904 12.579400063 1.0000000000
 2486.2523808 84.599998474 48.396598816 0.3231969774 2.4124999046 14.128700256 1.0000000000
 2486.4047808 92.599998474 42.584400177 0.3165589869 2.3197999001 16.093500137 1.0000000000
 2486.5571808 95.099998474 36.614898682 0.3049060106 2.2007000446 18.659900665 1.0000000000
 2486.7095808 90.099998474 30.326000214 0.3491690159 2.2258999348 21.922800064 1.0000000000
 2486.8619808 82.400001526 26.728700638 0.3879309893 2.3120999336 25.851600647 1.0000000000
 2487.0143808 68.400001526 26.211299896 0.3160899878 2.4374001026 29.207799911 1.0000000000
 2487.1667808 58.900001526 25.547199249 0.2098469883 2.5280001163 30.075599670 1.0000000000
 2487.3191808 59.599998474 26.368499756 0.1412360072 2.5502998829 29.059600830 3.0000000000
 2487.4715808 63.799999237 30.035400391 0.1166009977 2.5413000584 26.436100006 3.0000000000
 2487.6239808 70.000000000 34.537799835 0.1219879985 2.4930999279 23.856100082 3.0000000000
 2487.7763808 74.300003052 39.747200012 0.1531140059 2.4591000080 21.352699280 3.0000000000
 2487.9287808 79.699996948 42.806999207 0.1896459907 2.4497001171 18.641599655 3.0000000000
 2488.0811808 86.100006104 44.666698456 0.2097439915 2.4433000088 14.976799965 3.0000000000
 2488.2335808 87.900001526 49.448101044 0.2141000032 2.4154000282 11.855899811 3.0000000000
 2488.3859808 89.099998474 56.464801788 0.2269150019 2.3693997860 9.6816997528 3.0000000000
 2488.5383808 91.100006104 64.988098145 0.2522389889 2.3617999554 8.2498998642 3.0000000000
 2488.6907808 84.699996948 73.069999695 0.2694410086 2.3689999580 7.2678999901 3.0000000000
 2488.8431808 83.600006104 79.899398804 0.2766839862 2.4265999794 6.4601001740 3.0000000000
 2488.9955808 85.000000000 87.231300354 0.2865439951 2.4779999256 5.6311001778 3.0000000000
 2489.1479808 86.100006104 93.011398315 0.2966130078 2.5009999275 4.8864998817 4.0000000000
 2489.3003808 86.800003052 94.149803162 0.3040989935 2.5044999123 4.3871002197 4.0000000000
