# LAS format log file from PETREL
# Project units are specified as depth units
#==================================================================
~Version information
VERS.   2.0:
WRAP.   NO:
#==================================================================
~Well
STRT .m      598.62601128 :
STOP .m      2812.0836113 :
STEP .m     0.15240000 :
NULL .        -999.250000 :
COMP.           : COMPANY
WELL.  SEM0410   : WELL
FLD.            : FIELD
LOC.            : LOCATION
SRVC.           : SERVICE COMPANY
DATE.  2020-05-08 20:04:55   : Log Export Date {yyyy-MM-dd HH:mm:ss}
PROV.           : PROVINCE
UWI.   SEM0410   : UNIQUE WELL ID
API.            : API NUMBER
#==================================================================
~Curve
DEPT .m                   : DEPTH
DT .us/ft                 : DT
GR .gAPI                  : GR
NPHI .m3/m3               : NPHI
RHOB .g/cm3               : RHOB
RT .ohm.m                 : RT
~Parameter
#==================================================================
~Ascii
# ...
 1469.1348113 94.959602356 73.431602478 0.3456129730 2.5169999599 2.4702000618
 1469.2872113 97.079696655 76.098701477 0.3522180319 2.5174002647 2.3354001045
 1469.4396113 98.931396484 77.443199158 0.3516329825 2.5127999783 2.2193999290
 1469.5920113 100.85540009 75.418098450 0.3567559719 2.5027999878 2.1222999096
 1469.7444113 102.47940063 74.321601868 0.3676170111 2.4923000336 2.0550000668
 1469.8968113 103.56890106 74.541496277 0.3686800003 2.4888000488 2.0306000710
 1470.0492113 103.13809967 74.623199463 0.3597570062 2.4988000393 2.0434999466
 1470.2016113 100.60749817 71.421401978 0.3440960050 2.5222001076 2.0820000172
 1470.3540113 96.914703369 65.532699585 0.3252690136 2.5511000156 2.1473000050
 1470.5064113 92.897796631 59.882900238 0.3103309870 2.5750000477 2.2434000969
 1470.6588113 89.911201477 55.645198822 0.2990809977 2.5903000832 2.3647000790
 1470.8112113 88.121398926 52.874599457 0.2867909968 2.5998001099 2.5199000835
 1470.9636113 87.031501770 50.572601318 0.2849360108 2.6041998863 2.6884999275
 1471.1160113 87.344200134 49.667198181 0.2856430113 2.6026999950 2.8531000614
 1471.2684113 88.092796326 50.726200104 0.2781549990 2.5982999802 2.9967999458
 1471.4208113 87.011993408 52.801101685 0.2605659962 2.5994000435 3.0706999302
 1471.5732113 85.924400330 54.124198914 0.2477889955 2.6098001003 3.0975000858
 1471.7256113 86.385299683 53.874401093 0.2519599795 2.6217000484 3.1526999474
 1471.8780113 88.028991699 52.984699249 0.2679150105 2.6226999760 3.2620999813
 1472.0304113 90.245903015 51.753200531 0.2891760170 2.6071000099 3.4414000511
 1472.1828113 89.912796021 51.686798096 0.3011580110 2.5834000111 3.6498999596
 1472.3352113 85.665298462 50.324100494 0.2975119948 2.5694000721 3.7758998871
 1472.4876113 80.843101501 46.848499298 0.2786999941 2.5771000385 3.8498001099
 1472.6400113 78.339599609 43.275398254 0.2557809949 2.6038999557 3.9405999184
 1472.7924113 79.203598022 42.258598328 0.2428790033 2.6306002140 4.0427999496
 1472.9448113 81.544898987 44.888000488 0.2474299967 2.6407001019 4.1345000267
 1473.0972113 83.844802856 44.955398560 0.2529319823 2.6322999001 4.1922998428
 1473.2496113 85.384597778 44.984401703 0.2607309818 2.6184000969 4.1739997864
 1473.4020113 85.624603271 46.582199097 0.2681440115 2.6064000130 4.0935997963
 1473.5544113 85.441596985 51.256500244 0.2582920194 2.5945999622 4.0145001411
 1473.7068113 84.932502747 57.657100677 0.2376460135 2.5808000565 3.9586000443
 1473.8592113 84.307800293 61.010700226 0.2239329964 2.5669000149 3.9365000725
 1474.0116113 84.508995056 64.295600891 0.2320359945 2.5573000908 3.9544999599
 1474.1640113 84.975303650 65.397003174 0.2326919883 2.5522999763 3.9709000587
 1474.3164113 84.807899475 66.892700195 0.2153319865 2.5490000248 3.9447000027
 1474.4688113 84.132797241 67.562797546 0.1948530078 2.5443000793 3.8599998951
 1474.6212113 84.208801270 69.195899963 0.1865449846 2.5383999348 3.7256000042
 1474.7736113 85.434188843 71.124298096 0.1950410008 2.5341000557 3.5668001175
 1474.9260113 87.617996216 71.331596375 0.2128389925 2.5332999229 3.3956999779
 1475.0784113 89.517303467 70.532203674 0.2366270125 2.5364999771 3.2028999329
 1475.2308113 90.683700562 71.232398987 0.2646169960 2.5466001034 2.9869000912
 1475.3832113 92.092201233 73.439002991 0.2863229811 2.5615999699 2.7864000797
 1475.5356113 93.500297546 75.677902222 0.2935020030 2.5727000237 2.6257998943
 1475.6880113 94.641799927 77.503997803 0.2896209955 2.5761001110 2.4900999069
 1475.8404113 96.558502197 80.516296387 0.2813319862 2.5724999905 2.3743999004
 1475.9928113 97.949996948 81.122100830 0.2886059880 2.5669000149 2.2802000046
 1476.1452113 99.016601563 81.828399658 0.3123430014 2.5560998917 2.1956000328
 1476.2976113 99.250099182 83.321296692 0.3333620131 2.5420000553 2.1219999790
 1476.4500113 99.524803162 84.647201538 0.3456720114 2.5318999290 2.0715000629
 1476.6024113 100.42479706 86.439201355 0.3526499867 2.5304999352 2.0415999889
 1476.7548113 101.09149170 87.081596375 0.3602859974 2.5350999832 2.0248999596
 1476.9072113 101.59149933 85.717903137 0.3732610047 2.5376000404 2.0211999416
 1477.0596113 101.33370209 82.799201965 0.3838270307 2.5366001129 2.0276999474
 1477.2120113 100.94170380 77.446899414 0.3912009895 2.5362999439 2.0488998890
 1477.3644113 100.72519684 73.751701355 0.3752509952 2.5388998985 2.0883998871
 1477.5168113 100.01740265 74.083503723 0.3461640179 2.5399000645 2.1431999207
 1477.6692113 98.959197998 77.845100403 0.3241989911 2.5343999863 2.2004001141
 1477.8216113 96.869010925 80.047203064 0.3070579767 2.5246000290 2.2493999004
 1477.9740113 93.836303711 78.844001770 0.2897979915 2.5176000595 2.2818000317
 1478.1264113 92.616500854 77.851997375 0.2684170008 2.5178000927 2.2960999012
 1478.2788113 93.282302856 76.509696960 0.2591930032 2.5241000652 2.2938001156
 1478.4312113 94.980796814 75.104499817 0.2606880069 2.5315999985 2.2692000866
 1478.5836113 97.180702209 73.615097046 0.2797200084 2.5367000103 2.2237999439
 1478.7360113 98.274589539 72.395896912 0.3094689846 2.5397000313 2.1642999649
 1478.8884113 99.331199646 73.615402222 0.3295970261 2.5434000492 2.0977001190
 1479.0408113 100.29100037 74.531898499 0.3267979920 2.5446000099 2.0248999596
 1479.1932113 101.25640106 75.956298828 0.3206990063 2.5376000404 1.9487999678
 1479.3456113 102.44000244 78.374496460 0.3213550150 2.5202999115 1.8795000315
 1479.4980113 102.55099487 80.125503540 0.3362179995 2.4988999367 1.8174999952
 1479.6504113 103.69589996 80.721397400 0.3530089855 2.4844000340 1.7620999813
 1479.8028113 104.99079895 81.739501953 0.3632979989 2.4842000008 1.7184000015
 1479.9552113 105.54890442 84.420997620 0.3695420027 2.4962000847 1.6837999821
 1480.1076113 106.32330322 86.680801392 0.3794559836 2.5099999905 1.6596000195
 1480.2600113 106.69999695 85.312103271 0.3986259699 2.5211999416 1.6478999853
 1480.4124113 106.35119629 81.324501038 0.4079209864 2.5290000439 1.6483999491
 1480.5648113 104.29829407 76.220703125 0.3980039954 2.5344998837 1.6570999622
 1480.7172113 100.79170227 71.807502747 0.3606370091 2.5367999077 1.6718000174
 1480.8696113 98.618896484 69.162498474 0.3245040178 2.5369000435 1.6986999512
 1481.0220113 98.141906738 69.725097656 0.3084499836 2.5359001160 1.7458000183
 1481.1744113 99.319900513 72.462699890 0.3247939944 2.5311000347 1.8171999454
 1481.3268113 99.735305786 74.902801514 0.3465589881 2.5220000744 1.8978999853
 1481.4792113 98.238403320 74.526702881 0.3388809860 2.5139000416 1.9785000086
 1481.6316113 95.251396179 70.819999695 0.3029440045 2.5134000778 2.0678000450
 1481.7840113 91.841903687 67.738998413 0.2629350126 2.5230000019 2.1642999649
 1481.9364113 89.629203796 68.562400818 0.2426440120 2.5387001038 2.2583000660
 1482.0888113 87.664901733 71.690696716 0.2395540029 2.5550000668 2.3431999683
 1482.2412113 87.686698914 72.334899902 0.2392880023 2.5655999184 2.4026999474
 1482.3936113 88.980400085 70.891799927 0.2341579944 2.5657999516 2.4270999432
 1482.5460113 90.270401001 70.790100098 0.2297179997 2.5560998917 2.4061999321
 1482.6984113 91.712303162 71.289100647 0.2344549894 2.5420999527 2.3194999695
 1482.8508113 93.054199219 70.561302185 0.2511819899 2.5304999352 2.1912999153
 1483.0032113 95.282211304 69.694000244 0.2775000036 2.5209999084 2.0731000900
 1483.1556113 97.660003662 70.771202087 0.3027199805 2.5099999905 1.9700000286
 1483.3080113 99.427902222 72.275497437 0.3148590028 2.4960999489 1.8694000244
 1483.4604113 101.54959106 72.280700684 0.3122600019 2.4828999043 1.7820999622
 1483.6128113 102.42610168 73.550003052 0.3137229979 2.4746000767 1.7079999447
 1483.7652113 102.53189850 76.410003662 0.3265269995 2.4727001190 1.6540000439
 1483.9176113 102.41020203 79.217002869 0.3438359797 2.4795000553 1.6276999712
 1484.0700113 102.77960205 79.465599060 0.3468949795 2.4932000637 1.6231000423
 1484.2224113 102.50460052 76.424301147 0.3282440305 2.5088000298 1.6279000044
 1484.3748113 100.78320313 73.294998169 0.2931739986 2.5202999115 1.6358000040
 1484.5272113 99.262702942 70.055702209 0.2677749991 2.5246999264 1.6527999640
