# LAS format log file from PETREL
# Project units are specified as depth units
#==================================================================
~Version information
VERS.   2.0:
WRAP.   NO:
#==================================================================
~Well
STRT .m      598.62601128 :
STOP .m      2812.0836113 :
STEP .m     0.15240000 :
NULL .        -999.250000 :
COMP.           : COMPANY
WELL.  SEM0410   : WELL
FLD.            : FIELD
LOC.            : LOCATION
SRVC.           : SERVICE COMPANY
DATE.  2020-05-08 20:04:55   : Log Export Date {yyyy-MM-dd HH:mm:ss}
PROV.           : PROVINCE
UWI.   SEM0410   : UNIQUE WELL ID
API.            : API NUMBER
#==================================================================
~Curve
DEPT .m                   : DEPTH
DT .us/ft                 : DT
GR .gAPI                  : GR
NPHI .m3/m3               : NPHI
RHOB .g/cm3               : RHOB
RT .ohm.m                 : RT
~Parameter
#==================================================================
~Ascii
 598.62601128 131.00000000 72.508903503 0.4558430016 2.1540999413 2.5364000797
 598.77841128 130.90080261 73.573196411 0.4065810144 2.2516000271 2.7560000420
 598.93081128 131.49519348 72.062202454 0.3994520307 2.3178000450 2.9658000469
 599.08321128 132.98800659 72.326400757 0.3850460052 2.3491001129 2.9693999290
 599.23561128 131.61129761 73.422302246 0.3727129996 2.3552000523 2.8893001080
 599.38801128 130.90570068 74.237899780 0.3889270127 2.3566000462 2.8103001118
 599.54041128 130.10659790 76.220397949 0.3784439862 2.3577001095 2.8059000969
 599.69281128 127.91829681 75.483703613 0.3720309734 2.3638000488 2.8764998913
 599.84521128 125.42099762 75.587097168 0.3696080148 2.3689000607 3.0220999718
 599.99761128 125.00340271 76.549102783 0.3878409863 2.3738999367 3.1949999332
 600.15001128 124.20680237 76.481002808 0.4004740119 2.3780000210 3.3908998966
 600.30241128 123.50599670 70.769798279 0.3814969957 2.3849999905 3.5211999416
 600.45481128 122.21130371 72.788803101 0.3379389942 2.3889999390 3.6203000546
 600.60721128 122.69560242 69.886398315 0.3267309964 2.3891999722 3.6946001053
 600.75961128 123.09649658 69.693199158 0.3565689921 2.3836998940 3.7571001053
 600.91201128 122.60440063 67.694396973 0.3717399836 2.3754999638 3.7985000610
 601.06441128 123.09549713 67.905998230 0.3691099882 2.3670001030 3.7911000252
 601.21681128 123.39730072 65.223197937 0.3578799963 2.3612000942 3.7655000687
 601.36921128 124.19269562 62.310001373 0.3518399894 2.3573000431 3.7574999332
 601.52161128 124.10089111 63.364601135 0.3305279911 2.3561999798 3.7927000523
 601.67401128 124.39720154 65.004302979 0.3295940161 2.3578999043 3.8575000763
 601.82641128 123.60739899 68.418701172 0.3218649924 2.3605000973 3.9068999290
 601.97881128 122.60939789 65.280799866 0.3280609846 2.3575997353 3.9289000034
 602.13121128 122.30280304 65.403503418 0.3189629912 2.3452999592 3.9409000874
 602.28361128 122.30000305 62.694000244 0.3202220201 2.3343999386 3.9312000275
 602.43601128 124.77600098 63.469600677 0.3146950006 2.3338999748 3.8991000652
 602.58841128 127.17681122 64.279197693 0.3051089942 2.3415000439 3.8454999924
 602.74081128 129.18049622 64.213699341 0.2859370112 2.3452999592 3.7453999519
 602.89321128 129.79409790 65.423202515 0.2782959938 2.3459000587 3.6315999031
 603.04561128 129.10690308 62.506801605 0.2751600146 2.3464999199 3.4988999367
 603.19801128 128.80299377 61.577400208 0.2751969993 2.3475000858 3.3589000702
 603.35041128 127.61199951 61.974300385 0.2689709961 2.3396999836 3.2521998882
 603.50281128 128.98590088 64.351997375 0.2803809941 2.3248000145 3.1710999012
 603.65521128 128.70300293 64.559997559 0.2712149918 2.3066000938 3.1078999043
 603.80761128 127.71019745 65.392997742 0.2602010071 2.2913999557 3.0701000690
 603.96001128 127.20509338 58.299701691 0.2343820035 2.2571001053 3.0562999249
 604.11241128 130.36680603 58.784301758 0.2352560014 2.1944000721 3.0446999073
 604.26481128 129.80630493 55.096500397 0.2010880113 2.1101999283 3.0255999565
 604.41721128 130.69050598 61.183998108 0.1934950054 2.0387001038 3.0006999969
 604.56961128 132.38200378 59.139499664 0.1607799977 2.0067000389 2.9698998928
 604.72201128 131.01489258 57.995201111 0.1920190006 2.0027999878 2.9295001030
 604.87441128 132.38499451 57.983100891 0.1417459995 2.0055999756 2.8736999035
 605.02681128 131.90539551 56.237800598 0.1583880037 2.0085999966 2.8196001053
 605.17921128 129.62500000 56.717399597 0.1392779946 2.0255999565 2.7769999504
 605.33161128 133.06170654 60.960601807 0.1582409889 2.0729999542 2.7421000004
 605.48401128 126.37490082 64.988899231 0.1445630044 2.0841999054 2.7188000679
 605.63641128 131.04679871 64.994598389 0.1174309999 2.0759000778 2.7051000595
 605.78881128 134.06660461 58.982101440 0.0982310027 2.0216000080 2.7049999237
 605.94121128 131.03480530 55.916801453 0.1335560083 1.9945000410 2.7242000103
 606.09361128 130.20899963 57.170299530 0.1858989894 1.9614000320 2.7662999630
 606.24601128 129.01359558 57.309600830 0.1727589965 1.9381999969 2.8489999771
 606.39841128 125.73770142 61.546600342 0.1585499942 1.9110000134 2.9663999081
 606.55081128 124.11840057 61.545600891 0.1567559987 1.9115999937 3.0629999638
 606.70321128 119.65209961 62.667499542 0.2300079912 1.9671000242 3.1384000778
 606.85561128 118.31509399 59.392398834 0.1910260022 2.0885000229 3.2353999615
 607.00801128 121.66020203 59.124000549 0.1610219926 2.2077000141 3.3645999432
 607.16041128 121.99649811 57.254699707 0.1286869943 2.2713000774 3.5464000702
 607.31281128 114.78660583 61.527500153 0.1416430026 2.2500000000 3.7878999710
 607.46521128 106.89429474 61.542900085 0.1460199952 2.2007999420 4.0921001434
 607.61761128 95.734397888 56.070598602 0.1559029967 2.1861999035 4.4106998444
 607.77001128 95.501190186 49.595100403 0.1531109959 2.2418000698 4.7216000557
 607.92241128 96.981803894 45.652301788 0.1606760025 2.3266000748 5.0524997711
 608.07481128 106.87779999 50.384498596 0.1912010014 2.3636999130 5.4282999039
 608.22721128 116.77840424 50.508399963 0.2157720029 2.3366999626 5.8663997650
 608.37961128 119.07279968 56.461700439 0.2581790090 2.2867000103 6.2620000839
 608.53201128 119.89009857 52.907199860 0.2545610070 2.2590000629 6.4741997719
 608.68441128 119.80130005 57.452499390 0.2729369998 2.2428998947 6.4524002075
 608.83681128 120.58988953 55.264701843 0.2889640033 2.2337000370 6.3179998398
 608.98921128 121.98229980 57.432098389 0.3263830245 2.2248001099 6.0847001076
 609.14161128 121.60510254 55.536399841 0.3443700075 2.2265000343 5.9029998779
 609.29401128 120.31659698 54.046001434 0.3314899802 2.2344000340 5.8340001106
 609.44641128 120.49739838 55.153400421 0.2996259928 2.2544999123 5.7906999588
 609.59881128 119.41419220 57.121799469 0.2768830061 2.2732000351 5.7476000786
 609.75121128 120.58439636 58.691299438 0.2722269893 2.2704000473 5.7083001137
 609.90361128 121.98169708 59.749698639 0.2772940099 2.2486999035 5.6484999657
 610.05601128 122.39469910 59.206100464 0.2970409989 2.2342998981 5.5743999481
 610.20841128 121.11720276 61.514099121 0.3096400201 2.2346000671 5.3884000778
 610.36081128 124.45480347 62.438301086 0.2913579941 2.2490000725 5.0887999535
 610.51321128 127.26260376 61.991901398 0.2527689934 2.2634000778 4.7821998596
 610.66561128 127.39869690 55.672298431 0.2269259989 2.2697999477 4.4762001038
 610.81801128 127.40000153 57.885700226 0.2663780153 2.2646999359 4.1490998268
 610.97041128 125.52580261 62.076198578 0.3534450233 2.2444999218 3.8285000324
 611.12281128 129.93859863 69.542503357 0.4041070044 2.2283999920 3.5006000996
 611.27521128 132.86019897 71.962600708 0.4263980091 2.2258000374 3.1872000694
 611.42761128 136.05589294 75.064903259 0.3699879944 2.2314000130 2.9430999756
 611.58001128 140.14320374 77.517700195 0.3633539975 2.2283999920 2.7485001087
 611.73241128 135.36819458 81.454803467 0.3580120206 2.2101998329 2.6080000401
 611.88481128 136.97619629 85.099098206 0.3736410141 2.1993000507 2.5069999695
 612.03721128 138.57749939 87.050102234 0.3883739710 2.2032001019 2.4251000881
 612.18961128 137.71270752 85.064399719 0.3772320151 2.2200999260 2.3821001053
 612.34201128 138.09429932 85.777198792 0.3853179812 2.2302999496 2.3738999367
 612.49441128 137.80430603 82.784797668 0.4079309702 2.2330000401 2.4052999020
 612.64681128 135.63160706 84.651199341 0.4345990121 2.2388000488 2.4719998837
 612.79921128 132.54469299 81.755302429 0.4142850041 2.2414999008 2.5724000931
 612.95161128 128.55799866 76.642501831 0.3704949915 2.2469000816 2.6837999821
 613.10401128 123.57279205 70.964996338 0.2959870100 2.2606000900 2.7941000462
 613.25641128 119.26290131 68.302398682 0.2483910024 2.2750000954 2.9131000042
 613.40881128 115.06169891 64.009696960 0.2191230059 2.2838997841 3.0348999500
 613.56121128 116.37930298 59.332698822 0.1872670054 2.2883000374 3.1419999599
 613.71361128 116.59700012 59.684299469 0.1869949847 2.3057000637 3.2262001038
 613.86601128 115.51641083 58.477199554 0.1763190031 2.3334000111 3.2218000889
 614.01841128 115.30300140 58.485099792 0.1858589947 2.3550999165 3.1177000999
