# LAS format log file from PETREL
# Project units are specified as depth units
#==================================================================
~Version information
VERS.   2.0:
WRAP.   NO:
#==================================================================
~Well
STRT .m      619.96198080 :
STOP .m      2949.0911808 :
STEP .m     0.15240000 :
NULL .        -999.250000 :
COMP.           : COMPANY
WELL.  SEM0400   : WELL
FLD.            : FIELD
LOC.            : LOCATION
SRVC.           : SERVICE COMPANY
DATE.  2020-05-08 20:04:29   : Log Export Date {yyyy-MM-dd HH:mm:ss}
PROV.           : PROVINCE
UWI.   SEM0400   : UNIQUE WELL ID
API.            : API NUMBER
#==================================================================
~Curve
DEPT .m                   : DEPTH
DT .us/ft                 : DT
GR .gAPI                  : GR
NPHI .m3/m3               : NPHI
RHOB .g/cm3               : RHOB
RT .ohm.m                 : RT
FACIES .                    : FACIES
~Parameter
#==================================================================
~Ascii
# ...
 2171.2415808 81.300003052 93.078300476 0.2802309990 2.5657000542 3.3394000530  -999.250000
 2171.3939808 84.900001526 101.45349884 0.3489280045 2.5727999210 2.9126999378  -999.250000
 2171.5463808 89.599998474 107.97560120 0.4028320014 2.5569999218 2.5620999336  -999.250000
 2171.6987808 90.800003052 111.32990265 0.3940560222 2.5931999683 2.3510999680  -999.250000
 2171.8511808 91.500000000 106.10040283 0.3541890085 2.5938000679 2.3190999031  -999.250000
 2172.0035808 90.000000000 104.62169647 0.3114989996 2.6077001095 2.3926000595  -999.250000
 2172.1559808 92.599998474 97.836097717 0.3073340058 2.5673000813 2.6140999794  -999.250000
 2172.3083808 91.900001526 94.676399231 0.3535940051 2.5000000000 2.9813001156  -999.250000
 2172.4607808 99.000000000 73.715202332 0.4668889940 2.2887001038 3.3924999237  -999.250000
 2172.6131808 107.80000305 55.873298645 0.6919119954 1.9967000484 3.7688999176  -999.250000
 2172.7655808 115.79999542 39.173099518 0.8738229871 1.7170000076 4.0900001526  -999.250000
 2172.9179808 125.79999542 38.116798401 0.9031780362 1.6073000431 4.4376001358  -999.250000
 2173.0703808 129.69999695 49.785598755 0.7272670269 1.7503000498 4.9660000801  -999.250000
 2173.2227808 118.19999695 68.772796631 0.5477110147 2.0151000023 5.5742998123  -999.250000
 2173.3751808 109.09999847 79.868598938 0.4075820148 2.2363998890 5.8875999451  -999.250000
 2173.5275808 96.100006104 82.683799744 0.2944319844 2.4022998810 5.8550000191  -999.250000
 2173.6799808 86.199996948 67.689903259 0.2271849960 2.4546999931 5.6767001152  -999.250000
 2173.8323808 82.300003052 49.501201630 0.2092410028 2.4526998997 5.5145998001  -999.250000
 2173.9847808 81.500000000 34.177700043 0.1791110039 2.4214999676 5.4619002342  -999.250000
 2174.1371808 80.099998474 28.872600555 0.1598750055 2.3938999176 5.5187001228  -999.250000
 2174.2895808 78.600006104 29.297800064 0.1476230025 2.3942000866 5.6767001152  -999.250000
 2174.4419808 78.699996948 29.286800385 0.1539440006 2.4003000259 5.7821002007  -999.250000
 2174.5943808 78.199996948 29.265399933 0.1545380056 2.4007999897 5.7821002007  -999.250000
 2174.7467808 76.100006104 28.690099716 0.1597619951 2.3894999027 5.7132000923  -999.250000
 2174.8991808 78.900009155 31.437299728 0.1543920040 2.3803000450 5.5633001328  -999.250000
 2175.0515808 79.000000000 39.491901398 0.1545220017 2.3875000477 5.4092998505  -999.250000
 2175.2039808 79.099998474 51.848701477 0.1629669964 2.4277999401 5.3200998306  -999.250000
 2175.3563808 77.699989319 60.444000244 0.1676120013 2.4839999676 5.2836999893  -999.250000
 2175.5087808 76.300003052 65.083602905 0.1724029928 2.5357999802 5.2214999199  -999.250000
 2175.6611808 74.300003052 69.750900269 0.1750359982 2.5634000301 5.0994000435  -999.250000
 2175.8135808 74.500000000 74.455200195 0.1882609874 2.5771000385 4.9299001694  -999.250000
 2175.9659808 74.000000000 78.937599182 0.2081879973 2.5827000141 4.7336001396  -999.250000
 2176.1183808 74.000000000 82.662200928 0.2296470106 2.5864000320 4.5345997810  -999.250000
 2176.2707808 76.100006104 84.180496216 0.2546800077 2.5857000351 4.3726000786  -999.250000
 2176.4231808 76.699996948 87.729301453 0.2767789960 2.5866000652 4.2671999931  -999.250000
 2176.5755808 77.000000000 90.048599243 0.2826859951 2.5901999474 4.1901001930  -999.250000
 2176.7279808 79.000000000 90.182899475 0.2727569938 2.5980000496 4.1094999313  -999.250000
 2176.8803808 79.099998474 89.508102417 0.2672989964 2.6089999676 4.0529999733  -999.250000
 2177.0327808 77.400001526 86.759803772 0.2582980096 2.6140000820 4.0412001610  -999.250000
 2177.1851808 76.699996948 86.028503418 0.2564089894 2.6124999523 4.0489997864  -999.250000
 2177.3375808 76.800003052 86.293701172 0.2514539957 2.6017000675 4.0647001266  -999.250000
 2177.4899808 76.199996948 86.676902771 0.2464639992 2.5887999535 4.0647001266  -999.250000
 2177.6423808 76.400009155 86.441101074 0.2442200035 2.5766000748 4.0177001953  -999.250000
 2177.7947808 77.400001526 87.914901733 0.2397969961 2.5731000900 3.9021000862  -999.250000
 2177.9471808 77.999992371 86.427299500 0.2419720143 2.5782001019 3.7609000206  -999.250000
 2178.0995808 78.400001526 86.307502747 0.2494120002 2.5913999081 3.6219999790  -999.250000
 2178.2519808 79.300003052 88.239700317 0.2640999854 2.6066999435 3.4632000923  -999.250000
 2178.4043808 79.599998474 89.241401672 0.2902910113 2.6159999371 3.2866001129  -999.250000
 2178.5567808 81.199996948 93.170097351 0.3033530116 2.6194999218 3.1333999634  -999.250000
 2178.7091808 83.099998474 95.841499329 0.3012039959 2.6180999279 3.0153999329  -999.250000
 2178.8615808 83.699996948 97.869697571 0.2957679927 2.6166999340 2.9075000286  -999.250000
 2179.0139808 84.300003052 99.000602722 0.2999370098 2.6110999584 2.8052999973  -999.250000
 2179.1663808 84.599998474 97.703598022 0.3017809987 2.5973000526 2.7128000259  -999.250000
 2179.3187808 84.900001526 94.155799866 0.3002829850 2.5792000294 2.6222000122  -999.250000
 2179.4711808 84.599998474 91.486701965 0.3079360127 2.5652000904 2.5139999390  -999.250000
 2179.6235808 84.400001526 92.829299927 0.3090900183 2.5625000000 2.4086000919  -999.250000
 2179.7759808 85.300003052 94.399902344 0.3140609860 2.5724999905 2.3215999603  -999.250000
 2179.9283808 85.199989319 96.053298950 0.3238619864 2.5861001015 2.2527000904  -999.250000
 2180.0807808 86.900001526 94.831398010 0.3260990083 2.5934000015 2.1916999817  -999.250000
 2180.2331808 87.500000000 93.893203735 0.3193539977 2.5910000801 2.1445999146  -999.250000
 2180.3855808 88.600006104 93.978500366 0.3305030167 2.5850999355 2.1266999245  -999.250000
 2180.5379808 88.900009155 96.923797607 0.3369399905 2.5810000896 2.1222999096  -999.250000
 2180.6903808 89.900001526 98.548500061 0.3406629860 2.5755999088 2.1275000572  -999.250000
 2180.8427808 90.499992371 97.421302795 0.3415150046 2.5696001053 2.1589000225  -999.250000
 2180.9951808 89.800003052 94.329696655 0.3543270230 2.5664999485 2.2114999294  -999.250000
 2181.1475808 88.099998474 92.774497986 0.3614070117 2.5681002140 2.2890000343  -999.250000
 2181.2999808 85.900001526 91.040702820 0.3700210154 2.5759000778 2.3952000141  -999.250000
 2181.4523808 84.300003052 92.782997131 0.3479410112 2.5926001072 2.5034999847  -999.250000
 2181.6047808 83.099998474 96.185997009 0.3344219923 2.6126000881 2.5773999691  -999.250000
 2181.7571808 83.500000000 95.104598999 0.3140259981 2.6224999428 2.6129000187  -999.250000
 2181.9095808 84.599998474 91.543899536 0.3444739878 2.6156001091 2.6370000839  -999.250000
 2182.0619808 84.599998474 88.915100098 0.3479370177 2.6063001156 2.6628999710  -999.250000
 2182.2143808 84.900001526 93.774002075 0.3521250188 2.6054999828 2.7042999268  -999.250000
 2182.3667808 84.099998474 95.813697815 0.3192919791 2.6080999374 2.7620000839  -999.250000
 2182.5191808 84.099998474 95.484298706 0.3051719964 2.6059000492 2.8348999023  -999.250000
 2182.6715808 83.699996948 93.267997742 0.3052760065 2.6001000404 2.9156000614  -999.250000
 2182.8239808 82.999992371 92.247802734 0.3106409907 2.5959999561 3.0155000687  -999.250000
 2182.9763808 83.300003052 88.873001099 0.3149830103 2.5947999954 3.1403000355  -999.250000
 2183.1287808 82.099998474 84.338500977 0.2989209890 2.5945999622 3.3062000275  -999.250000
 2183.2811808 81.199996948 80.444099426 0.2865619957 2.5950000286 3.4883999825  -999.250000
 2183.4335808 81.199996948 81.843399048 0.2683280110 2.5876998901 3.7088000774  -999.250000
 2183.5859808 80.699996948 81.503700256 0.2683719993 2.5815000534 3.9923000336  -999.250000
 2183.7383808 80.900001526 80.843200684 0.2604840100 2.5703001022 4.3242998123  -999.250000
 2183.8907808 80.099998474 81.684898376 0.2612360120 2.5717000961 4.7019000053  -999.250000
 2184.0431808 78.900009155 76.904403687 0.2427529842 2.5794000626 5.1265001297  -999.250000
 2184.1955808 76.500000000 75.782600403 0.2234530002 2.5903000832 5.5784997940  -999.250000
 2184.3479808 75.400001526 71.328697205 0.2074559927 2.5811998844 5.9843997955  -999.250000
