# LAS format log file from PETREL
# Project units are specified as depth units
#==================================================================
~Version information
VERS.   2.0:
WRAP.   NO:
#==================================================================
~Well
STRT .m      619.96198080 :
STOP .m      2949.0911808 :
STEP .m     0.15240000 :
NULL .        -999.250000 :
COMP.           : COMPANY
WELL.  SEM0400   : WELL
FLD.            : FIELD
LOC.            : LOCATION
SRVC.           : SERVICE COMPANY
DATE.  2020-05-08 20:04:29   : Log Export Date {yyyy-MM-dd HH:mm:ss}
PROV.           : PROVINCE
UWI.   SEM0400   : UNIQUE WELL ID
API.            : API NUMBER
#==================================================================
~Curve
DEPT .m                   : DEPTH
DT .us/ft                 : DT
GR .gAPI                  : GR
NPHI .m3/m3               : NPHI
RHOB .g/cm3               : RHOB
RT .ohm.m                 : RT
FACIES .                    : FACIES
~Parameter
#==================================================================
~Ascii
# ...
 2317.0883808 87.599998474 97.651603699 0.3640590012 2.5218999386 2.6110999584 4.0000000000
 2317.2407808 89.199996948 99.286598206 0.3585990071 2.5197000504 2.7142000198 4.0000000000
 2317.3931808 89.500000000 96.801101685 0.3519380093 2.5281000137 2.7753000259 4.0000000000
 2317.5455808 85.099998474 93.618698120 0.3335620165 2.5487000942 2.8115000725 4.0000000000
 2317.6979808 80.699996948 93.055397034 0.3073410094 2.5710999966 2.8545000553 4.0000000000
 2317.8503808 77.099998474 96.556297302 0.2916049957 2.5764000416 2.9577000141 4.0000000000
 2318.0027808 76.300003052 101.36920166 0.3096739948 2.5325000286 3.1956999302 4.0000000000
 2318.1551808 85.599998474 100.09709930 0.3863169849 2.4035000801 3.4925999641 4.0000000000
 2318.3075808 99.900001526 92.216300964 0.5947909951 2.3039999008 3.6986000538 4.0000000000
 2318.4599808 106.59999847 78.005096436 0.7770069838 2.0603001118 3.8280000687 2.0000000000
 2318.6123808 116.10000610 79.420700073 0.7088670135 2.0610001087 4.0260000229 2.0000000000
 2318.7647808 110.49999237 83.768096924 0.4451810122 2.2956998348 4.4309000969 4.0000000000
 2318.9171808 75.000000000 81.682899475 0.2728190124 2.5350999832 5.0261001587 4.0000000000
 2319.0695808 69.000000000 74.778800964 0.1737339944 2.6542000771 5.5873999596 2.0000000000
 2319.2219808 69.500000000 70.281997681 0.1676740050 2.6494998932 5.8888001442 2.0000000000
 2319.3743808 70.099998474 76.791397095 0.1771629900 2.6596000195 5.9279999733 3.0000000000
 2319.5267808 70.199996948 79.300300598 0.1963579953 2.6587998867 5.8474001884 3.0000000000
 2319.6791808 68.699996948 82.379203796 0.2107229978 2.5977001190 5.6764001846 3.0000000000
 2319.8315808 69.699996948 82.976898193 0.2304280102 2.5931999683 5.4362001419 4.0000000000
 2319.9839808 72.000000000 83.588699341 0.2374920100 2.5866000652 5.1707000732 4.0000000000
 2320.1363808 74.199996948 86.381202698 0.2527509928 2.5880999565 4.9274001122 4.0000000000
 2320.2887808 76.199996948 89.757301331 0.2802079916 2.5963997841 4.7796001434 4.0000000000
 2320.4411808 78.199996948 92.852302551 0.2968600094 2.6054999828 4.7182998657 4.0000000000
 2320.5935808 80.000000000 98.307701111 0.2962659895 2.6147999763 4.6922998428 4.0000000000
 2320.7459808 79.000000000 88.300796509 0.2998870015 2.6196999550 4.6894001961 4.0000000000
 2320.8983808 77.500000000 83.763999939 0.2652100027 2.6187996864 4.8055000305 4.0000000000
 2321.0507808 75.599998474 69.565597534 0.2370100021 2.6073999405 4.9977002144 2.0000000000
 2321.2031808 72.800003052 75.534599304 0.1913059950 2.5940999985 5.2958998680 2.0000000000
 2321.3555808 71.099998474 77.958801270 0.1834470034 2.5885999203 5.6870999336 2.0000000000
 2321.5079808 71.900001526 83.105903625 0.1790780127 2.6628999710 6.0535998344 4.0000000000
 2321.6603808 71.800003052 81.035598755 0.1858950108 2.6019001007 6.3259000778 4.0000000000
 2321.8127808 72.000000000 77.486999512 0.1891019940 2.6347000599 6.5461001396 2.0000000000
 2321.9651808 70.800003052 73.794700623 0.1925240010 2.6233000755 6.7869000435 2.0000000000
 2322.1175808 70.900001526 69.952598572 0.1887260079 2.6136999130 7.0742001534 2.0000000000
 2322.2699808 70.599998474 72.323501587 0.1840430051 2.6222999096 7.3587999344 2.0000000000
 2322.4223808 70.500000000 77.760803223 0.1831019968 2.6135001183 7.4808998108 2.0000000000
 2322.5747808 70.800003052 76.934799194 0.1843560040 2.6043999195 7.5314002037 2.0000000000
 2322.7271808 70.400001526 73.618598938 0.1776370108 2.5959999561 7.5524997711 2.0000000000
 2322.8795808 69.500000000 70.191902161 0.1815740019 2.6010999680 7.5356998444 3.0000000000
 2323.0319808 70.500000000 72.771202087 0.1912820041 2.6170001030 7.4514999390 3.0000000000
 2323.1843808 72.400001526 78.040199280 0.2095080018 2.6305000782 7.2073001862 3.0000000000
 2323.3367808 72.199996948 79.440299988 0.2082809955 2.6273000240 6.7652001381 3.0000000000
 2323.4891808 72.699996948 79.366600037 0.1937029958 2.6203999519 6.1413998604 3.0000000000
 2323.6415808 72.199996948 76.195999146 0.1987030059 2.6184000969 5.5637001991 3.0000000000
 2323.7939808 71.800003052 77.195899963 0.2202790082 2.6335999966 5.0425000191 3.0000000000
 2323.9463808 72.800003052 84.469703674 0.2497429997 2.6363999844 4.5197000504 3.0000000000
 2324.0987808 75.499992371 92.852302551 0.2643059790 2.6291000843 3.9777998924 4.0000000000
 2324.2511808 77.599998474 98.231903076 0.2989299893 2.6068999767 3.4735000134 4.0000000000
 2324.4035808 78.900009155 95.063102722 0.3316709995 2.5987999439 3.1052999496 4.0000000000
 2324.5559808 81.199996948 95.431602478 0.3456420004 2.6023001671 2.8666999340 4.0000000000
 2324.7083808 83.800003052 96.741500854 0.3452149928 2.6166000366 2.7330000401 4.0000000000
 2324.8607808 86.100006104 106.73629761 0.3087869883 2.6231000423 2.7390999794 4.0000000000
 2325.0131808 86.500000000 105.59539795 0.3382309973 2.6180999279 2.7864999771 4.0000000000
 2325.1655808 86.500000000 103.27580261 0.3483940065 2.6071000099 2.8993000984 4.0000000000
 2325.3179808 84.900001526 98.409500122 0.3300600052 2.6019001007 3.0982999802 4.0000000000
 2325.4703808 81.100006104 97.100097656 0.2916179895 2.6026999950 3.3352000713 4.0000000000
 2325.6227808 77.300003052 93.257102966 0.2646470070 2.6019999981 3.5838000774 4.0000000000
 2325.7751808 76.100006104 87.069900513 0.2293789983 2.6054999828 3.7834999561 4.0000000000
 2325.9275808 74.300003052 83.493400574 0.2148349881 2.6138000488 3.8819000721 4.0000000000
 2326.0799808 73.699996948 84.173301697 0.2390249968 2.6277999878 3.9300999641 4.0000000000
 2326.2323808 74.800003052 89.164299011 0.2663829923 2.6322999001 3.8850998878 4.0000000000
 2326.3847808 80.400001526 94.308296204 0.2970679998 2.6256000996 3.7295999527 4.0000000000
 2326.5371808 81.599998474 96.651000977 0.3118540049 2.6147999763 3.5239000320 4.0000000000
 2326.6895808 82.599998474 95.285598755 0.3059589863 2.6082999706 3.3489999771 4.0000000000
 2326.8419808 83.099998474 95.619102478 0.2966960073 2.6129999161 3.2439000607 4.0000000000
 2326.9943808 82.999992371 93.754898071 0.2831270099 2.6231000423 3.1979999542 4.0000000000
 2327.1467808 83.500000000 91.452201843 0.3101269901 2.6331999302 3.1814999580 4.0000000000
 2327.2991808 82.800003052 90.273101807 0.3216319978 2.6370000839 3.1710000038 4.0000000000
 2327.4515808 82.000000000 94.694602966 0.3161939979 2.6324000359 3.1644001007 4.0000000000
 2327.6039808 82.300003052 95.210502625 0.2939929962 2.6198000908 3.1521000862 4.0000000000
 2327.7563808 81.699996948 90.715301514 0.2903209925 2.6080999374 3.1482999325 4.0000000000
 2327.9087808 82.099998474 89.830902100 0.3082740009 2.6020998955 3.1521000862 4.0000000000
 2328.0611808 83.199996948 89.241401672 0.3153879941 2.6020998955 3.1617000103 4.0000000000
 2328.2135808 84.099998474 89.978302002 0.3220529854 2.5957999229 3.1714000702 4.0000000000
 2328.3659808 84.800003052 89.904602051 0.3158720136 2.5847001076 3.1751999855 4.0000000000
 2328.5183808 84.500000000 95.008201599 0.3262340128 2.5710000992 3.1675000191 4.0000000000
 2328.6707808 84.000000000 94.399902344 0.3308549821 2.5682001114 3.1366999149 4.0000000000
 2328.8231808 84.199996948 93.073402405 0.3285689950 2.5653998852 3.1001000404 4.0000000000
 2328.9755808 83.099998474 90.424102783 0.3340259790 2.5613000393 3.0827999115 4.0000000000
 2329.1279808 84.400001526 95.970001221 0.3412060142 2.5466001034 3.0962998867 4.0000000000
 2329.2803808 85.300003052 98.373199463 0.3680830002 2.5636000633 3.1733000278 4.0000000000
 2329.4327808 85.000000000 98.316299438 0.3664619923 2.5596001148 3.3113000393 4.0000000000
 2329.5851808 85.099998474 98.600303650 0.3559400141 2.5587999821 3.5246000290 4.0000000000
 2329.7375808 86.400009155 89.804603577 0.3396939933 2.5148000717 3.7985999584 4.0000000000
 2329.8899808 90.599998474 81.890098572 0.3982120156 2.4045000076 4.0771999359 4.0000000000
 2330.0423808 101.50000000 62.301399231 0.5847280025 2.1287000179 4.2852997780 2.0000000000
 2330.1947808 113.90000916 49.713699341 0.8677310348 1.7981998920 4.4313998222 0.0000000000
