# LAS format log file from PETREL
# Project units are specified as depth units
#==================================================================
~Version information
VERS.   2.0:
WRAP.   NO:
#==================================================================
~Well
STRT .m      619.96198080 :
STOP .m      2949.0911808 :
STEP .m     0.15240000 :
NULL .        -999.250000 :
COMP.           : COMPANY
WELL.  SEM0400   : WELL
FLD.            : FIELD
LOC.            : LOCATION
SRVC.           : SERVICE COMPANY
DATE.  2020-05-08 20:04:29   : Log Export Date {yyyy-MM-dd HH:mm:ss}
PROV.           : PROVINCE
UWI.   SEM0400   : UNIQUE WELL ID
API.            : API NUMBER
#==================================================================
~Curve
DEPT .m                   : DEPTH
DT .us/ft                 : DT
GR .gAPI                  : GR
NPHI .m3/m3               : NPHI
RHOB .g/cm3               : RHOB
RT .ohm.m                 : RT
FACIES .                    : FACIES
~Parameter
#==================================================================
~Ascii
# ...
 924.91438080 88.600006104 60.760700226 0.3233290017 2.5095999241 4.8689999580  -999.250000
 925.06678080 94.099998474 62.951900482 0.3258369863 2.4741001129 4.0528998375  -999.250000
 925.21918080 93.900009155 69.328399658 0.2940489948 2.4667000771 3.5446999073  -999.250000
 925.37158080 97.000000000 76.745002747 0.2968040109 2.4640998840 3.2634999752  -999.250000
 925.52398080 102.19999695 78.303703308 0.3227909803 2.4460000992 3.0897998810  -999.250000
 925.67638080 107.09999847 75.135299683 0.3125349879 2.4128000736 2.9602999687  -999.250000
 925.82878080 109.40000153 72.834297180 0.3351300061 2.3835999966 2.8633000851  -999.250000
 925.98118080 110.79999542 73.641799927 0.3369990289 2.3596000671 2.8378000259  -999.250000
 926.13358080 109.40000153 75.593399048 0.3500719965 2.3468999863 2.8338999748  -999.250000
 926.28598080 108.09999847 73.941802979 0.3078100085 2.3550000191 2.8554999828  -999.250000
 926.43838080 105.00000000 75.898696899 0.2977090180 2.3821001053 2.9065001011  -999.250000
 926.59078080 104.40000153 74.829002380 0.2962740064 2.4040999413 2.9614999294  -999.250000
 926.74318080 107.19999695 72.680603027 0.2952210009 2.4089999199 3.0106000900  -999.250000
 926.89558080 107.59999847 70.610397339 0.3145389855 2.3972001076 3.0538001060  -999.250000
 927.04798080 107.99999237 70.869201660 0.3264059722 2.3910999298 3.0871999264  -999.250000
 927.20038080 108.69999695 66.770103455 0.3400560021 2.3868000507 3.0950999260  -999.250000
 927.35278080 107.19999695 59.798999786 0.3543280065 2.3740000725 3.0676000118  -999.250000
 927.50518080 107.99999237 58.352199554 0.3654150069 2.3499999046 3.0499000549  -999.250000
 927.65758080 110.79999542 53.640998840 0.3581240177 2.3308999538 3.0538001060  -999.250000
 927.80998080 109.00000000 61.653800964 0.3563980162 2.3338999748 3.0617001057  -999.250000
 927.96238080 108.80000305 67.059799194 0.3619540036 2.3612000942 3.0538001060  -999.250000
 928.11478080 106.50000000 76.437797546 0.3661339879 2.4003000259 2.9811999798  -999.250000
 928.26718080 102.80000305 72.168701172 0.3472129703 2.4254000187 2.8180999756  -999.250000
 928.41958080 107.30000305 67.901000977 0.3374689817 2.4189000130 2.6493000984  -999.250000
 928.57198080 109.50000000 63.594799042 0.3182910085 2.3806002140 2.5443000793  -999.250000
 928.72438080 113.69999695 68.163002014 0.3276520073 2.3677999973 2.4748001099  -999.250000
 928.87678080 114.59999847 74.092903137 0.3577280045 2.3645000458 2.3796999454  -999.250000
 929.02918080 115.40000153 81.772903442 0.3795019984 2.3861999512 2.2495000362  -999.250000
 929.18158080 116.00000000 80.305000305 0.4061479867 2.3531999588 2.0996999741  -999.250000
 929.33398080 118.09999847 75.930297852 0.4230759740 2.3331999779 1.9599000216  -999.250000
 929.48638080 119.00000000 73.916900635 0.4261640310 2.3118000031 1.8533999920  -999.250000
 929.63878080 118.60000610 78.179603577 0.4145679772 2.3373000622 1.7743999958  -999.250000
 929.79118080 121.69999695 81.537696838 0.4179349840 2.3548998833 1.7209999561  -999.250000
 929.94358080 117.09999847 82.213302612 0.4162780046 2.3703999519 1.6979000568  -999.250000
 930.09598080 115.69999695 81.975402832 0.4299800098 2.3622000217 1.6929999590  -999.250000
 930.24838080 116.80000305 83.560897827 0.4178490043 2.3664000034 1.7075999975  -999.250000
 930.40078080 130.69999695 91.598800659 0.4332749844 2.3633000851 1.7477999926  -999.250000
 930.55318080 131.10000610 87.712196350 0.4301150143 2.3308999538 1.7858999968  -999.250000
 930.70558080 126.00000000 87.329803467 0.4443859756 2.3310999870 1.8026000261  -999.250000
 930.85798080 118.50000000 80.564903259 0.4551910162 2.2978000641 1.8084000349  -999.250000
 931.01038080 122.59999847 82.652603149 0.4199649692 2.3498001099 1.8256000280  -999.250000
 931.16278080 117.69998932 85.807701111 0.4043830037 2.3872001171 1.8664000034  -999.250000
 931.31518080 117.90000153 83.152397156 0.3796540201 2.4003999233 1.9398000240  -999.250000
 931.46758080 116.10000610 82.601196289 0.3640219867 2.4063000679 2.0411000252  -999.250000
 931.61998080 121.00000000 80.023597717 0.3554860055 2.3831999302 2.1614999771  -999.250000
 931.77238080 123.09999847 78.072303772 0.3565869927 2.3654000759 2.3041999340  -999.250000
 931.92478080 115.40000153 76.417800903 0.3586999774 2.3719999790 2.4870998859  -999.250000
 932.07718080 110.59999847 72.120597839 0.3528379798 2.3757998943 2.7025001049  -999.250000
 932.22958080 106.40000916 68.854400635 0.3305329978 2.3808000088 2.9207000732  -999.250000
 932.38198080 105.40000153 59.461898804 0.3176029921 2.3710999489 3.0739998817  -999.250000
 932.53438080 107.40000153 57.522899628 0.2900750041 2.3610999584 3.1075000763  -999.250000
 932.68678080 106.59999847 63.974498749 0.2888890207 2.3392000198 3.0476000309  -999.250000
 932.83918080 105.80000305 71.866600037 0.2964490056 2.4398999214 2.8768999577  -999.250000
 932.99158080 104.90000153 79.845397949 0.3058919907 2.4830000401 2.6277000904  -999.250000
 933.14398080 104.50000000 79.799201965 0.3440819979 2.4477999210 2.3933999538  -999.250000
 933.29638080 110.19998932 85.578201294 0.4074999988 2.4052000046 2.2427000999  -999.250000
 933.44878080 111.59999847 86.129798889 0.4240520000 2.3808000088 2.1654999256  -999.250000
 933.60118080 116.00000000 86.374298096 0.4363270104 2.3564999104 2.1277999878  -999.250000
 933.75358080 119.59999847 81.545799255 0.4076660275 2.3508000374 2.1098001003  -999.250000
 933.90598080 116.69999695 84.283798218 0.3975830078 2.3828001022 2.1036999226  -999.250000
 934.05838080 113.40000153 83.327102661 0.3565240204 2.4347000122 2.1192998886  -999.250000
 934.21078080 108.80000305 81.455299377 0.3628030121 2.4293000698 2.1721000671  -999.250000
 934.36318080 108.90000916 79.345397949 0.3816019893 2.4007999897 2.2425000668  -999.250000
 934.51558080 108.50000000 80.324996948 0.3926919997 2.3933999538 2.2834999561  -999.250000
 934.66798080 108.50000000 85.888603210 0.3649829924 2.3803000450 2.2913000584  -999.250000
 934.82038080 104.40000153 83.890296936 0.3602740169 2.4586000443 2.2620000839  -999.250000
 934.97278080 106.10000610 84.723098755 0.3483209908 2.4776999950 2.1858000755  -999.250000
 935.12518080 107.80000305 81.567901611 0.3599720001 2.4407000542 2.1231999397  -999.250000
 935.27758080 113.29999542 81.479103088 0.3646910191 2.4195001125 2.1094999313  -999.250000
 935.42998080 115.40000153 81.136299133 0.4246149957 2.3663001060 2.1154000759  -999.250000
 935.58238080 117.00000000 81.836303711 0.4787950218 2.3492000103 2.1349000931  -999.250000
 935.73478080 117.50000000 86.130203247 0.4893380105 2.3452999592 2.1760001183  -999.250000
 935.88718080 115.00000000 86.349197388 0.4646730125 2.3299999237 2.2249000072  -999.250000
 936.03958080 114.00000000 89.160102844 0.3956489861 2.4154000282 2.2737998962  -999.250000
 936.19198080 112.09999847 86.614303589 0.3843450248 2.4217998981 2.3264999390  -999.250000
 936.34438080 106.80000305 81.481498718 0.3581340015 2.4349999428 2.3773999214  -999.250000
 936.49678080 105.19998932 75.449401855 0.3320069909 2.4354000092 2.4184000492  -999.250000
 936.64918080 108.19999695 72.237899780 0.3280250132 2.4137001038 2.4458000660  -999.250000
 936.80158080 110.59999847 75.203796387 0.3487659693 2.3991000652 2.4556000233  -999.250000
 936.95398080 109.80000305 80.276496887 0.3615539968 2.4075000286 2.4398999214  -999.250000
 937.10638080 114.09999847 85.852203369 0.3811859787 2.4142999649 2.3872001171  -999.250000
 937.25878080 110.79999542 86.563499451 0.3665290177 2.4389998913 2.3285000324  -999.250000
 937.41118080 110.09999847 80.880203247 0.3688650131 2.4126999378 2.2874000072  -999.250000
 937.56358080 110.59999847 75.479598999 0.3517190218 2.4079000950 2.2521998882  -999.250000
 937.71598080 106.50000000 77.104499817 0.3508259952 2.4260001183 2.2028999329  -999.250000
 937.86838080 108.69999695 79.464202881 0.3366529942 2.4577999115 2.1440999508  -999.250000
 938.02078080 106.59999847 80.401901245 0.3426050246 2.4621999264 2.0778999329  -999.250000
