# LAS format log file from PETREL
# Project units are specified as depth units
#==================================================================
~Version information
VERS.   2.0:
WRAP.   NO:
#==================================================================
~Well
STRT .m      598.62601128 :
STOP .m      2812.0836113 :
STEP .m     0.15240000 :
NULL .        -999.250000 :
COMP.           : COMPANY
WELL.  SEM0410   : WELL
FLD.            : FIELD
LOC.            : LOCATION
SRVC.           : SERVICE COMPANY
DATE.  2020-05-08 20:04:55   : Log Export Date {yyyy-MM-dd HH:mm:ss}
PROV.           : PROVINCE
UWI.   SEM0410   : UNIQUE WELL ID
API.            : API NUMBER
#==================================================================
~Curve
DEPT .m                   : DEPTH
DT .us/ft                 : DT
GR .gAPI                  : GR
NPHI .m3/m3               : NPHI
RHOB .g/cm3               : RHOB
RT .ohm.m                 : RT
~Parameter
#==================================================================
~Ascii
# ...
 2650.5396113 76.714401245 83.703796387 0.2283309996 2.6494998932 6.1887001991
 2650.6920113 77.082099915 81.653396606 0.2308130115 2.6524000168 6.0513000488
 2650.8444113 76.617897034 81.830299377 0.2283849865 2.6610000134 5.9783000946
 2650.9968113 77.089309692 83.045997620 0.2295890003 2.6638998985 5.9686999321
 2651.1492113 76.757202148 83.603401184 0.2201479971 2.6684999466 5.9819998741
 2651.3016113 75.610702515 82.420097351 0.2224230021 2.6577999592 6.0124998093
 2651.4540113 75.896499634 79.287902832 0.2211080045 2.6510000229 6.0622000694
 2651.6064113 75.775199890 80.560401917 0.2328889966 2.6466000080 6.1268000603
 2651.7588113 75.099998474 81.047698975 0.2309600115 2.6514000893 6.1722998619
 2651.9112113 75.096496582 85.176902771 0.2324119955 2.6493000984 6.2028999329
 2652.0636113 75.021102905 81.946403503 0.2182900012 2.6435999870 6.1835999489
 2652.2160113 75.621101379 80.627700806 0.2110560089 2.6373999119 6.1152000427
 2652.3684113 76.213989258 79.254699707 0.2149010152 2.6384999752 6.0258002281
 2652.5208113 76.638496399 85.380096436 0.2218059897 2.6433000565 5.9011001587
 2652.6732113 77.707000732 87.814796448 0.2291049957 2.6445000172 5.7657999992
 2652.8256113 77.913902283 88.962997437 0.2503089905 2.6384000778 5.6293001175
 2652.9780113 78.317398071 85.984703064 0.2537420094 2.6308000088 5.4762997627
 2653.1304113 78.806900024 89.846099854 0.2620480061 2.6303999424 5.3382000923
 2653.2828113 79.024307251 88.283500671 0.2494660020 2.6408998966 5.2072000504
 2653.4352113 79.734596252 87.102203369 0.2500939965 2.6466000080 5.0655999184
 2653.5876113 80.696502686 81.942596436 0.2621420026 2.6486001015 4.9243001938
 2653.7400113 80.596603394 82.490303040 0.2726219893 2.6459999084 4.7846999168
 2653.8924113 80.489700317 82.924400330 0.2816680074 2.6521000862 4.6586999893
 2654.0448113 80.217102051 82.058700562 0.2782340050 2.6545000076 4.5447001457
 2654.1972113 80.720497131 82.147796631 0.2801429927 2.6556999683 4.4418001175
 2654.3496113 81.306800842 86.580497742 0.2752529979 2.6547000408 4.3467998505
 2654.5020113 81.500000000 88.001197815 0.2702580094 2.6549999714 4.2574000359
 2654.6544113 81.523803711 88.766998291 0.2729299963 2.6552999020 4.1775999069
 2654.8068113 82.206802368 89.796096802 0.2760800123 2.6498999596 4.1107001305
 2654.9592113 82.393203735 90.586402893 0.2849760056 2.6435000896 4.0448999405
 2655.1116113 82.223701477 86.644203186 0.2785860002 2.6335000992 3.9744000435
 2655.2640113 82.886489868 87.879898071 0.2752850056 2.6293001175 3.9214000702
 2655.4164113 82.496589661 87.302902222 0.2644079924 2.6287999153 3.8780000210
 2655.5688113 82.406692505 92.565597534 0.2649579942 2.6301999092 3.8315000534
 2655.7212113 82.616798401 88.951896667 0.2582319975 2.6307001114 3.7925000191
 2655.8736113 83.089996338 93.361198425 0.2617839873 2.6331000328 3.7441999912
 2656.0260113 82.796699524 91.644096375 0.2737260163 2.6431000233 3.6816999912
 2656.1784113 82.693298340 93.175498962 0.2956039906 2.6547000408 3.6087999344
 2656.3308113 82.519897461 96.025703430 0.2877500057 2.6591999531 3.5299999714
 2656.4832113 83.113296509 101.11550140 0.2810389996 2.6563000679 3.4753000736
 2656.6356113 83.529800415 103.21299744 0.2850790024 2.6458001137 3.4565999508
 2656.7880113 84.413200378 105.75920105 0.2998340130 2.6372001171 3.4779999256
 2656.9404113 84.806610107 104.13760376 0.3011240065 2.6285998821 3.5151998997
 2657.0928113 84.990097046 103.18460083 0.2939069867 2.6252000332 3.5601999760
 2657.2452113 84.663902283 96.883796692 0.2791150212 2.6133000851 3.6152000427
 2657.3976113 83.590202332 98.717102051 0.2804140151 2.6043000221 3.6749000549
 2657.5500113 83.290199280 99.440101624 0.2752999961 2.5945999622 3.7413001060
 2657.7024113 83.009803772 99.099502563 0.2823880017 2.5996000767 3.8067998886
 2657.8548113 83.319503784 101.07260132 0.2687250078 2.6057000160 3.8368000984
 2658.0072113 83.896797180 99.841102600 0.2858490050 2.6159999371 3.8053998947
 2658.1596113 83.803199768 96.826797485 0.2816289961 2.6191999912 3.7051999569
 2658.3120113 83.916198730 96.172302246 0.3041650057 2.6210000515 3.5559000969
 2658.4644113 84.419296265 94.623901367 0.3024130166 2.6154999733 3.3627998829
 2658.6168113 85.009696960 97.954200745 0.2974889874 2.6140999794 3.1696000099
 2658.7692113 85.319297791 94.051498413 0.2965150177 2.6143999100 2.9874000549
 2658.9216113 85.951202393 94.841003418 0.3157190084 2.6287999153 2.8280999660
 2659.0740113 87.528800964 96.642097473 0.3335970044 2.6403000355 2.6798000336
 2659.2264113 88.435096741 98.799896240 0.3517279923 2.6521999836 2.5611000061
 2659.3788113 89.522300720 99.442398071 0.3356639743 2.6512999535 2.4718000889
 2659.5312113 90.206298828 96.690200806 0.3271340132 2.6512000561 2.3987998962
 2659.6836113 90.377799988 98.974998474 0.3208819926 2.6545999050 2.3362998962
 2659.8360113 89.690498352 94.949501038 0.3334410191 2.6621999741 2.2881999016
 2659.9884113 89.396896362 95.772201538 0.3621270061 2.6737999916 2.2613000870
 2660.1408113 89.315696716 92.939300537 0.3616040051 2.6668000221 2.2492001057
 2660.2932113 89.812606812 99.360099792 0.3564229906 2.6586000919 2.2362000942
 2660.4456113 90.209396362 103.46360016 0.3449369669 2.6505999565 2.2251000404
 2660.5980113 90.484397888 101.76979828 0.3556810021 2.6638000011 2.2116999626
 2660.7504113 89.990592957 101.10620117 0.3505750000 2.6712000370 2.1958999634
 2660.9028113 89.684402466 99.889900208 0.3352719843 2.6631999016 2.1770000458
 2661.0552113 89.221710205 102.11160278 0.3361970186 2.6496999264 2.1568000317
 2661.2076113 89.903106689 104.25299835 0.3476380110 2.6396999359 2.1389999390
 2661.3600113 90.024696350 109.98750305 0.3465930223 2.6512999535 2.1256999969
 2661.5124113 90.809196472 113.05349731 0.3551909924 2.6607999802 2.1159999371
 2661.6648113 91.090797424 112.46109772 0.3449870050 2.6717998981 2.1184999943
 2661.8172113 90.806098938 106.57790375 0.3366039991 2.6649000645 2.1442000866
 2661.9696113 90.990798950 104.49849701 0.3305560052 2.6556999683 2.2054998875
 2662.1220113 90.675598145 108.53150177 0.3394060135 2.6475000381 2.3227000237
 2662.2744113 89.805603027 107.39550018 0.3518949747 2.6545000076 2.5058000088
 2662.4268113 86.702697754 107.95749664 0.3420690298 2.6570999622 2.7314999104
 2662.5792113 83.615196228 95.566902161 0.3023660183 2.6398999691 2.9716000557
 2662.7316113 84.109100342 98.197303772 0.2753580213 2.5945000648 3.2472999096
 2662.8840113 84.384902954 102.18840027 0.2789489925 2.5518999100 3.6301999092
 2663.0364113 83.851799011 107.44899750 0.2746109962 2.5432000160 4.1308999062
 2663.1888113 82.152801514 98.218399048 0.2552289963 2.5704998970 4.6441001892
 2663.3412113 77.271102905 88.999000549 0.2157889903 2.6110000610 5.1062002182
 2663.4936113 73.106002808 81.956199646 0.2203930020 2.6494998932 5.3874001503
 2663.6460113 73.341796875 78.564102173 0.2198989987 2.6782999039 5.4682998657
 2663.7984113 74.750602722 79.061401367 0.2234059870 2.6907999516 5.5304999352
 2663.9508113 76.408897400 84.644302368 0.2280730009 2.6730000973 5.5274000168
 2664.1032113 76.771102905 92.617202759 0.2459490001 2.6370999813 5.5093998909
 2664.2556113 79.173896790 91.446098328 0.2610870004 2.5984001160 5.5602998734
 2664.4080113 81.667800903 90.392700195 0.2721439898 2.5743999481 5.6230998039
 2664.5604113 83.932296753 95.459197998 0.2784830034 2.5678999424 5.5453000069
 2664.7128113 85.178901672 102.16760254 0.3145660162 2.5771999359 5.4464001656
 2664.8652113 91.114601135 112.26679993 0.3470190167 2.5836999416 5.3152999878
 2665.0176113 91.635002136 117.36389923 0.3686940074 2.5660998821 5.1700000763
 2665.1700113 92.794204712 117.99510193 0.3344390094 2.5404999256 5.0848999023
 2665.3224113 92.472198486 112.89689636 0.3043369949 2.5276000500 5.0770001411
 2665.4748113 88.136299133 106.77580261 0.2912639976 2.5422000885 5.0258002281
 2665.6272113 86.124298096 102.77380371 0.3153170049 2.5390000343 4.9303002357
 2665.7796113 90.346092224 93.841499329 0.3315399885 2.5109999180 4.7899999619
 2665.9320113 91.977699280 89.881202698 0.3536309898 2.4665000439 4.6490001678
